{"routeId":"30000014","shortName":"304","directionId":0,"headsign":"GURNEY- BKT.GEDUNG","stops":[{"stopId":"12000371","stopName":"(M1) Hospital Adventist","stopCode":"IAX0371","lat":5.43375,"lon":100.30376,"sequence":1},{"stopId":"12000369","stopName":"Midlands One Stop Centre","stopCode":"IAX0369","lat":5.43289,"lon":100.30629,"sequence":2},{"stopId":"12000368","stopName":"SMK/SK Convent Pulau Tikus","stopCode":"IAX0368","lat":5.43267,"lon":100.30824,"sequence":3},{"stopId":"12000727","stopName":"Gurney Plaza","stopCode":"ICR0727","lat":5.43594,"lon":100.30881,"sequence":4},{"stopId":"12000105","stopName":"Jalan Bagan Jermal(Gurney)","stopCode":"I0V0105","lat":5.4396,"lon":100.30738,"sequence":5},{"stopId":"12000102","stopName":"SMJK Phor Tay","stopCode":"I0V0102","lat":5.43713,"lon":100.30551,"sequence":6},{"stopId":"12000101","stopName":"Sekolah St. Nicholas","stopCode":"I0V0101","lat":5.43559,"lon":100.30415,"sequence":7},{"stopId":"12000371","stopName":"(M1) Hospital Adventist","stopCode":"IAX0371","lat":5.43375,"lon":100.30376,"sequence":8},{"stopId":"12000369","stopName":"Midlands One Stop Centre","stopCode":"IAX0369","lat":5.43289,"lon":100.30629,"sequence":9},{"stopId":"12000368","stopName":"SMK/SK Convent Pulau Tikus","stopCode":"IAX0368","lat":5.43267,"lon":100.30824,"sequence":10},{"stopId":"12000367","stopName":"Belissa Row","stopCode":"IAX0367","lat":5.43251,"lon":100.31017,"sequence":11},{"stopId":"12003626","stopName":"Wisma Perkeso","stopCode":"IAY0001","lat":5.42909,"lon":100.31335,"sequence":12},{"stopId":"12000388","stopName":"Apartment Villa Indah","stopCode":"IAZ0388","lat":5.42851,"lon":100.31058,"sequence":13},{"stopId":"12000838","stopName":"Kolej Disted-Stamford","stopCode":"IDJ0838","lat":5.42287,"lon":100.3085,"sequence":14},{"stopId":"12000835","stopName":"Buddhist Society","stopCode":"IDJ0835","lat":5.4223,"lon":100.31149,"sequence":15},{"stopId":"12001085","stopName":"Kem Wataniah 509","stopCode":"IEX1085","lat":5.42259,"lon":100.31718,"sequence":16},{"stopId":"12001082","stopName":"Pangsapuri Sri Pinang","stopCode":"IEX1082","lat":5.42086,"lon":100.31727,"sequence":17},{"stopId":"12000833","stopName":"Hospital Loh Guan Lye","stopCode":"IDJ0833","lat":5.41912,"lon":100.3182,"sequence":18},{"stopId":"12000832","stopName":"Tropicana Hotel","stopCode":"IDJ0832","lat":5.41802,"lon":100.32038,"sequence":19},{"stopId":"12000831","stopName":"Ayam Garam Macalister","stopCode":"IDJ0831","lat":5.41718,"lon":100.32225,"sequence":20},{"stopId":"12000829","stopName":"Nasi Kandar Pelita","stopCode":"IDJ0829","lat":5.41614,"lon":100.32443,"sequence":21},{"stopId":"12000828","stopName":"Masjid Simpang Enam","stopCode":"IDJ0828","lat":5.41454,"lon":100.32774,"sequence":22},{"stopId":"12001060","stopName":"Komtar Utara","stopCode":"IEV1060","lat":5.41513,"lon":100.32899,"sequence":23},{"stopId":"12002116","stopName":"Terminal Komtar","stopCode":"IFW1356","lat":5.41418,"lon":100.33031,"sequence":24},{"stopId":"12000461","stopName":"Pasaraya Gama","stopCode":"IBF0461","lat":5.41382,"lon":100.3281,"sequence":25},{"stopId":"12000456","stopName":"Penang Times Square","stopCode":"IBF0456","lat":5.41315,"lon":100.32621,"sequence":26},{"stopId":"12000443","stopName":"Pasar Jalan Kuantan","stopCode":"IBF0443","lat":5.41218,"lon":100.32367,"sequence":27},{"stopId":"12002112","stopName":"Kampung Makam","stopCode":"IBF0446","lat":5.41227,"lon":100.32089,"sequence":28},{"stopId":"12000449","stopName":"SMK/SK Convent Dato Keramat","stopCode":"IBF0449","lat":5.4127,"lon":100.31805,"sequence":29},{"stopId":"12000458","stopName":"Stadium Bandaraya","stopCode":"IBF0458","lat":5.41324,"lon":100.31458,"sequence":30},{"stopId":"12000077","stopName":"Masjid Jamek Sheikh Yusof(Hospital)","stopCode":"I0Q0077","lat":5.41355,"lon":100.31131,"sequence":31},{"stopId":"12000076","stopName":"Dhoby Ghaut","stopCode":"I0Q0076","lat":5.41246,"lon":100.30957,"sequence":32},{"stopId":"12000075","stopName":"SMK Sri Mutiara","stopCode":"I0Q0075","lat":5.41031,"lon":100.30745,"sequence":33},{"stopId":"12000072","stopName":"Han Chiang College","stopCode":"I0Q0072","lat":5.40803,"lon":100.30364,"sequence":34},{"stopId":"12000872","stopName":"SMK Penang Free","stopCode":"IDS0872","lat":5.40292,"lon":100.30405,"sequence":35},{"stopId":"12000870","stopName":"Restoran McDonald","stopCode":"IDS0870","lat":5.40127,"lon":100.30418,"sequence":36},{"stopId":"12000869","stopName":"SMK Convent Green Lane","stopCode":"IDS0869","lat":5.39722,"lon":100.30376,"sequence":37},{"stopId":"12000867","stopName":"Hospital Lam Wah Ee","stopCode":"IDS0867","lat":5.39392,"lon":100.30303,"sequence":38},{"stopId":"12000862","stopName":"Persatuan Kanak - Kanak Sepastik","stopCode":"IDS0862","lat":5.38894,"lon":100.30366,"sequence":39},{"stopId":"12000861","stopName":"Shell Jalan Masjid Negeri","stopCode":"IDS0861","lat":5.38664,"lon":100.30492,"sequence":40},{"stopId":"12001458","stopName":"(M2) RECSAM","stopCode":"IGR1458","lat":5.37593,"lon":100.3084,"sequence":41},{"stopId":"12001456","stopName":"Astaka Gelugor","stopCode":"IGR1456","lat":5.37239,"lon":100.30944,"sequence":42},{"stopId":"12001454","stopName":"BSN Gelugor","stopCode":"IGR1454","lat":5.36943,"lon":100.31026,"sequence":43},{"stopId":"12001453","stopName":"Restoran Kampung Ku","stopCode":"IGR1453","lat":5.36671,"lon":100.31078,"sequence":44},{"stopId":"12001451","stopName":"SK Sungai Gelugor","stopCode":"IGR1451","lat":5.36317,"lon":100.31125,"sequence":45},{"stopId":"12003137","stopName":"Jalan Sungai Dua II","stopCode":"IDX1507","lat":5.35429,"lon":100.3054,"sequence":46},{"stopId":"12001505","stopName":"USM","stopCode":"IGX1505","lat":5.35307,"lon":100.30315,"sequence":47},{"stopId":"12001501","stopName":"Restoran Nasi Kandar Pelita","stopCode":"IGX1501","lat":5.35202,"lon":100.29904,"sequence":48},{"stopId":"12001499","stopName":"Tesco Sungai Dua","stopCode":"IGX1499","lat":5.35025,"lon":100.29694,"sequence":49},{"stopId":"12001498","stopName":"SRJK Keong Hoe","stopCode":"IGX1498","lat":5.34655,"lon":100.29575,"sequence":50},{"stopId":"12001495","stopName":"Klinik Kesihatan Sg Dua","stopCode":"IGX1495","lat":5.34375,"lon":100.29753,"sequence":51},{"stopId":"12001493","stopName":"Kampung Dua Bukit","stopCode":"IGX1493","lat":5.34278,"lon":100.29931,"sequence":52},{"stopId":"12002139","stopName":"Terminal Bas Ekspres Sg Nibong","stopCode":"IGR2127","lat":5.34284,"lon":100.30035,"sequence":53},{"stopId":"12000078","stopName":"Taman Pantai Jerejak","stopCode":"I0R0078","lat":5.34027,"lon":100.30331,"sequence":54},{"stopId":"12002303","stopName":"KWSP Queensbay","stopCode":"ICT0031","lat":5.33692,"lon":100.30844,"sequence":55},{"stopId":"12002059","stopName":"Queensbay Mall","stopCode":"IKJ2059","lat":5.33195,"lon":100.30791,"sequence":56},{"stopId":"12002483","stopName":"Krystal Point Corporate Park","stopCode":"ICT0500","lat":5.33108,"lon":100.29709,"sequence":57},{"stopId":"12001843","stopName":"Kompleks Bukit Jambul II","stopCode":"IID1843","lat":5.33242,"lon":100.29099,"sequence":58},{"stopId":"12001844","stopName":"Masjid Al- Ittifaq","stopCode":"IID1844","lat":5.33245,"lon":100.28696,"sequence":59},{"stopId":"12001841","stopName":"Sungai Nibong Kecil","stopCode":"IID1841","lat":5.33193,"lon":100.28465,"sequence":60},{"stopId":"12001838","stopName":"SPICE","stopCode":"IID1838","lat":5.33071,"lon":100.28059,"sequence":61},{"stopId":"12000852","stopName":"SPICE Canopy","stopCode":"IDN0852","lat":5.32785,"lon":100.27905,"sequence":62},{"stopId":"12000850","stopName":"I Avenue","stopCode":"IDN0850","lat":5.32716,"lon":100.28524,"sequence":63},{"stopId":"12000887","stopName":"Sunshine Square","stopCode":"IDT0887","lat":5.32553,"lon":100.28769,"sequence":64},{"stopId":"12000880","stopName":"Pasaraya Giant","stopCode":"IDT0880","lat":5.32101,"lon":100.28599,"sequence":65},{"stopId":"12000877","stopName":"Pangsapuri Mayang","stopCode":"IDT0877","lat":5.31841,"lon":100.28499,"sequence":66},{"stopId":"12002083","stopName":"Taman Gedung Heights I","stopCode":"IKP2083","lat":5.31742,"lon":100.28243,"sequence":67},{"stopId":"12002082","stopName":"Taman Gedung Heights II","stopCode":"IKP2082","lat":5.31731,"lon":100.27995,"sequence":68},{"stopId":"12002315","stopName":"Gedung Height III","stopCode":"ICT0048","lat":5.31643,"lon":100.28105,"sequence":69},{"stopId":"12002316","stopName":"Gedung Height IV","stopCode":"ICT0049","lat":5.31618,"lon":100.28202,"sequence":70},{"stopId":"12000876","stopName":"Astaka Bukit Gedung","stopCode":"IDT0876","lat":5.31614,"lon":100.28407,"sequence":71},{"stopId":"12000888","stopName":"Hub Pasaraya Giant","stopCode":"IDT0888","lat":5.32174,"lon":100.28442,"sequence":72}],"shape":[[5.43433,100.30334],[5.43389,100.30357],[5.43345,100.30414],[5.43329,100.30437],[5.43303,100.30478],[5.43286,100.30595],[5.43268,100.30704],[5.43262,100.3078],[5.4326,100.30818],[5.4326,100.30884],[5.4334,100.30899],[5.4337,100.30905],[5.43421,100.30921],[5.43474,100.30941],[5.43517,100.30955],[5.43527,100.30956],[5.43556,100.30919],[5.43575,100.30899],[5.43629,100.30866],[5.43669,100.30853],[5.43709,100.30845],[5.4385,100.3081],[5.43978,100.30779],[5.43982,100.30763],[5.43978,100.30749],[5.43917,100.30708],[5.43863,100.30677],[5.4385,100.30668],[5.43831,100.30649],[5.43783,100.30613],[5.43712,100.3055],[5.43665,100.30507],[5.43633,100.30468],[5.43609,100.30443],[5.43596,100.30433],[5.43575,100.30422],[5.43533,100.30404],[5.43511,100.30392],[5.43469,100.30361],[5.43436,100.30337],[5.43433,100.30334],[5.43389,100.30357],[5.43345,100.30414],[5.43329,100.30437],[5.43303,100.30478],[5.43286,100.30595],[5.43268,100.30704],[5.43262,100.3078],[5.4326,100.30818],[5.4326,100.30884],[5.43257,100.30937],[5.43257,100.30947],[5.43248,100.31014],[5.43239,100.31048],[5.43225,100.3108],[5.43204,100.31123],[5.43163,100.31184],[5.43122,100.31221],[5.43038,100.31288],[5.43003,100.31314],[5.42997,100.31318],[5.4295,100.31357],[5.42887,100.31314],[5.42806,100.31271],[5.42834,100.31202],[5.42862,100.31147],[5.42896,100.31064],[5.42802,100.31039],[5.42705,100.30997],[5.42674,100.30982],[5.42647,100.30952],[5.42613,100.30927],[5.42524,100.30835],[5.42503,100.30816],[5.42415,100.30733],[5.42386,100.30719],[5.42343,100.30709],[5.42329,100.30711],[5.42321,100.30713],[5.42316,100.30717],[5.42308,100.30725],[5.42274,100.30904],[5.42241,100.31077],[5.42233,100.31119],[5.42218,100.31199],[5.42215,100.31212],[5.42219,100.31247],[5.42225,100.31283],[5.42236,100.31321],[5.42254,100.31354],[5.423,100.31442],[5.42324,100.31486],[5.42368,100.31581],[5.42425,100.31669],[5.42422,100.31684],[5.42413,100.31692],[5.42382,100.31693],[5.42334,100.31698],[5.42297,100.31709],[5.42208,100.31725],[5.42146,100.31732],[5.42105,100.31729],[5.42034,100.31719],[5.4199,100.31715],[5.41977,100.31716],[5.41965,100.31727],[5.41937,100.31787],[5.41885,100.31869],[5.41848,100.31935],[5.418,100.32043],[5.41747,100.32152],[5.41739,100.32173],[5.41702,100.3225],[5.41661,100.32337],[5.41616,100.3243],[5.416,100.3247],[5.41582,100.3251],[5.41508,100.32661],[5.41425,100.32841],[5.41429,100.32861],[5.41437,100.32879],[5.41446,100.32886],[5.41545,100.32919],[5.41564,100.32928],[5.4162,100.32945],[5.41667,100.32989],[5.41676,100.3302],[5.41667,100.33046],[5.41656,100.33063],[5.41609,100.331],[5.4155,100.33155],[5.41459,100.33046],[5.41445,100.33059],[5.41427,100.33058],[5.41383,100.33016],[5.41384,100.3297],[5.41371,100.32948],[5.41396,100.32902],[5.41406,100.32874],[5.4139,100.32825],[5.41359,100.32745],[5.41335,100.32671],[5.41313,100.3258],[5.41291,100.32503],[5.41267,100.32447],[5.41254,100.3241],[5.41232,100.32385],[5.41209,100.32357],[5.41201,100.32326],[5.41202,100.32274],[5.41215,100.32183],[5.4123,100.32095],[5.41252,100.31997],[5.41274,100.31909],[5.41274,100.31892],[5.41278,100.31808],[5.41275,100.31749],[5.4128,100.31611],[5.4129,100.3158],[5.41297,100.31564],[5.41325,100.3149],[5.41347,100.3142],[5.41355,100.31323],[5.41361,100.3122],[5.41359,100.31133],[5.41352,100.31099],[5.41343,100.31071],[5.4132,100.31041],[5.41268,100.30976],[5.41163,100.30865],[5.4116,100.30858],[5.41147,100.30852],[5.41116,100.30818],[5.41053,100.30753],[5.40978,100.3069],[5.40935,100.3066],[5.40906,100.30624],[5.40895,100.30599],[5.40832,100.30408],[5.40797,100.30311],[5.4078,100.30298],[5.40765,100.30291],[5.40713,100.30308],[5.4061,100.30344],[5.40568,100.30357],[5.40545,100.30359],[5.40502,100.30366],[5.40414,100.30383],[5.40359,100.30393],[5.40232,100.30408],[5.40195,100.30415],[5.40177,100.30418],[5.40122,100.30417],[5.40015,100.30408],[5.3993,100.30394],[5.39861,100.30384],[5.39844,100.30381],[5.39823,100.30379],[5.39784,100.30377],[5.39718,100.30369],[5.39664,100.30362],[5.39637,100.30357],[5.39536,100.30329],[5.39416,100.30305],[5.39298,100.30283],[5.39264,100.30275],[5.39202,100.30267],[5.39153,100.30259],[5.39112,100.30258],[5.39082,100.30265],[5.39017,100.30291],[5.38958,100.30321],[5.3881,100.30403],[5.38729,100.30453],[5.38663,100.30482],[5.38581,100.30522],[5.38509,100.30555],[5.38419,100.30598],[5.38333,100.30639],[5.38292,100.30653],[5.38254,100.30665],[5.38164,100.30684],[5.38116,100.30702],[5.38046,100.30744],[5.38034,100.30768],[5.38029,100.30777],[5.38031,100.3079],[5.38026,100.30806],[5.3801,100.30819],[5.37993,100.30815],[5.3798,100.30807],[5.37967,100.30806],[5.37899,100.30807],[5.37855,100.30809],[5.37841,100.30806],[5.37832,100.30801],[5.37733,100.30808],[5.37683,100.30815],[5.37613,100.3083],[5.37526,100.30849],[5.37436,100.30869],[5.37359,100.3089],[5.3731,100.30907],[5.3724,100.30941],[5.37149,100.3099],[5.37087,100.31009],[5.37037,100.31016],[5.36932,100.31019],[5.36872,100.31025],[5.3682,100.31026],[5.3678,100.31036],[5.36739,100.3105],[5.3671,100.31058],[5.36634,100.31084],[5.36585,100.31095],[5.36518,100.31109],[5.3643,100.31118],[5.36346,100.3112],[5.36253,100.31113],[5.3617,100.31102],[5.36066,100.31081],[5.35949,100.3106],[5.35842,100.31041],[5.358,100.31035],[5.35725,100.31014],[5.35662,100.30992],[5.35624,100.30977],[5.35594,100.30963],[5.35529,100.30911],[5.35466,100.30869],[5.35388,100.30783],[5.35338,100.307],[5.35328,100.3068],[5.3534,100.30671],[5.35366,100.3066],[5.35382,100.30652],[5.35387,100.30636],[5.35415,100.30581],[5.35427,100.30551],[5.35431,100.30523],[5.35428,100.30493],[5.35423,100.30468],[5.35413,100.30449],[5.35403,100.30434],[5.35386,100.30418],[5.35362,100.30397],[5.35344,100.30378],[5.35334,100.3036],[5.35323,100.30347],[5.35312,100.30326],[5.35304,100.303],[5.35298,100.30278],[5.35295,100.30267],[5.35268,100.30162],[5.35268,100.30146],[5.3526,100.30127],[5.35246,100.30049],[5.3524,100.29985],[5.35239,100.29978],[5.35231,100.29956],[5.35219,100.29929],[5.35202,100.299],[5.35191,100.29888],[5.35168,100.29854],[5.35097,100.29771],[5.3509,100.29763],[5.35072,100.29745],[5.35035,100.29699],[5.35008,100.29673],[5.34983,100.29651],[5.34969,100.29643],[5.34945,100.29628],[5.34915,100.29613],[5.34796,100.29565],[5.34758,100.29558],[5.34716,100.29561],[5.34678,100.29566],[5.34615,100.29579],[5.34564,100.29609],[5.34499,100.29653],[5.34445,100.2969],[5.34402,100.2972],[5.34377,100.29746],[5.34362,100.29773],[5.34349,100.29787],[5.34345,100.29803],[5.34313,100.29863],[5.34252,100.29975],[5.34231,100.30012],[5.34233,100.30035],[5.34237,100.30046],[5.34249,100.30048],[5.34289,100.30067],[5.34315,100.30017],[5.34256,100.29981],[5.34252,100.29975],[5.34231,100.30012],[5.3422,100.30037],[5.34209,100.30057],[5.34175,100.30115],[5.34099,100.30245],[5.34084,100.3027],[5.34059,100.30295],[5.33987,100.30371],[5.33965,100.30397],[5.33937,100.30439],[5.33929,100.30454],[5.33918,100.30481],[5.33908,100.30507],[5.33852,100.30684],[5.33815,100.30802],[5.33811,100.30825],[5.33807,100.30853],[5.33813,100.3086],[5.33814,100.30866],[5.33813,100.30877],[5.33807,100.30886],[5.33798,100.30894],[5.33786,100.30896],[5.33773,100.30893],[5.33764,100.30883],[5.3376,100.30865],[5.33705,100.30842],[5.33651,100.30815],[5.33602,100.30777],[5.33533,100.30725],[5.3352,100.30719],[5.33504,100.30711],[5.3349,100.30707],[5.33458,100.30699],[5.33444,100.30696],[5.33391,100.307],[5.33363,100.30706],[5.33315,100.30723],[5.33243,100.30762],[5.3322,100.30782],[5.3319,100.30818],[5.33182,100.30827],[5.33177,100.30838],[5.33182,100.3085],[5.33179,100.30864],[5.33164,100.30874],[5.33149,100.30869],[5.3314,100.3086],[5.33139,100.30849],[5.33141,100.3084],[5.3315,100.30833],[5.33157,100.30831],[5.33171,100.30821],[5.33194,100.30795],[5.33221,100.30767],[5.33238,100.30753],[5.33264,100.30736],[5.33319,100.30709],[5.3336,100.30695],[5.33395,100.30688],[5.33438,100.30686],[5.33485,100.30693],[5.33509,100.307],[5.33536,100.30627],[5.33546,100.30603],[5.33531,100.3059],[5.33475,100.30592],[5.33415,100.30593],[5.33357,100.30589],[5.333,100.30578],[5.33264,100.30566],[5.332,100.30529],[5.33137,100.30484],[5.33102,100.30438],[5.33072,100.30388],[5.33051,100.30343],[5.33037,100.30308],[5.33022,100.30251],[5.33011,100.30203],[5.33002,100.30107],[5.33017,100.30021],[5.33025,100.29986],[5.33048,100.29908],[5.33054,100.2989],[5.33134,100.29629],[5.33143,100.29603],[5.33139,100.29588],[5.33136,100.29577],[5.33116,100.29559],[5.33105,100.29531],[5.33102,100.29515],[5.33108,100.29493],[5.3312,100.29478],[5.33143,100.29463],[5.33154,100.2946],[5.33165,100.29447],[5.33183,100.29429],[5.3319,100.29413],[5.33193,100.29398],[5.33211,100.29323],[5.3324,100.29168],[5.33252,100.29095],[5.33268,100.28998],[5.33272,100.28948],[5.33278,100.28886],[5.33277,100.28871],[5.33269,100.28796],[5.33262,100.28768],[5.33235,100.28639],[5.33226,100.28583],[5.3318,100.28416],[5.33153,100.2832],[5.33148,100.28306],[5.33126,100.28226],[5.33109,100.28164],[5.33087,100.28096],[5.33074,100.2805],[5.33068,100.28037],[5.33055,100.28009],[5.33031,100.27972],[5.3301,100.27946],[5.32972,100.27902],[5.32936,100.27879],[5.32898,100.27859],[5.3287,100.27849],[5.3284,100.2784],[5.32815,100.27836],[5.32804,100.27845],[5.32792,100.2785],[5.32754,100.28043],[5.32741,100.28156],[5.32735,100.28177],[5.32733,100.28196],[5.32722,100.28256],[5.32717,100.2831],[5.32714,100.28394],[5.32713,100.28419],[5.32711,100.28502],[5.32709,100.28552],[5.32704,100.28647],[5.32698,100.28749],[5.32697,100.28772],[5.32697,100.28782],[5.32686,100.28781],[5.32665,100.28779],[5.32588,100.28769],[5.32554,100.28763],[5.32483,100.28741],[5.32402,100.28715],[5.32304,100.28679],[5.32193,100.28634],[5.32124,100.28607],[5.32048,100.28577],[5.32035,100.28573],[5.3202,100.28571],[5.31991,100.28557],[5.31975,100.28552],[5.31964,100.28546],[5.31961,100.28541],[5.3192,100.28528],[5.31852,100.28502],[5.31802,100.28482],[5.31732,100.28455],[5.31685,100.28436],[5.3171,100.28344],[5.31747,100.28235],[5.31776,100.28131],[5.3181,100.28023],[5.31771,100.28008],[5.31728,100.27994],[5.31686,100.27984],[5.31671,100.28034],[5.31646,100.28114],[5.31626,100.28185],[5.31609,100.28244],[5.31589,100.28307],[5.31584,100.2833],[5.31564,100.28395],[5.31624,100.28413],[5.31653,100.28421],[5.3169,100.28431],[5.31696,100.28436],[5.31796,100.28476],[5.31861,100.28501],[5.31918,100.28521],[5.31961,100.28541],[5.31972,100.2854],[5.31981,100.28541],[5.31993,100.28547],[5.32021,100.28559],[5.32059,100.2857],[5.32101,100.28585],[5.32137,100.286],[5.32138,100.28592],[5.32152,100.28565],[5.32158,100.28563],[5.32158,100.28554],[5.32174,100.28518],[5.32176,100.28503],[5.3218,100.28498],[5.32177,100.28485],[5.32181,100.28387],[5.32185,100.28381]],"tripIds":["260327010136S5","260327010139S6","260327020134S7","260327020137S8","260327020138S2","260327020138S4","260327020139S2","260327020139S8","260327030134S3","260327010135S9","260327010138S8","260327020134S5","260327020134S9","260327020137S2","260327030136S5","260327030138S10","260327010134S5","260327030135S3","260327030135S5","260327030136S7","260327030136S9","260327030139S2","260327010135S7","260327010137S6","260327010139S8","260327020135S5","260327020135S7","260327020135S9","260327020136S7","260327020138S6","260327020139S4","260327020139S6","260327030135S7","260327030137S3","260327030139S4","260327010134S9","260327010136S3","260327010138S2","260327020137S4","260327030134S5","260327030138S2","260327030139S8","260327010134S7","260327010137S2","260327010137S8","260327010139S2","260327010139S4","260327020134S3","260327020135S3","260327020138S8","260327030134S7","260327030136S3","260327030137S7","260327010134S3","260327010136S7","260327010137S4","260327010138S4","260327010138S6","260327020136S3","260327030134S9","260327030135S9","260327030138S6","260327030138S8","260327030139S6","260327010135S3","260327010135S5","260327020136S5","260327020137S6","260327030137S5","260327030138S4"],"oppositeTripIds":["260327010134S4","260327010137S9","260327020134S8","260327020136S8","260327020139S3","260327030134S10","260327030136S2","260327030136S10","260327030139S3","260327010134S8","260327010136S6","260327010137S3","260327010138S9","260327020134S6","260327020137S3","260327030134S4","260327030137S6","260327030138S5","260327010134S2","260327010134S6","260327010137S7","260327010138S5","260327020134S2","260327030134S8","260327030136S6","260327030137S8","260327030138S7","260327010136S8","260327010138S3","260327020135S8","260327020136S4","260327030135S4","260327030137S2","260327030139S7","260327010135S4","260327010137S5","260327010139S7","260327020137S5","260327020137S7","260327020138S5","260327030135S2","260327030135S6","260327030135S8","260327030136S4","260327030138S9","260327010135S8","260327010138S7","260327010139S5","260327020134S4","260327020136S2","260327020136S6","260327020137S9","260327020139S7","260327030134S6","260327030137S4","260327010136S4","260327020135S2","260327020135S4","260327020138S7","260327020138S9","260327020139S5","260327030136S8","260327030138S3","260327030139S5","260327010135S2","260327010135S6","260327010136S2","260327010139S3","260327020135S6","260327020138S3","260327030134S2"],"firstDeparture":"05:30","lastDeparture":"22:35","tripCount":70}