{"routeId":"30000004","shortName":"104","directionId":1,"headsign":"KOMTAR-TANJUNG BUNGAH","stops":[{"stopId":"12002988","stopName":"(M1) Hub Lebuh Carnavon","stopCode":"IIL1950","lat":5.41262,"lon":100.332,"sequence":1},{"stopId":"12001937","stopName":"Komtar","stopCode":"IIV1937","lat":5.41378,"lon":100.33094,"sequence":2},{"stopId":"12002116","stopName":"Terminal Komtar","stopCode":"IFW1356","lat":5.41418,"lon":100.33031,"sequence":3},{"stopId":"12001832","stopName":"Wisma MCA","stopCode":"IIC1832","lat":5.41841,"lon":100.32954,"sequence":4},{"stopId":"12001835","stopName":"Transfer Road","stopCode":"IIC1835","lat":5.42088,"lon":100.33061,"sequence":5},{"stopId":"12001410","stopName":"SMKA (P) Al Mashoor","stopCode":"IGQ1410","lat":5.42333,"lon":100.33028,"sequence":6},{"stopId":"12001413","stopName":"(M3) SK Perempuan Island","stopCode":"IGQ1413","lat":5.42349,"lon":100.32843,"sequence":7},{"stopId":"12003016","stopName":"1926 Heritage Hotel","stopCode":"IAX0372","lat":5.42417,"lon":100.32053,"sequence":8},{"stopId":"12000360","stopName":"Chinese Recreation Club","stopCode":"IAX0360","lat":5.42517,"lon":100.3191,"sequence":9},{"stopId":"12000972","stopName":"Gleneagles II","stopCode":"IEL0972","lat":5.42728,"lon":100.31952,"sequence":10},{"stopId":"12000718","stopName":"Sri Pangkor Kondominium","stopCode":"ICR0718","lat":5.42875,"lon":100.31974,"sequence":11},{"stopId":"12000719","stopName":"Gurney Hotel","stopCode":"ICR0719","lat":5.42947,"lon":100.31879,"sequence":12},{"stopId":"12000720","stopName":"Evergreen Hotel","stopCode":"ICR0720","lat":5.4303,"lon":100.31715,"sequence":13},{"stopId":"12000721","stopName":"Masjid Jamek Al Munawer","stopCode":"ICR0721","lat":5.43073,"lon":100.31622,"sequence":14},{"stopId":"12000722","stopName":"Flat Kelawei","stopCode":"ICR0722","lat":5.4313,"lon":100.31533,"sequence":15},{"stopId":"12000723","stopName":"Sleeping Buddha","stopCode":"ICR0723","lat":5.43209,"lon":100.31404,"sequence":16},{"stopId":"12000724","stopName":"Pangsapuri Festival","stopCode":"ICR0724","lat":5.43341,"lon":100.31219,"sequence":17},{"stopId":"12000726","stopName":"Gurney Paragon","stopCode":"ICR0726","lat":5.43463,"lon":100.31057,"sequence":18},{"stopId":"12000727","stopName":"Gurney Plaza","stopCode":"ICR0727","lat":5.43594,"lon":100.30881,"sequence":19},{"stopId":"12000105","stopName":"Jalan Bagan Jermal(Gurney)","stopCode":"I0V0105","lat":5.4396,"lon":100.30738,"sequence":20},{"stopId":"12000102","stopName":"SMJK Phor Tay","stopCode":"I0V0102","lat":5.43713,"lon":100.30551,"sequence":21},{"stopId":"12000894","stopName":"Kwang Tung & Teng Chow Association","stopCode":"IDX0894","lat":5.43515,"lon":100.30302,"sequence":22},{"stopId":"12000896","stopName":"Chinese Cemetery","stopCode":"IDX0896","lat":5.43729,"lon":100.30267,"sequence":23},{"stopId":"12000897","stopName":"Hong Seng Estate","stopCode":"IDX0897","lat":5.44093,"lon":100.30298,"sequence":24},{"stopId":"12000900","stopName":"Kompleks Institut Pendidikan","stopCode":"IDX0900","lat":5.45006,"lon":100.30207,"sequence":25},{"stopId":"12000807","stopName":"Pepper Estate","stopCode":"IDC0807","lat":5.45461,"lon":100.29941,"sequence":26},{"stopId":"12000477","stopName":"Jalan Evergreen","stopCode":"IBJ0477","lat":5.45319,"lon":100.30276,"sequence":27},{"stopId":"12000289","stopName":"Jalan Bintang","stopCode":"IAP0289","lat":5.45719,"lon":100.30215,"sequence":28},{"stopId":"12000482","stopName":"Jalan Gajah II","stopCode":"IBL0482","lat":5.46006,"lon":100.30282,"sequence":29},{"stopId":"12000483","stopName":"Jalan Gajah I","stopCode":"IBL0483","lat":5.4623,"lon":100.30374,"sequence":30},{"stopId":"12001663","stopName":"Mercure Penang Beach Hotel","stopCode":"IHJ1663","lat":5.46354,"lon":100.30138,"sequence":31},{"stopId":"12001564","stopName":"Petron Jalan Sungai Kelian","stopCode":"IGY1564","lat":5.46497,"lon":100.29183,"sequence":32},{"stopId":"12000825","stopName":"Jalan Loh Poh Heng","stopCode":"IDI0825","lat":5.46207,"lon":100.29002,"sequence":33},{"stopId":"12000081","stopName":"Sekolah Ikthisas Tentera Udara","stopCode":"I0S0081","lat":5.45918,"lon":100.28918,"sequence":34},{"stopId":"12002239","stopName":"Lembah Permai","stopCode":"IKY2140","lat":5.4574,"lon":100.28895,"sequence":35},{"stopId":"12002028","stopName":"Lorong Lembah Permai 3","stopCode":"IJZ2028","lat":5.45394,"lon":100.28836,"sequence":36},{"stopId":"12002026","stopName":"TAR Kolej II","stopCode":"IJZ2026","lat":5.45352,"lon":100.2863,"sequence":37},{"stopId":"12002027","stopName":"TAR Kolej I","stopCode":"IJZ2027","lat":5.45371,"lon":100.28502,"sequence":38},{"stopId":"12002018","stopName":"Flat Permai Jaya","stopCode":"IJV2018","lat":5.45504,"lon":100.28214,"sequence":39},{"stopId":"12002019","stopName":"Flat Boon Siew","stopCode":"IJV2019","lat":5.45621,"lon":100.2824,"sequence":40},{"stopId":"12000811","stopName":"Tenby School","stopCode":"IDF0811","lat":5.45849,"lon":100.28229,"sequence":41},{"stopId":"12000813","stopName":"Sekolah Kebangsaan Pendidikan Khas","stopCode":"IDF0813","lat":5.45893,"lon":100.28025,"sequence":42},{"stopId":"12000816","stopName":"Pangsapuri Azuria","stopCode":"IDF0816","lat":5.46253,"lon":100.27991,"sequence":43},{"stopId":"12000818","stopName":"Ambank","stopCode":"IDF0818","lat":5.4646,"lon":100.28041,"sequence":44},{"stopId":"12001671","stopName":"Harmony Residence","stopCode":"IHJ1671","lat":5.46546,"lon":100.28178,"sequence":45},{"stopId":"12001670","stopName":"Menara Asas","stopCode":"IHJ1670","lat":5.46545,"lon":100.28374,"sequence":46}],"shape":[[5.41303,100.33222],[5.41269,100.332],[5.41257,100.33185],[5.41258,100.33176],[5.41286,100.33122],[5.41315,100.33067],[5.41357,100.33088],[5.41382,100.331],[5.41396,100.33116],[5.41467,100.33194],[5.41486,100.33198],[5.41543,100.33156],[5.4155,100.33155],[5.41459,100.33046],[5.41445,100.33059],[5.41427,100.33058],[5.41383,100.33016],[5.41384,100.3297],[5.41371,100.32948],[5.41396,100.32902],[5.41412,100.32888],[5.41431,100.32885],[5.41446,100.32886],[5.41545,100.32919],[5.41564,100.32928],[5.4162,100.32945],[5.41667,100.32989],[5.41683,100.32992],[5.41696,100.32986],[5.41698,100.32976],[5.41745,100.32922],[5.41766,100.32902],[5.41795,100.32931],[5.41822,100.32947],[5.41866,100.32968],[5.41941,100.33002],[5.42004,100.33027],[5.42151,100.33089],[5.42196,100.3311],[5.42207,100.3311],[5.42336,100.33159],[5.42347,100.33159],[5.4233,100.3308],[5.42331,100.33034],[5.42364,100.3281],[5.42391,100.32732],[5.42395,100.32715],[5.42389,100.32704],[5.42358,100.3269],[5.42286,100.32653],[5.42253,100.32635],[5.42246,100.32621],[5.42238,100.32612],[5.42236,100.32608],[5.42238,100.32596],[5.42244,100.3257],[5.42243,100.32545],[5.42236,100.32529],[5.42223,100.32509],[5.42202,100.32484],[5.42187,100.32467],[5.42162,100.32436],[5.42175,100.3241],[5.42226,100.32328],[5.42261,100.32282],[5.42313,100.32209],[5.42341,100.32167],[5.42371,100.32123],[5.42399,100.32084],[5.42429,100.32042],[5.42487,100.31962],[5.4257,100.31847],[5.42589,100.31835],[5.426,100.31836],[5.42604,100.3184],[5.42678,100.3191],[5.42742,100.31968],[5.42765,100.31987],[5.4281,100.32026],[5.42828,100.32026],[5.42842,100.32012],[5.42905,100.3194],[5.42934,100.31902],[5.42974,100.31842],[5.43018,100.31745],[5.43041,100.31695],[5.43054,100.31665],[5.43095,100.3159],[5.43112,100.31561],[5.43151,100.31501],[5.43199,100.31423],[5.43239,100.31375],[5.43278,100.31332],[5.4328,100.31332],[5.43298,100.31299],[5.43319,100.31264],[5.43331,100.31248],[5.43379,100.31176],[5.43421,100.31114],[5.43433,100.31099],[5.43468,100.31044],[5.43496,100.31005],[5.43527,100.30956],[5.43556,100.30919],[5.43575,100.30899],[5.43629,100.30866],[5.43669,100.30853],[5.43709,100.30845],[5.4385,100.3081],[5.43978,100.30779],[5.43982,100.30763],[5.43978,100.30749],[5.43917,100.30708],[5.43863,100.30677],[5.4385,100.30668],[5.43831,100.30649],[5.43783,100.30613],[5.43712,100.3055],[5.43665,100.30507],[5.43633,100.30468],[5.43609,100.30443],[5.43596,100.30433],[5.43575,100.30422],[5.43533,100.30404],[5.43511,100.30392],[5.43469,100.30361],[5.43436,100.30337],[5.43433,100.30334],[5.43439,100.30329],[5.43486,100.30319],[5.43491,100.30321],[5.43504,100.30312],[5.43552,100.303],[5.43714,100.30271],[5.43737,100.30272],[5.43886,100.30284],[5.4403,100.30295],[5.44114,100.30301],[5.44235,100.30296],[5.44539,100.30268],[5.4466,100.30233],[5.44791,100.3021],[5.44969,100.30214],[5.45001,100.30215],[5.45106,100.30213],[5.45125,100.30214],[5.45193,100.30215],[5.4522,100.30208],[5.45251,100.30194],[5.45316,100.30143],[5.45352,100.30106],[5.4543,100.3004],[5.45435,100.30011],[5.45449,100.29984],[5.45456,100.29963],[5.45462,100.29933],[5.45465,100.29931],[5.45466,100.29938],[5.45463,100.2995],[5.4546,100.29959],[5.45455,100.2998],[5.45447,100.29996],[5.45435,100.30011],[5.45445,100.30014],[5.45441,100.30034],[5.45433,100.30049],[5.45365,100.30103],[5.45327,100.30142],[5.45305,100.30162],[5.45274,100.30186],[5.45247,100.30202],[5.45253,100.30208],[5.45259,100.30239],[5.45259,100.30263],[5.45257,100.3028],[5.45248,100.30302],[5.45268,100.30309],[5.45276,100.30305],[5.45389,100.3023],[5.45401,100.30226],[5.45486,100.30232],[5.45503,100.30228],[5.45618,100.302],[5.45625,100.30197],[5.45636,100.3024],[5.45729,100.30217],[5.45749,100.30214],[5.45775,100.3028],[5.45801,100.30269],[5.45811,100.30266],[5.45856,100.30258],[5.4591,100.3026],[5.45967,100.30269],[5.45992,100.30278],[5.46037,100.30301],[5.46075,100.30317],[5.46134,100.30348],[5.46192,100.3037],[5.46268,100.30385],[5.46276,100.30389],[5.46311,100.30249],[5.46326,100.30202],[5.4644,100.29977],[5.46446,100.29951],[5.46446,100.29921],[5.46446,100.29906],[5.46446,100.2989],[5.46443,100.29853],[5.46456,100.29772],[5.46453,100.29726],[5.46478,100.29607],[5.46483,100.29462],[5.46489,100.29424],[5.46526,100.29295],[5.46548,100.2922],[5.46538,100.2922],[5.46517,100.29213],[5.46508,100.29209],[5.46498,100.29187],[5.46487,100.2917],[5.46475,100.29143],[5.46399,100.2898],[5.4634,100.29006],[5.46322,100.2901],[5.46216,100.29002],[5.461,100.28992],[5.46084,100.28991],[5.46067,100.28985],[5.46043,100.28965],[5.46023,100.28936],[5.45996,100.28883],[5.45976,100.28886],[5.4596,100.28891],[5.45931,100.28905],[5.45842,100.28978],[5.45812,100.28985],[5.4579,100.28986],[5.45765,100.28982],[5.45737,100.28972],[5.45747,100.28854],[5.45683,100.28851],[5.45464,100.28841],[5.45393,100.28836],[5.45377,100.28832],[5.45362,100.28825],[5.45346,100.28809],[5.45337,100.28795],[5.45332,100.28773],[5.45335,100.28743],[5.45352,100.28667],[5.45354,100.28636],[5.4539,100.28433],[5.45424,100.28224],[5.45427,100.28215],[5.45435,100.28211],[5.45461,100.28213],[5.45581,100.28237],[5.45706,100.28263],[5.4579,100.28281],[5.45836,100.2829],[5.45872,100.28124],[5.45908,100.27979],[5.45919,100.27948],[5.45925,100.27937],[5.45936,100.27925],[5.4595,100.27918],[5.45967,100.2792],[5.46119,100.2796],[5.46252,100.27996],[5.4645,100.28047],[5.46539,100.28067],[5.46547,100.28072],[5.46558,100.28075],[5.46558,100.28085],[5.46547,100.28146],[5.46543,100.28185],[5.46544,100.28274],[5.46545,100.28303],[5.46546,100.28314],[5.46544,100.28321],[5.46547,100.2833],[5.46548,100.28404],[5.4655,100.28421],[5.46552,100.28432],[5.46549,100.28438],[5.46537,100.28439],[5.46532,100.28442],[5.46488,100.28446],[5.46488,100.2846],[5.46483,100.28462],[5.46461,100.28464],[5.46455,100.28464],[5.46454,100.28446]],"tripIds":["260327010038S5","260327010039S7","260327010039S13","260327020038S7","260327030038S7","260327030039S5","260327010038S11","260327030039S9","260327020038S11","260327020039S3","260327030038S13","260327010038S9","260327020038S5","260327020038S9","260327030038S3","260327030038S5","260327010038S3","260327010038S7","260327020039S7","260327020039S9","260327030038S11","260327030038S15","260327030039S13","260327010038S13","260327010039S3","260327020038S3","260327030038S9","260327010039S5","260327010039S9","260327020038S13","260327020039S5","260327030039S3","260327030039S7","260327010039S11","260327020039S11","260327020039S13","260327030039S11"],"oppositeTripIds":["260327010039S6","260327010038S4","260327010038S6","260327010039S12","260327020038S4","260327030038S12","260327030038S14","260327010038S8","260327010038S12","260327010039S2","260327010039S10","260327020039S4","260327020039S6","260327020039S10","260327030039S10","260327010038S10","260327010039S4","260327020038S10","260327020038S12","260327010039S8","260327030038S8","260327030039S4","260327010038S2","260327020038S6","260327020038S14","260327030038S10","260327030039S12","260327020038S2","260327020038S8","260327020039S8","260327020039S12","260327030038S2","260327030038S6","260327030039S8","260327010038S14","260327020039S2","260327030038S4","260327030039S2","260327030039S6"],"firstDeparture":"06:30","lastDeparture":"22:30","tripCount":37}