{"routeId":"30000038","shortName":"703","directionId":1,"headsign":"SEBERANG JAYA - PENANG SENTRAL","stops":[{"stopId":"12002093","stopName":"Tesco Extra","stopCode":"MKS2093","lat":5.40595,"lon":100.40421,"sequence":1},{"stopId":"12002092","stopName":"Taman Sembilang","stopCode":"MKS2092","lat":5.40472,"lon":100.40275,"sequence":2},{"stopId":"12001993","stopName":"Masjid Sembilang","stopCode":"MJL1993","lat":5.40205,"lon":100.39852,"sequence":3},{"stopId":"12001957","stopName":"Petronas Sunway","stopCode":"MJF1957","lat":5.40021,"lon":100.39997,"sequence":4},{"stopId":"12002543","stopName":"Sunway Carnival","stopCode":"ICT0313","lat":5.39862,"lon":100.39725,"sequence":5},{"stopId":"12002989","stopName":"Sunway Carnival Mall","stopCode":"MIB1850","lat":5.39876,"lon":100.39874,"sequence":6},{"stopId":"12001830","stopName":"Prudential","stopCode":"MIB1830","lat":5.39674,"lon":100.39963,"sequence":7},{"stopId":"12002647","stopName":"(M2) Pasar Seberang Jaya","stopCode":"IEX1299","lat":5.39509,"lon":100.397,"sequence":8},{"stopId":"12002530","stopName":"Hotel Blanket","stopCode":"ICT0303","lat":5.39485,"lon":100.40001,"sequence":9},{"stopId":"12001810","stopName":"Shell Lintang Tenggiri","stopCode":"MHV1810","lat":5.39543,"lon":100.40179,"sequence":10},{"stopId":"12002021","stopName":"Lintang Tenggiri","stopCode":"MJW2021","lat":5.39619,"lon":100.40279,"sequence":11},{"stopId":"12001996","stopName":"Pangsapuri RPKN","stopCode":"MJM1996","lat":5.39501,"lon":100.40444,"sequence":12},{"stopId":"12001809","stopName":"Pasar Awam","stopCode":"MHV1809","lat":5.39298,"lon":100.4016,"sequence":13},{"stopId":"12001388","stopName":"SP Arena","stopCode":"MGJ1388","lat":5.38636,"lon":100.40236,"sequence":14},{"stopId":"12001877","stopName":"Masjid Seberang Jaya","stopCode":"MIF1877","lat":5.38675,"lon":100.40491,"sequence":15},{"stopId":"12001878","stopName":"Pangsapuri B3","stopCode":"MIF1878","lat":5.39097,"lon":100.40536,"sequence":16},{"stopId":"12001880","stopName":"Pangsapuri A1","stopCode":"MIF1880","lat":5.39331,"lon":100.40557,"sequence":17},{"stopId":"12001881","stopName":"Hospital Seberang Jaya","stopCode":"MIF1881","lat":5.39454,"lon":100.40633,"sequence":18},{"stopId":"12001879","stopName":"Hospital Seberang Jaya II","stopCode":"MIF1879","lat":5.3931,"lon":100.4062,"sequence":19},{"stopId":"12002025","stopName":"Aeon Big","stopCode":"MJY2025","lat":5.39034,"lon":100.4077,"sequence":20},{"stopId":"12002024","stopName":"SMK Tun Hussein Onn","stopCode":"MJY2024","lat":5.38805,"lon":100.40646,"sequence":21},{"stopId":"12001876","stopName":"Telekom Seberang Jaya","stopCode":"MIF1876","lat":5.3865,"lon":100.40548,"sequence":22},{"stopId":"12001067","stopName":"(M2) Megamall - Pacific","stopCode":"MEW1067","lat":5.37879,"lon":100.39794,"sequence":23},{"stopId":"12000179","stopName":"Kuil Sri Muniswara","stopCode":"MAA0179","lat":5.38038,"lon":100.39541,"sequence":24},{"stopId":"12000180","stopName":"Padang Kilat","stopCode":"MAA0180","lat":5.38153,"lon":100.39312,"sequence":25},{"stopId":"12000389","stopName":"Public Bank Inderawasih","stopCode":"MBA0389","lat":5.38858,"lon":100.38879,"sequence":26},{"stopId":"12000390","stopName":"Taman Inderawasih","stopCode":"MBA0390","lat":5.39072,"lon":100.38898,"sequence":27},{"stopId":"12000393","stopName":"Pusat Perniagaan Chain Ferry II","stopCode":"MBA0393","lat":5.40244,"lon":100.38308,"sequence":28},{"stopId":"12000392","stopName":"Pusat Perniagaan Chain Ferry I","stopCode":"MBA0392","lat":5.40128,"lon":100.37952,"sequence":29},{"stopId":"12000391","stopName":"Taman Limbungan Chain Ferry","stopCode":"MBA0391","lat":5.40078,"lon":100.37832,"sequence":30},{"stopId":"12002349","stopName":"Econsave ChainFerry","stopCode":"ICT0091","lat":5.40007,"lon":100.3765,"sequence":31},{"stopId":"12000911","stopName":"Harbour Place","stopCode":"MEA0911","lat":5.39815,"lon":100.37133,"sequence":32},{"stopId":"12000909","stopName":"SMK Convent Butterworth","stopCode":"MEA0909","lat":5.39697,"lon":100.36834,"sequence":33},{"stopId":"12002322","stopName":"(M1) Penang Sentral","stopCode":"MEM0973","lat":5.39486,"lon":100.36535,"sequence":34}],"shape":[[5.40645,100.40458],[5.40624,100.40438],[5.40562,100.40381],[5.40543,100.40364],[5.40528,100.4035],[5.40518,100.40336],[5.40457,100.40253],[5.40433,100.4022],[5.40425,100.40202],[5.40422,100.40193],[5.40419,100.40177],[5.40419,100.40154],[5.40414,100.40094],[5.4041,100.40031],[5.4041,100.39993],[5.40418,100.3989],[5.40325,100.39873],[5.40268,100.39865],[5.40232,100.39859],[5.40196,100.39848],[5.40142,100.3982],[5.4013,100.39812],[5.40071,100.39931],[5.40031,100.40052],[5.40013,100.40163],[5.40005,100.40291],[5.40009,100.40317],[5.40006,100.40378],[5.39989,100.4053],[5.39977,100.40605],[5.39995,100.40631],[5.39998,100.40654],[5.39993,100.40675],[5.39982,100.40688],[5.39966,100.40698],[5.39942,100.40705],[5.3992,100.40697],[5.39904,100.40671],[5.39899,100.40657],[5.399,100.40632],[5.39908,100.40614],[5.3992,100.40604],[5.39929,100.40596],[5.39945,100.40575],[5.39948,100.40564],[5.39969,100.40409],[5.39976,100.40353],[5.39985,100.40334],[5.39989,100.40268],[5.39993,100.40206],[5.40015,100.40072],[5.40044,100.3998],[5.40079,100.39883],[5.401,100.39831],[5.40091,100.39804],[5.40068,100.39783],[5.40048,100.39774],[5.40017,100.39756],[5.40006,100.39752],[5.39994,100.39746],[5.39989,100.39745],[5.39986,100.39743],[5.39968,100.39738],[5.39844,100.3971],[5.39766,100.39695],[5.39729,100.39682],[5.39703,100.39735],[5.39693,100.39763],[5.39687,100.39796],[5.39684,100.39833],[5.39688,100.39844],[5.39695,100.39852],[5.39759,100.39863],[5.39938,100.39884],[5.39956,100.39894],[5.39969,100.39915],[5.39956,100.39976],[5.39937,100.39994],[5.39854,100.39981],[5.39726,100.39964],[5.39654,100.39954],[5.39539,100.39937],[5.39506,100.39932],[5.39493,100.39922],[5.39488,100.39914],[5.39482,100.39905],[5.39498,100.39829],[5.39495,100.39819],[5.39499,100.39743],[5.39505,100.39718],[5.39513,100.39695],[5.39517,100.39692],[5.39519,100.39682],[5.39526,100.39667],[5.39545,100.39636],[5.39558,100.39618],[5.39569,100.39603],[5.39576,100.39594],[5.39608,100.39612],[5.39659,100.3964],[5.39701,100.39662],[5.39721,100.39672],[5.39732,100.39676],[5.39729,100.39682],[5.39722,100.39689],[5.397,100.39734],[5.3969,100.39762],[5.39685,100.39796],[5.39681,100.39832],[5.39674,100.39839],[5.39655,100.39852],[5.39641,100.39854],[5.39578,100.39847],[5.39559,100.39844],[5.39522,100.3984],[5.39516,100.39841],[5.39506,100.39844],[5.39504,100.39849],[5.39501,100.39878],[5.39494,100.39918],[5.39494,100.39932],[5.39482,100.40017],[5.39474,100.40089],[5.39468,100.40139],[5.39463,100.40172],[5.39622,100.4019],[5.39615,100.40278],[5.39606,100.40368],[5.39598,100.40434],[5.39591,100.40479],[5.39576,100.40476],[5.39548,100.40467],[5.39492,100.40439],[5.39463,100.40424],[5.39453,100.40417],[5.39419,100.40393],[5.39352,100.40348],[5.39376,100.40306],[5.39385,100.40208],[5.3939,100.40167],[5.39207,100.40147],[5.38957,100.40122],[5.38726,100.40098],[5.38707,100.40104],[5.38689,100.40105],[5.38671,100.40114],[5.38657,100.40127],[5.38646,100.40145],[5.3864,100.40159],[5.38629,100.40209],[5.38624,100.40252],[5.38623,100.40322],[5.38623,100.40355],[5.38614,100.40462],[5.38621,100.40478],[5.38629,100.4049],[5.38963,100.40529],[5.39385,100.40569],[5.39592,100.40588],[5.39633,100.40597],[5.39816,100.40589],[5.39929,100.40596],[5.39956,100.40598],[5.39977,100.40605],[5.39995,100.40631],[5.39998,100.40654],[5.39993,100.40675],[5.39982,100.40688],[5.39966,100.40698],[5.39942,100.40705],[5.3992,100.40697],[5.39755,100.4067],[5.39666,100.40651],[5.39628,100.40649],[5.39442,100.4063],[5.39299,100.40613],[5.39237,100.40608],[5.39225,100.40792],[5.391,100.40788],[5.39049,100.40774],[5.38998,100.40742],[5.38955,100.40712],[5.38864,100.40688],[5.38807,100.40682],[5.38823,100.40564],[5.38601,100.40537],[5.38547,100.40522],[5.38533,100.40511],[5.3835,100.40489],[5.38204,100.40461],[5.38014,100.40419],[5.37819,100.40363],[5.37628,100.40293],[5.37569,100.40267],[5.37547,100.40272],[5.37522,100.40267],[5.3749,100.40272],[5.3747,100.40282],[5.37454,100.403],[5.37445,100.40325],[5.37446,100.40355],[5.37457,100.4038],[5.3748,100.404],[5.37501,100.4041],[5.37522,100.40409],[5.37546,100.40404],[5.37572,100.40388],[5.37586,100.40367],[5.37601,100.4036],[5.37655,100.40251],[5.37716,100.40146],[5.3774,100.40098],[5.37786,100.40012],[5.37876,100.3985],[5.37939,100.39728],[5.37937,100.39705],[5.37931,100.39686],[5.37863,100.39648],[5.3785,100.39646],[5.37842,100.3965],[5.3783,100.39673],[5.3783,100.39681],[5.37836,100.39693],[5.37907,100.39728],[5.3786,100.39821],[5.37828,100.39809],[5.37773,100.39776],[5.37781,100.39751],[5.37796,100.39719],[5.37811,100.39688],[5.37841,100.39632],[5.37854,100.39633],[5.37871,100.39639],[5.3796,100.39687],[5.37971,100.39672],[5.38045,100.39537],[5.38103,100.39428],[5.3813,100.39365],[5.38204,100.39227],[5.3825,100.39146],[5.38273,100.39097],[5.38305,100.39034],[5.38349,100.3895],[5.38351,100.38932],[5.38428,100.38771],[5.38454,100.38723],[5.3846,100.38712],[5.38491,100.38726],[5.38536,100.38742],[5.38613,100.38758],[5.38694,100.38788],[5.38732,100.38809],[5.38771,100.38831],[5.38842,100.38875],[5.38892,100.38897],[5.38951,100.38912],[5.39018,100.38915],[5.39122,100.38894],[5.39163,100.38883],[5.39313,100.38849],[5.39442,100.38823],[5.39452,100.38825],[5.39577,100.38794],[5.39807,100.38743],[5.3988,100.38729],[5.39902,100.38719],[5.40008,100.38689],[5.40092,100.38636],[5.40125,100.38603],[5.4016,100.38568],[5.40183,100.38534],[5.40206,100.38494],[5.40215,100.38473],[5.40239,100.38412],[5.40248,100.38344],[5.40246,100.38285],[5.40233,100.38219],[5.40218,100.38177],[5.40099,100.37883],[5.4005,100.3775],[5.4005,100.37731],[5.40027,100.3768],[5.40003,100.37607],[5.39989,100.37589],[5.39931,100.37431],[5.39923,100.37411],[5.39855,100.37233],[5.39826,100.37154],[5.39825,100.37136],[5.398,100.37077],[5.39763,100.36981],[5.39747,100.36934],[5.39736,100.36922],[5.39688,100.36812],[5.39681,100.36798],[5.3964,100.36754],[5.39614,100.36744],[5.39588,100.36728],[5.39558,100.36703],[5.39531,100.36676],[5.39551,100.36659],[5.39569,100.36642],[5.39563,100.36637],[5.39559,100.36625],[5.39557,100.36601],[5.39559,100.36581],[5.39571,100.36564],[5.39573,100.36557],[5.39573,100.36546],[5.39564,100.36534],[5.39552,100.36526],[5.3954,100.36521],[5.39529,100.36513],[5.39534,100.365],[5.3954,100.36483],[5.39538,100.36472],[5.39534,100.36458],[5.39523,100.36448],[5.39508,100.36459],[5.39491,100.36474],[5.39482,100.36484],[5.39474,100.36496],[5.39462,100.36509],[5.39452,100.36526],[5.3944,100.36546],[5.39426,100.36573],[5.39428,100.36594],[5.39435,100.36607],[5.39439,100.36613],[5.39452,100.36586],[5.39465,100.36561],[5.39481,100.36533],[5.39499,100.36507],[5.39516,100.36493],[5.39528,100.36491],[5.3954,100.36495],[5.39548,100.36503],[5.39559,100.36515],[5.39572,100.36525],[5.39585,100.3654],[5.39596,100.36553],[5.39596,100.36565]],"tripIds":["260327031004S11","260327031004S5","260327031002S4","260327021006S2","260327021005S12","260327021005S4","260327021004S4","260327021002S5","260327011004S10","260327011004S4","260327011004S2","260327011003S11","260327011003S9","260327011002S9","260327031006S7","260327031006S3","260327031002S8","260327021006S6","260327021005S10","260327021003S11","260327021003S9","260327011006S10","260327011003S5","260327031004S7","260327031002S2","260327021004S12","260327021004S6","260327011005S8","260327011005S6","260327011005S4","260327031002S6","260327021006S10","260327021006S8","260327021005S8","260327021002S3","260327031006S9","260327021005S2","260327021003S3","260327011006S2","260327011005S12","260327011005S10","260327011005S2","260327031004S9","260327031004S3","260327021004S2","260327021002S11","260327021002S7","260327011006S8","260327011006S4","260327011004S12","260327011002S11","260327031006S11","260327031006S5","260327031003S8","260327031003S4","260327031003S2","260327031002S10","260327021006S4","260327021004S10","260327021004S8","260327021003S5","260327021002S9","260327011002S7","260327031003S10","260327031003S6","260327021005S6","260327021003S7","260327011006S6","260327011004S8","260327011004S6","260327011003S7","260327011003S3","260327011002S5","260327011002S3"],"oppositeTripIds":["260327031006S8","260327031004S10","260327031003S11","260327031002S3","260327021006S11","260327021003S6","260327021003S2","260327011006S11","260327011004S5","260327011004S3","260327011003S4","260327011002S8","260327031004S8","260327031004S4","260327031002S5","260327021006S9","260327021006S3","260327021002S6","260327011003S8","260327011002S4","260327031002S7","260327021004S7","260327021003S8","260327021002S8","260327011006S3","260327011003S10","260327031006S6","260327031004S2","260327031003S9","260327021005S11","260327021005S3","260327021003S12","260327021002S10","260327021002S2","260327011006S7","260327011006S5","260327011005S11","260327011005S9","260327011003S12","260327031006S2","260327031002S11","260327011005S7","260327011005S3","260327011002S2","260327031006S4","260327031002S9","260327021006S7","260327021005S7","260327021004S9","260327021004S5","260327021004S3","260327011005S5","260327011004S9","260327011002S6","260327031004S6","260327031003S7","260327031003S5","260327021003S4","260327021002S4","260327011004S11","260327031006S10","260327031003S3","260327021006S5","260327021005S9","260327021005S5","260327021004S11","260327021003S10","260327011006S9","260327011004S7","260327011003S6","260327011003S2","260327011002S10"],"firstDeparture":"06:00","lastDeparture":"22:00","tripCount":74}