{"routeId":"30000042","shortName":"801","directionId":0,"headsign":"P.SENTRAL - NIBONG TEBAL","stops":[{"stopId":"12002322","stopName":"(M1) Penang Sentral","stopCode":"MEM0973","lat":5.39486,"lon":100.36535,"sequence":1},{"stopId":"12000910","stopName":"SMK Convent Butterworth","stopCode":"MEA0910","lat":5.39717,"lon":100.36852,"sequence":2},{"stopId":"12000913","stopName":"Taman Mewah","stopCode":"MEA0913","lat":5.3985,"lon":100.37189,"sequence":3},{"stopId":"12000396","stopName":"Stor TNB","stopCode":"MBA0396","lat":5.40036,"lon":100.37676,"sequence":4},{"stopId":"12000397","stopName":"Pusat Perniagaan Chain Ferry","stopCode":"MBA0397","lat":5.40153,"lon":100.37983,"sequence":5},{"stopId":"12000398","stopName":"Pusat Perniagaan Chain Ferry II","stopCode":"MBA0398","lat":5.40255,"lon":100.38273,"sequence":6},{"stopId":"12000395","stopName":"Taman Chai Leng I","stopCode":"MBA0395","lat":5.39042,"lon":100.38924,"sequence":7},{"stopId":"12000394","stopName":"Taman Chai Leng II","stopCode":"MBA0394","lat":5.38813,"lon":100.38871,"sequence":8},{"stopId":"12000192","stopName":"Taman Chai Leng","stopCode":"MAA0192","lat":5.38361,"lon":100.38968,"sequence":9},{"stopId":"12000191","stopName":"Kompleks Chai Leng Park","stopCode":"MAA0191","lat":5.38194,"lon":100.39278,"sequence":10},{"stopId":"12001067","stopName":"(M2) Megamall - Pacific","stopCode":"MEW1067","lat":5.37879,"lon":100.39794,"sequence":11},{"stopId":"12000189","stopName":"Masjid Jamek Kampung Setol","stopCode":"MAA0189","lat":5.37271,"lon":100.41006,"sequence":12},{"stopId":"12000188","stopName":"Medan Perniagaan Pauh Jaya","stopCode":"MAA0188","lat":5.37137,"lon":100.41258,"sequence":13},{"stopId":"12000187","stopName":"(M3) Mydin Mall","stopCode":"MAA0187","lat":5.36975,"lon":100.41549,"sequence":14},{"stopId":"12000186","stopName":"Kampung Jalan Baru","stopCode":"MAA0186","lat":5.36897,"lon":100.41703,"sequence":15},{"stopId":"12000185","stopName":"Masjid Jalan Baru","stopCode":"MAA0185","lat":5.36774,"lon":100.41932,"sequence":16},{"stopId":"12000355","stopName":"Taman Indah","stopCode":"MAW0355","lat":5.35732,"lon":100.42726,"sequence":17},{"stopId":"12000354","stopName":"Masjid Balik Bukit","stopCode":"MAW0354","lat":5.35411,"lon":100.42886,"sequence":18},{"stopId":"12000353","stopName":"Taman Tanah Aman","stopCode":"MAW0353","lat":5.35289,"lon":100.43148,"sequence":19},{"stopId":"12000352","stopName":"Petronas Bukit Tengah","stopCode":"MAW0352","lat":5.34982,"lon":100.43389,"sequence":20},{"stopId":"12000351","stopName":"Balai Polis Bukit Tengah","stopCode":"MAW0351","lat":5.34661,"lon":100.43484,"sequence":21},{"stopId":"12000350","stopName":"(M3) Kilang Leader Steel","stopCode":"MAW0350","lat":5.34033,"lon":100.43884,"sequence":22},{"stopId":"12000349","stopName":"DB Schenker","stopCode":"MAW0349","lat":5.33688,"lon":100.44261,"sequence":23},{"stopId":"12002324","stopName":"Petron Bukit Minyak","stopCode":"ICT0061","lat":5.33021,"lon":100.4477,"sequence":24},{"stopId":"12000337","stopName":"Klinik Kesihatan Bukit Minyak","stopCode":"MAU0337","lat":5.32642,"lon":100.44798,"sequence":25},{"stopId":"12000336","stopName":"Taman Pulasan Bukit Minyak","stopCode":"MAU0336","lat":5.32445,"lon":100.44852,"sequence":26},{"stopId":"12002325","stopName":"Leeden Hercules","stopCode":"ICT0062","lat":5.32153,"lon":100.45292,"sequence":27},{"stopId":"12000331","stopName":"Kampung Permatang Tok Subuh","stopCode":"MAU0331","lat":5.31906,"lon":100.45774,"sequence":28},{"stopId":"12000329","stopName":"Taman Markisah","stopCode":"MAU0329","lat":5.31616,"lon":100.46169,"sequence":29},{"stopId":"12000327","stopName":"Taman Sukun Indah","stopCode":"MAU0327","lat":5.31311,"lon":100.46412,"sequence":30},{"stopId":"12001279","stopName":"Taman Sukun","stopCode":"MFK1279","lat":5.31038,"lon":100.4664,"sequence":31},{"stopId":"12001276","stopName":"Taman Industri Ringan","stopCode":"MFK1276","lat":5.30628,"lon":100.47027,"sequence":32},{"stopId":"12002326","stopName":"Essex","stopCode":"ICT0063","lat":5.30432,"lon":100.47229,"sequence":33},{"stopId":"12001273","stopName":"SRJK Permatang Tinggi","stopCode":"MFK1273","lat":5.30021,"lon":100.47737,"sequence":34},{"stopId":"12001269","stopName":"Taman Permatang Tinggi Indah","stopCode":"MFK1269","lat":5.29463,"lon":100.47935,"sequence":35},{"stopId":"12002328","stopName":"Shell Simpang Empat","stopCode":"ICT0065","lat":5.28901,"lon":100.47824,"sequence":36},{"stopId":"12002329","stopName":"Masjid Simpang Empat","stopCode":"ICT0066","lat":5.28295,"lon":100.47667,"sequence":37},{"stopId":"12001264","stopName":"SMK Simpang Empat","stopCode":"MFK1264","lat":5.2792,"lon":100.47689,"sequence":38},{"stopId":"12001262","stopName":"Taman Tiong Mas","stopCode":"MFK1262","lat":5.27587,"lon":100.47706,"sequence":39},{"stopId":"12001260","stopName":"Taman Tempua","stopCode":"MFK1260","lat":5.27178,"lon":100.47683,"sequence":40},{"stopId":"12001259","stopName":"Taman Belibis","stopCode":"MFK1259","lat":5.26949,"lon":100.47668,"sequence":41},{"stopId":"12001258","stopName":"Taman Tangling","stopCode":"MFK1258","lat":5.26822,"lon":100.476,"sequence":42},{"stopId":"12001256","stopName":"Menara Kerjaya Simpang Empat","stopCode":"MFK1256","lat":5.26493,"lon":100.47425,"sequence":43},{"stopId":"12002330","stopName":"Balai Bomba Sungai Bakap","stopCode":"ICT0067","lat":5.26162,"lon":100.4729,"sequence":44},{"stopId":"12000284","stopName":"Kilang Silitech","stopCode":"MAM0284","lat":5.25639,"lon":100.4724,"sequence":45},{"stopId":"12002331","stopName":"Premium Outlet","stopCode":"ICT0068","lat":5.25056,"lon":100.47525,"sequence":46},{"stopId":"12000281","stopName":"SJK Tamil Valdor","stopCode":"MAM0281","lat":5.24596,"lon":100.48027,"sequence":47},{"stopId":"12000279","stopName":"Taman Rebana","stopCode":"MAM0279","lat":5.24192,"lon":100.4844,"sequence":48},{"stopId":"12001484","stopName":"Lean Teik Trading","stopCode":"MGV1484","lat":5.23714,"lon":100.4893,"sequence":49},{"stopId":"12001487","stopName":"Taman Sri Aman","stopCode":"MGV1487","lat":5.23365,"lon":100.49107,"sequence":50},{"stopId":"12001485","stopName":"Taman Gamelan","stopCode":"MGV1485","lat":5.23077,"lon":100.49233,"sequence":51},{"stopId":"12000277","stopName":"Taman Jelatik","stopCode":"MAL0277","lat":5.22485,"lon":100.49545,"sequence":52},{"stopId":"12000276","stopName":"Masjid Lama Sungai Bakap","stopCode":"MAL0276","lat":5.22183,"lon":100.49725,"sequence":53},{"stopId":"12000275","stopName":"Hospital Sungai Bakap","stopCode":"MAL0275","lat":5.21959,"lon":100.49815,"sequence":54},{"stopId":"12000274","stopName":"Kinik Kesihatan Sungai Bakap","stopCode":"MAL0274","lat":5.21714,"lon":100.49754,"sequence":55},{"stopId":"12001483","stopName":"Perkampungan Jawi","stopCode":"MGV1483","lat":5.21248,"lon":100.49722,"sequence":56},{"stopId":"12002332","stopName":"JKR Jawi","stopCode":"ICT0069","lat":5.20781,"lon":100.49773,"sequence":57},{"stopId":"12000925","stopName":"Taman Jawi Jaya","stopCode":"MEB0925","lat":5.20034,"lon":100.49492,"sequence":58},{"stopId":"12000924","stopName":"SK Jawi","stopCode":"MEB0924","lat":5.19728,"lon":100.49322,"sequence":59},{"stopId":"12000921","stopName":"Taman Jawi Ria","stopCode":"MEB0921","lat":5.19303,"lon":100.49092,"sequence":60},{"stopId":"12000920","stopName":"Taman Sintar","stopCode":"MEB0920","lat":5.18508,"lon":100.48657,"sequence":61},{"stopId":"12002333","stopName":"Teck Land Motors","stopCode":"ICT0070","lat":5.18064,"lon":100.48414,"sequence":62},{"stopId":"12000917","stopName":"Balai Polis Lama Bukit Panchor","stopCode":"MEB0917","lat":5.17723,"lon":100.48228,"sequence":63},{"stopId":"12002107","stopName":"Hub Nibong Tebal","stopCode":"M002107","lat":5.16784,"lon":100.4783,"sequence":64}],"shape":[[5.39569,100.36642],[5.39563,100.36637],[5.39559,100.36625],[5.39557,100.36601],[5.39559,100.36581],[5.39571,100.36564],[5.39573,100.36557],[5.39573,100.36546],[5.39564,100.36534],[5.39552,100.36526],[5.3954,100.36521],[5.39529,100.36513],[5.39534,100.365],[5.3954,100.36483],[5.39538,100.36472],[5.39534,100.36458],[5.39523,100.36448],[5.39508,100.36459],[5.39491,100.36474],[5.39482,100.36484],[5.39474,100.36496],[5.39462,100.36509],[5.39452,100.36526],[5.3944,100.36546],[5.39426,100.36573],[5.39428,100.36594],[5.39435,100.36607],[5.39439,100.36613],[5.39452,100.36586],[5.39465,100.36561],[5.39481,100.36533],[5.39499,100.36507],[5.39516,100.36493],[5.39528,100.36491],[5.3954,100.36495],[5.39548,100.36503],[5.39559,100.36515],[5.39572,100.36525],[5.39585,100.3654],[5.39596,100.36553],[5.39596,100.36565],[5.39614,100.36562],[5.39649,100.36559],[5.39691,100.3656],[5.39748,100.36562],[5.39798,100.36569],[5.39847,100.36579],[5.39858,100.36581],[5.39969,100.36619],[5.40018,100.36638],[5.40082,100.3661],[5.40098,100.36605],[5.40164,100.36583],[5.4022,100.36577],[5.40312,100.36583],[5.40378,100.36588],[5.4042,100.36599],[5.40492,100.36629],[5.40504,100.36638],[5.40545,100.36648],[5.40619,100.36685],[5.40736,100.36742],[5.40748,100.36749],[5.40748,100.36761],[5.40744,100.36772],[5.40736,100.36776],[5.40722,100.36772],[5.40677,100.36749],[5.40655,100.36739],[5.40593,100.36706],[5.40546,100.36682],[5.40513,100.36666],[5.40498,100.36658],[5.40497,100.36649],[5.40462,100.36633],[5.4042,100.36614],[5.40395,100.36608],[5.40348,100.36603],[5.40312,100.36607],[5.40279,100.36611],[5.40246,100.36621],[5.40203,100.36635],[5.4018,100.36642],[5.40131,100.36647],[5.40047,100.36656],[5.40007,100.36662],[5.3999,100.36664],[5.39932,100.36665],[5.39913,100.36663],[5.39895,100.36661],[5.39886,100.36664],[5.39876,100.36664],[5.39826,100.36656],[5.39745,100.36641],[5.39698,100.36636],[5.39661,100.36639],[5.39635,100.36646],[5.39609,100.36659],[5.39593,100.36673],[5.39602,100.36709],[5.39625,100.36731],[5.39638,100.36735],[5.39662,100.36742],[5.39674,100.36744],[5.39674,100.36757],[5.39692,100.36798],[5.39747,100.36922],[5.39747,100.36934],[5.39783,100.37016],[5.39825,100.37136],[5.39838,100.37153],[5.39929,100.37389],[5.39943,100.37432],[5.39954,100.37463],[5.40001,100.37586],[5.40003,100.37607],[5.40029,100.37668],[5.4005,100.37731],[5.40062,100.37748],[5.40112,100.37875],[5.40229,100.38173],[5.4025,100.38237],[5.40256,100.38278],[5.40254,100.38363],[5.40248,100.38417],[5.40231,100.3847],[5.40211,100.38508],[5.40195,100.38537],[5.40164,100.3858],[5.40108,100.38638],[5.40018,100.38694],[5.39903,100.38731],[5.3988,100.38729],[5.3977,100.38757],[5.39546,100.38806],[5.39452,100.38825],[5.39433,100.38837],[5.39276,100.3887],[5.39165,100.38897],[5.39041,100.38924],[5.38982,100.38926],[5.38928,100.3892],[5.38888,100.38906],[5.38828,100.38879],[5.38766,100.38844],[5.38677,100.38793],[5.38615,100.38771],[5.38545,100.38755],[5.38525,100.38757],[5.38507,100.38757],[5.38485,100.38765],[5.38466,100.38783],[5.38456,100.38793],[5.38388,100.38927],[5.38362,100.38956],[5.38299,100.3908],[5.38255,100.39157],[5.38235,100.39197],[5.38182,100.39299],[5.38135,100.39383],[5.38116,100.39424],[5.38071,100.39519],[5.37974,100.39695],[5.37969,100.39704],[5.37954,100.39697],[5.37931,100.39686],[5.37863,100.39648],[5.3785,100.39646],[5.37842,100.3965],[5.3783,100.39673],[5.3783,100.39681],[5.37836,100.39693],[5.37907,100.39728],[5.3786,100.39821],[5.37828,100.39809],[5.37773,100.39776],[5.37781,100.39751],[5.37796,100.39719],[5.37811,100.39688],[5.37841,100.39632],[5.37854,100.39633],[5.37871,100.39639],[5.3796,100.39687],[5.37974,100.39695],[5.37969,100.39704],[5.37912,100.39811],[5.37866,100.39897],[5.3784,100.39941],[5.37783,100.40054],[5.37739,100.40134],[5.37689,100.4023],[5.37585,100.40426],[5.37567,100.40458],[5.37503,100.40576],[5.3741,100.40745],[5.37374,100.40815],[5.3736,100.40843],[5.37327,100.40904],[5.37231,100.41078],[5.37064,100.41391],[5.37057,100.41401],[5.36988,100.41526],[5.36945,100.41609],[5.36911,100.41672],[5.36878,100.41737],[5.3686,100.4177],[5.36835,100.41817],[5.36741,100.41996],[5.36598,100.42267],[5.3659,100.42303],[5.36505,100.42463],[5.36499,100.42487],[5.36498,100.425],[5.365,100.42509],[5.36505,100.42528],[5.36502,100.42544],[5.36489,100.42557],[5.36466,100.42566],[5.36449,100.42565],[5.36432,100.42559],[5.36398,100.42546],[5.36298,100.42573],[5.36213,100.42595],[5.36149,100.42613],[5.3612,100.42612],[5.3596,100.42659],[5.35723,100.42726],[5.35559,100.42777],[5.35508,100.42795],[5.35474,100.42814],[5.35434,100.42851],[5.35401,100.42898],[5.35384,100.42946],[5.35352,100.4304],[5.3532,100.43096],[5.35233,100.4323],[5.35206,100.43267],[5.35173,100.43292],[5.35127,100.43315],[5.3502,100.43365],[5.3498,100.4339],[5.34942,100.4342],[5.34908,100.43443],[5.3486,100.43469],[5.34816,100.43479],[5.34785,100.43482],[5.34726,100.43481],[5.34649,100.43484],[5.34588,100.43492],[5.34584,100.435],[5.34532,100.43521],[5.3447,100.43557],[5.34359,100.4362],[5.34333,100.4364],[5.34313,100.43651],[5.34304,100.43656],[5.34286,100.4367],[5.34217,100.43723],[5.34132,100.43794],[5.34108,100.43813],[5.34057,100.43861],[5.34023,100.43896],[5.34009,100.43899],[5.33922,100.43988],[5.33745,100.44194],[5.33548,100.44423],[5.33412,100.4457],[5.33369,100.44613],[5.33342,100.44633],[5.3322,100.4469],[5.33201,100.44691],[5.33094,100.44743],[5.33058,100.44753],[5.32985,100.4477],[5.32939,100.44771],[5.32836,100.44774],[5.32823,100.44774],[5.32809,100.44774],[5.32775,100.4478],[5.32756,100.4478],[5.32714,100.44786],[5.32616,100.44805],[5.32536,100.44818],[5.32479,100.44834],[5.32462,100.44846],[5.32419,100.44863],[5.32376,100.44888],[5.32348,100.44908],[5.32312,100.44941],[5.32271,100.45003],[5.32246,100.45043],[5.32238,100.45062],[5.32216,100.45106],[5.32142,100.4531],[5.32104,100.45416],[5.32091,100.45442],[5.32086,100.45452],[5.32078,100.45469],[5.32041,100.45561],[5.32025,100.45585],[5.32014,100.45592],[5.31979,100.45653],[5.31915,100.45757],[5.3188,100.45813],[5.31834,100.45887],[5.31797,100.45944],[5.31739,100.46022],[5.31663,100.46109],[5.31625,100.46153],[5.31585,100.4619],[5.31538,100.46229],[5.31416,100.46325],[5.31292,100.46422],[5.31196,100.46504],[5.31158,100.46534],[5.31045,100.46627],[5.30978,100.46685],[5.30928,100.46728],[5.30855,100.46798],[5.30781,100.46869],[5.30689,100.46966],[5.30625,100.47026],[5.30522,100.47129],[5.30452,100.47207],[5.30414,100.47243],[5.30357,100.47308],[5.30317,100.47361],[5.30313,100.47377],[5.30284,100.47424],[5.30272,100.47442],[5.30266,100.4745],[5.30258,100.47466],[5.30204,100.4756],[5.30193,100.47574],[5.30137,100.47655],[5.30112,100.4768],[5.3009,100.47697],[5.29862,100.4782],[5.29795,100.4785],[5.29689,100.47877],[5.29556,100.47906],[5.29481,100.47923],[5.29433,100.47931],[5.29392,100.47929],[5.29283,100.47918],[5.29192,100.47898],[5.29107,100.47876],[5.28983,100.47843],[5.28858,100.47806],[5.28735,100.47765],[5.28613,100.47725],[5.28559,100.47707],[5.2855,100.47705],[5.28535,100.47701],[5.28484,100.47689],[5.28448,100.47681],[5.28399,100.47671],[5.28382,100.47676],[5.28259,100.47662],[5.28232,100.4766],[5.28175,100.47665],[5.2816,100.47666],[5.28094,100.47671],[5.27923,100.47688],[5.27796,100.47701],[5.27749,100.47704],[5.2767,100.47708],[5.27531,100.47702],[5.27414,100.47697],[5.27266,100.47691],[5.27118,100.47683],[5.271,100.47681],[5.27081,100.47676],[5.26976,100.47671],[5.26934,100.47661],[5.2692,100.47656],[5.26879,100.47634],[5.26752,100.47555],[5.26605,100.47472],[5.26561,100.47447],[5.26534,100.47434],[5.26493,100.47416],[5.26483,100.4742],[5.26362,100.47369],[5.26251,100.47321],[5.26237,100.47314],[5.26226,100.47303],[5.26194,100.4729],[5.26077,100.47236],[5.26022,100.4722],[5.25963,100.4721],[5.25933,100.47219],[5.25711,100.47232],[5.25613,100.47244],[5.25573,100.4725],[5.25555,100.47246],[5.25486,100.47256],[5.25341,100.47288],[5.25287,100.47307],[5.25253,100.47328],[5.25198,100.47376],[5.25096,100.47479],[5.2502,100.47561],[5.2498,100.4761],[5.24848,100.47754],[5.24773,100.47835],[5.24662,100.47953],[5.24542,100.48086],[5.24456,100.48173],[5.24406,100.48228],[5.24294,100.48341],[5.24253,100.4838],[5.24174,100.48444],[5.24162,100.4846],[5.24102,100.48503],[5.24042,100.48554],[5.23915,100.48709],[5.23776,100.4887],[5.23741,100.48902],[5.23728,100.48912],[5.23683,100.48944],[5.23659,100.48957],[5.23652,100.48964],[5.23632,100.48976],[5.23517,100.4904],[5.23504,100.49042],[5.23454,100.49069],[5.2328,100.49145],[5.23247,100.49157],[5.23163,100.49194],[5.2301,100.4926],[5.22945,100.49285],[5.22928,100.49293],[5.22894,100.49303],[5.2288,100.49317],[5.22882,100.49323],[5.22882,100.49329],[5.22772,100.49376],[5.22664,100.49436],[5.225,100.49532],[5.22421,100.49581],[5.22345,100.49624],[5.22237,100.49689],[5.22133,100.4976],[5.22069,100.49795],[5.22035,100.49812],[5.21999,100.4982],[5.2197,100.49819],[5.21932,100.49813],[5.21896,100.49803],[5.2167,100.49752],[5.21581,100.4973],[5.2148,100.4971],[5.21446,100.49708],[5.21426,100.497],[5.2142,100.49691],[5.21414,100.49679],[5.213,100.49706],[5.21281,100.49706],[5.21178,100.49731],[5.21058,100.49747],[5.20886,100.49763],[5.20739,100.49774],[5.20631,100.49786],[5.20599,100.49785],[5.20569,100.49775],[5.20483,100.49731],[5.20389,100.49694],[5.2031,100.49654],[5.20288,100.49646],[5.20271,100.49635],[5.20252,100.49623],[5.20237,100.49613],[5.2015,100.49558],[5.20062,100.49509],[5.20052,100.49497],[5.20006,100.49472],[5.19877,100.49398],[5.1981,100.49364],[5.19544,100.49218],[5.19317,100.49093],[5.19108,100.48981],[5.18994,100.48916],[5.1897,100.48914],[5.18804,100.48823],[5.18736,100.48786],[5.18713,100.48772],[5.187,100.48765],[5.18378,100.48588],[5.18133,100.48451],[5.18044,100.484],[5.17897,100.48315],[5.17856,100.48292],[5.1762,100.48174],[5.175,100.48117],[5.17147,100.47953],[5.17142,100.47954],[5.17036,100.47903],[5.16993,100.47897],[5.16952,100.47896],[5.16946,100.47901],[5.16947,100.47907],[5.16952,100.47916],[5.16966,100.4791],[5.16996,100.47904],[5.17018,100.47905],[5.17048,100.47915],[5.17076,100.47927],[5.17083,100.47928],[5.1709,100.47923],[5.17092,100.47917],[5.1709,100.47909],[5.17081,100.47899],[5.17041,100.4788],[5.17035,100.47871],[5.17029,100.47873],[5.16999,100.47866],[5.16969,100.47859],[5.16963,100.47852],[5.16957,100.47852],[5.16947,100.47849],[5.16944,100.47844],[5.1694,100.47845],[5.16903,100.47826],[5.16867,100.47816],[5.16863,100.47812],[5.16858,100.47812],[5.16816,100.47796],[5.1681,100.47792],[5.16804,100.47796],[5.16796,100.47798],[5.16795,100.47803],[5.16792,100.47807],[5.16779,100.47844],[5.16779,100.47876]],"tripIds":["260327010251S8","260327010256S3","260327010258S3","260327020251S2","260327020256S5","260327020257S3","260327020257S5","260327020258S7","260327030258S7","260327010251S2","260327010256S5","260327010257S3","260327020251S8","260327020253S6","260327020257S9","260327030252S2","260327010252S8","260327010258S5","260327020252S6","260327020258S3","260327020258S5","260327030257S9","260327030258S3","260327010253S4","260327010253S6","260327030251S6","260327030252S6","260327030256S5","260327030257S5","260327030258S5","260327010251S6","260327010257S9","260327020251S4","260327020251S6","260327020252S4","260327020256S9","260327010251S4","260327010252S4","260327010253S2","260327010253S8","260327010256S7","260327010257S5","260327020253S8","260327030252S4","260327030256S7","260327010252S6","260327010256S9","260327020252S2","260327020252S8","260327020253S2","260327020253S4","260327020256S3","260327030252S8","260327030257S7","260327010252S2","260327010257S7","260327010258S7","260327020256S7","260327020257S7","260327030251S2","260327030251S4","260327030251S8","260327030256S3","260327030256S9","260327030257S3","260327030258S9"],"oppositeTripIds":["260327020251S5","260327020257S4","260327010251S9","260327010257S6","260327010258S8","260327020256S6","260327020258S2","260327030252S3","260327030257S4","260327010251S5","260327010252S3","260327010252S7","260327010253S5","260327010256S6","260327010257S4","260327020251S7","260327020253S3","260327020256S8","260327020257S2","260327030252S7","260327030256S4","260327030257S6","260327010256S2","260327010257S2","260327010258S2","260327010258S6","260327020252S3","260327020252S5","260327020253S5","260327020257S8","260327020258S4","260327030257S2","260327030258S8","260327010251S3","260327010253S3","260327010253S7","260327030256S2","260327030256S8","260327010252S5","260327010252S9","260327010256S8","260327010257S8","260327010258S4","260327030251S9","260327030258S2","260327020251S9","260327020252S7","260327020253S7","260327020256S4","260327020258S6","260327020258S8","260327030251S3","260327030251S5","260327030251S7","260327030256S6","260327030258S4","260327010251S7","260327010256S4","260327020251S3","260327020252S9","260327020256S2","260327020257S6","260327030252S5","260327030257S8","260327030258S6"],"firstDeparture":"05:40","lastDeparture":"22:30","tripCount":66}