{"routeId":"30000021","shortName":"403","directionId":0,"headsign":"BLK.PULAU - P.BETONG","stops":[{"stopId":"12002115","stopName":"Terminal Bas Balik Pulau","stopCode":"IIG1885","lat":5.35145,"lon":100.23982,"sequence":1},{"stopId":"12000140","stopName":"Pekan Kongsi","stopCode":"I0Z0140","lat":5.35078,"lon":100.23511,"sequence":2},{"stopId":"12001567","stopName":"Hospital Balik Pulau","stopCode":"IHA1567","lat":5.35091,"lon":100.23312,"sequence":3},{"stopId":"12001568","stopName":"Taman Impian","stopCode":"IHA1568","lat":5.35195,"lon":100.23135,"sequence":4},{"stopId":"12001572","stopName":"Taman Poket Jalan Chai","stopCode":"IHA1572","lat":5.35418,"lon":100.22922,"sequence":5},{"stopId":"12001573","stopName":"Pejabat Agama Daerah","stopCode":"IHA1573","lat":5.35651,"lon":100.22722,"sequence":6},{"stopId":"12001575","stopName":"SK Titi Teras","stopCode":"IHA1575","lat":5.35885,"lon":100.22451,"sequence":7},{"stopId":"12001579","stopName":"(M1) Balai Bomba Air Putih","stopCode":"IHA1579","lat":5.36216,"lon":100.22057,"sequence":8},{"stopId":"12001582","stopName":"Pejabat Kesihatan Barat Daya","stopCode":"IHA1582","lat":5.36428,"lon":100.21804,"sequence":9},{"stopId":"12000175","stopName":"Balai Polis","stopCode":"IAA0175","lat":5.36471,"lon":100.21568,"sequence":10},{"stopId":"12000173","stopName":"Café Anjung Bagan","stopCode":"IAA0173","lat":5.36121,"lon":100.21137,"sequence":11},{"stopId":"12000171","stopName":"Hadapan Masjid Jalan Baru","stopCode":"IAA0171","lat":5.35715,"lon":100.2104,"sequence":12},{"stopId":"12000168","stopName":"Sungai Korok","stopCode":"IAA0168","lat":5.35523,"lon":100.20995,"sequence":13},{"stopId":"12000167","stopName":"SK Sg. Korok","stopCode":"IAA0167","lat":5.3537,"lon":100.20965,"sequence":14},{"stopId":"12000735","stopName":"Titi Sungai Korok","stopCode":"ICV0735","lat":5.35259,"lon":100.20561,"sequence":15},{"stopId":"12000736","stopName":"Kg. Sungai Korok","stopCode":"ICV0736","lat":5.35293,"lon":100.20356,"sequence":16},{"stopId":"12000738","stopName":"SJK Yeok Hua","stopCode":"ICV0738","lat":5.35324,"lon":100.20163,"sequence":17},{"stopId":"12000737","stopName":"Kuala Jalan Baru","stopCode":"ICV0737","lat":5.35325,"lon":100.20187,"sequence":18},{"stopId":"12002257","stopName":"Kampung Sg.Korok","stopCode":"ICV1001","lat":5.35296,"lon":100.20362,"sequence":19},{"stopId":"12002258","stopName":"Titi Sungai Korok","stopCode":"ICV1002","lat":5.35268,"lon":100.20553,"sequence":20},{"stopId":"12000734","stopName":"Pondok Polis","stopCode":"ICV0734","lat":5.35228,"lon":100.20797,"sequence":21},{"stopId":"12000164","stopName":"Jalan Baru","stopCode":"IAA0164","lat":5.35005,"lon":100.20906,"sequence":22},{"stopId":"12000161","stopName":"Sungai Burung","stopCode":"IAA0161","lat":5.34664,"lon":100.20849,"sequence":23},{"stopId":"12000159","stopName":"JPS","stopCode":"IAA0159","lat":5.34406,"lon":100.20811,"sequence":24},{"stopId":"12000157","stopName":"Masjid Sungai Burung","stopCode":"IAA0157","lat":5.34189,"lon":100.20783,"sequence":25},{"stopId":"12000153","stopName":"Klinik Desa Sg. Burung","stopCode":"IAA0153","lat":5.33749,"lon":100.20715,"sequence":26},{"stopId":"12001565","stopName":"(M1) SMK Seri Balik Pulau","stopCode":"IGZ1565","lat":5.3343,"lon":100.21234,"sequence":27},{"stopId":"12000663","stopName":"Pekan Genting","stopCode":"ICL0663","lat":5.33241,"lon":100.21579,"sequence":28},{"stopId":"12000662","stopName":"Taman Desa Genting","stopCode":"ICL0662","lat":5.33115,"lon":100.21468,"sequence":29},{"stopId":"12000661","stopName":"Balai Bomba Balik Pulau","stopCode":"ICL0661","lat":5.32599,"lon":100.21291,"sequence":30},{"stopId":"12000660","stopName":"Kampung Terang","stopCode":"ICL0660","lat":5.32126,"lon":100.21199,"sequence":31},{"stopId":"12000659","stopName":"Kampung Terang 2","stopCode":"ICL0659","lat":5.31831,"lon":100.21105,"sequence":32},{"stopId":"12000658","stopName":"Kampung Parit Lama","stopCode":"ICL0658","lat":5.31268,"lon":100.20744,"sequence":33},{"stopId":"12000657","stopName":"Kampung Parit Lama 2","stopCode":"ICL0657","lat":5.30966,"lon":100.20539,"sequence":34},{"stopId":"12000656","stopName":"Simpang Masjid Pulau Betong","stopCode":"ICL0656","lat":5.30678,"lon":100.20347,"sequence":35},{"stopId":"12000653","stopName":"Pekan Pulau Betong","stopCode":"ICL0653","lat":5.30391,"lon":100.19952,"sequence":36},{"stopId":"12000651","stopName":"Kg Pulau Betong","stopCode":"ICL0651","lat":5.30359,"lon":100.1974,"sequence":37},{"stopId":"12000654","stopName":"Hub Pulau Betong","stopCode":"ICL0654","lat":5.30482,"lon":100.19483,"sequence":38},{"stopId":"12000664","stopName":"Kampung Pulau Betong","stopCode":"ICL0664","lat":5.30357,"lon":100.19714,"sequence":39},{"stopId":"12000652","stopName":"Kampung Pulau Betong 2","stopCode":"ICL0652","lat":5.30379,"lon":100.19846,"sequence":40},{"stopId":"12000665","stopName":"Pemancar Pulau Betong","stopCode":"ICL0665","lat":5.305,"lon":100.20146,"sequence":41},{"stopId":"12000655","stopName":"Masjid Pulau Betong","stopCode":"ICL0655","lat":5.30612,"lon":100.20284,"sequence":42},{"stopId":"12000632","stopName":"SK Pulau Betong","stopCode":"ICI0632","lat":5.30774,"lon":100.20289,"sequence":43},{"stopId":"12000633","stopName":"Lrg Kpg Perlis 12","stopCode":"ICI0633","lat":5.31154,"lon":100.20353,"sequence":44},{"stopId":"12000634","stopName":"(M2) Kampung Perlis 1","stopCode":"ICI0634","lat":5.31566,"lon":100.2042,"sequence":45},{"stopId":"12000629","stopName":"Lrg Kpg Perlis 3","stopCode":"ICI0629","lat":5.31961,"lon":100.20483,"sequence":46},{"stopId":"12000630","stopName":"Hadapan Lrg Kpg Perlis 2","stopCode":"ICI0630","lat":5.32647,"lon":100.20576,"sequence":47},{"stopId":"12000631","stopName":"Hadapan Lrg Kpg Perlis 3","stopCode":"ICI0631","lat":5.33141,"lon":100.20634,"sequence":48},{"stopId":"12000152","stopName":"Sungai Burung","stopCode":"IAA0152","lat":5.33592,"lon":100.2069,"sequence":49},{"stopId":"12000154","stopName":"Klinik Desa","stopCode":"IAA0154","lat":5.33797,"lon":100.20715,"sequence":50},{"stopId":"12000155","stopName":"Jalan Sungai Burung","stopCode":"IAA0155","lat":5.33939,"lon":100.20737,"sequence":51},{"stopId":"12000156","stopName":"Masjid Sg. Burung","stopCode":"IAA0156","lat":5.34161,"lon":100.20776,"sequence":52},{"stopId":"12000158","stopName":"Restoran","stopCode":"IAA0158","lat":5.34334,"lon":100.20802,"sequence":53},{"stopId":"12000160","stopName":"Surau Sungai Burung","stopCode":"IAA0160","lat":5.34613,"lon":100.20839,"sequence":54},{"stopId":"12000162","stopName":"Kg Sungai Burung","stopCode":"IAA0162","lat":5.34803,"lon":100.20872,"sequence":55},{"stopId":"12000163","stopName":"Kg Sungai Burung 2","stopCode":"IAA0163","lat":5.34975,"lon":100.20902,"sequence":56},{"stopId":"12000165","stopName":"Kg Sungai Burung 3","stopCode":"IAA0165","lat":5.351,"lon":100.20919,"sequence":57},{"stopId":"12000735","stopName":"Titi Sungai Korok","stopCode":"ICV0735","lat":5.35259,"lon":100.20561,"sequence":58},{"stopId":"12000736","stopName":"Kg. Sungai Korok","stopCode":"ICV0736","lat":5.35293,"lon":100.20356,"sequence":59},{"stopId":"12000738","stopName":"SJK Yeok Hua","stopCode":"ICV0738","lat":5.35324,"lon":100.20163,"sequence":60},{"stopId":"12000737","stopName":"Kuala Jalan Baru","stopCode":"ICV0737","lat":5.35325,"lon":100.20187,"sequence":61},{"stopId":"12002257","stopName":"Kampung Sg.Korok","stopCode":"ICV1001","lat":5.35296,"lon":100.20362,"sequence":62},{"stopId":"12002258","stopName":"Titi Sungai Korok","stopCode":"ICV1002","lat":5.35268,"lon":100.20553,"sequence":63},{"stopId":"12000734","stopName":"Pondok Polis","stopCode":"ICV0734","lat":5.35228,"lon":100.20797,"sequence":64},{"stopId":"12000166","stopName":"SK Sg. Korok","stopCode":"IAA0166","lat":5.35348,"lon":100.20959,"sequence":65},{"stopId":"12000169","stopName":"Hadapan Koperasi Keluarga Haji Ismail","stopCode":"IAA0169","lat":5.35577,"lon":100.21005,"sequence":66},{"stopId":"12000170","stopName":"Masjid Jalan Baru","stopCode":"IAA0170","lat":5.35708,"lon":100.2104,"sequence":67},{"stopId":"12000172","stopName":"Sungai Korok","stopCode":"IAA0172","lat":5.35966,"lon":100.211,"sequence":68},{"stopId":"12000174","stopName":"Sungai Korok 2","stopCode":"IAA0174","lat":5.36175,"lon":100.21144,"sequence":69},{"stopId":"12000176","stopName":"Hadapan Balai Polis","stopCode":"IAA0176","lat":5.36486,"lon":100.2158,"sequence":70},{"stopId":"12001580","stopName":"Pejabat Kesihatan Barat Daya","stopCode":"IHA1580","lat":5.36391,"lon":100.21857,"sequence":71},{"stopId":"12001578","stopName":"(M3) Balai Bomba Air Putih","stopCode":"IHA1578","lat":5.36203,"lon":100.22092,"sequence":72},{"stopId":"12001577","stopName":"Dewan JKKK Titi Teras","stopCode":"IHA1577","lat":5.3602,"lon":100.22276,"sequence":73},{"stopId":"12001576","stopName":"SK Titi Teras","stopCode":"IHA1576","lat":5.35886,"lon":100.22462,"sequence":74},{"stopId":"12001574","stopName":"Pejabat Agama Daerah","stopCode":"IHA1574","lat":5.35669,"lon":100.22716,"sequence":75},{"stopId":"12001570","stopName":"Taman Poket Jalan Chai","stopCode":"IHA1570","lat":5.35406,"lon":100.22939,"sequence":76},{"stopId":"12001569","stopName":"Taman Impian","stopCode":"IHA1569","lat":5.35206,"lon":100.23124,"sequence":77},{"stopId":"12001566","stopName":"Pejabat Daerah dan Tanah","stopCode":"IHA1566","lat":5.35066,"lon":100.23408,"sequence":78},{"stopId":"12001886","stopName":"SRJK Chong Teik","stopCode":"IIG1886","lat":5.35127,"lon":100.23708,"sequence":79},{"stopId":"12002115","stopName":"Terminal Bas Balik Pulau","stopCode":"IIG1885","lat":5.35145,"lon":100.23982,"sequence":80}],"shape":[[5.35143,100.23926],[5.35137,100.23981],[5.35138,100.24004],[5.35146,100.24012],[5.3516,100.24013],[5.35167,100.24005],[5.35168,100.23991],[5.3517,100.23953],[5.35166,100.23945],[5.35152,100.2393],[5.35143,100.23926],[5.35128,100.23917],[5.35125,100.23919],[5.35118,100.23915],[5.35106,100.23913],[5.35101,100.23805],[5.35106,100.23789],[5.35111,100.23752],[5.35125,100.23685],[5.3514,100.23638],[5.35154,100.23617],[5.35179,100.23595],[5.35183,100.23585],[5.35123,100.23541],[5.35087,100.23507],[5.35067,100.23487],[5.35067,100.23476],[5.35062,100.23439],[5.3506,100.23419],[5.35061,100.23401],[5.35064,100.23389],[5.35082,100.23343],[5.35094,100.23304],[5.35119,100.2326],[5.35139,100.23231],[5.3518,100.23177],[5.35214,100.23088],[5.35226,100.23033],[5.35233,100.23015],[5.35239,100.23007],[5.35244,100.23002],[5.35269,100.22989],[5.35388,100.22931],[5.35438,100.22915],[5.35537,100.22827],[5.35618,100.22752],[5.35688,100.22683],[5.35741,100.22626],[5.35814,100.22537],[5.35938,100.22388],[5.35999,100.22304],[5.36054,100.22194],[5.36072,100.22177],[5.36092,100.2216],[5.36102,100.22154],[5.36187,100.22095],[5.36207,100.22075],[5.36225,100.22056],[5.36245,100.22028],[5.36316,100.2194],[5.36381,100.2186],[5.36488,100.21725],[5.36525,100.21683],[5.36524,100.21665],[5.36523,100.21643],[5.36446,100.21507],[5.36383,100.21387],[5.36332,100.21294],[5.36293,100.21222],[5.36273,100.21189],[5.36256,100.21172],[5.36237,100.21162],[5.36213,100.21151],[5.3617,100.21143],[5.36046,100.21117],[5.35925,100.21086],[5.35891,100.2108],[5.35802,100.21059],[5.35725,100.21039],[5.35703,100.21036],[5.35621,100.21013],[5.35522,100.20988],[5.35504,100.20987],[5.35414,100.20971],[5.35211,100.20939],[5.35221,100.20913],[5.35225,100.20873],[5.35223,100.20842],[5.35223,100.20817],[5.35227,100.2078],[5.35241,100.20689],[5.35257,100.20595],[5.35277,100.20457],[5.35298,100.20321],[5.35319,100.20196],[5.35333,100.20114],[5.35346,100.20025],[5.35361,100.19927],[5.3537,100.19869],[5.35379,100.19812],[5.35384,100.19818],[5.35377,100.19866],[5.35366,100.19923],[5.35352,100.2002],[5.35339,100.20094],[5.35324,100.20182],[5.35304,100.20315],[5.35289,100.20401],[5.35273,100.20508],[5.35252,100.20641],[5.35246,100.20682],[5.35233,100.20763],[5.35228,100.20792],[5.35226,100.20822],[5.35226,100.20853],[5.35227,100.20876],[5.35223,100.20909],[5.35221,100.20933],[5.35211,100.20939],[5.35104,100.2092],[5.35028,100.20906],[5.34898,100.20884],[5.34865,100.20878],[5.34766,100.2086],[5.34682,100.20848],[5.34535,100.20825],[5.34468,100.20818],[5.34441,100.20815],[5.34385,100.20805],[5.34272,100.20787],[5.34176,100.20773],[5.34097,100.20761],[5.34004,100.20743],[5.33954,100.20735],[5.33873,100.20721],[5.33768,100.20712],[5.33688,100.20696],[5.33611,100.20685],[5.3352,100.20674],[5.33521,100.20701],[5.33506,100.20797],[5.33495,100.20876],[5.33485,100.20939],[5.33478,100.20968],[5.33469,100.21025],[5.33457,100.2109],[5.33447,100.21127],[5.33441,100.21168],[5.33432,100.21205],[5.33427,100.21242],[5.3342,100.2127],[5.33412,100.21282],[5.33409,100.21301],[5.33404,100.21318],[5.33397,100.21332],[5.33389,100.21356],[5.33374,100.2139],[5.33363,100.21416],[5.33334,100.21485],[5.33321,100.21519],[5.33306,100.21557],[5.33294,100.21587],[5.33282,100.21605],[5.33271,100.21602],[5.33236,100.21565],[5.33226,100.21552],[5.33209,100.21538],[5.33183,100.2151],[5.33161,100.21487],[5.33142,100.21471],[5.33091,100.21451],[5.3307,100.2144],[5.33042,100.21432],[5.3297,100.21403],[5.32899,100.21375],[5.32828,100.21347],[5.32772,100.21323],[5.32737,100.21313],[5.32698,100.21299],[5.3267,100.21288],[5.32619,100.21283],[5.32562,100.21279],[5.3254,100.21276],[5.32461,100.21267],[5.32417,100.21259],[5.32382,100.21254],[5.32311,100.21238],[5.32244,100.21223],[5.32179,100.21206],[5.32118,100.21194],[5.32045,100.21176],[5.31993,100.21161],[5.3193,100.21142],[5.31902,100.21131],[5.31886,100.21128],[5.31854,100.21109],[5.31822,100.21091],[5.3179,100.21075],[5.3178,100.21071],[5.31743,100.21047],[5.31698,100.21019],[5.31654,100.20989],[5.31611,100.2096],[5.31586,100.20948],[5.31561,100.2093],[5.31553,100.20921],[5.31523,100.20906],[5.31469,100.20867],[5.31416,100.20834],[5.31359,100.20795],[5.31314,100.20764],[5.31273,100.20737],[5.31245,100.20718],[5.31236,100.2071],[5.31198,100.20687],[5.31144,100.20651],[5.31112,100.2063],[5.31098,100.20618],[5.31062,100.20597],[5.31013,100.20565],[5.30978,100.20542],[5.30942,100.20517],[5.30901,100.20492],[5.3085,100.20459],[5.30795,100.20423],[5.30729,100.20378],[5.30682,100.20347],[5.30672,100.20336],[5.3065,100.20321],[5.30629,100.20301],[5.30588,100.20249],[5.30522,100.20175],[5.30489,100.20119],[5.30472,100.20089],[5.30426,100.20031],[5.30411,100.20012],[5.30404,100.19991],[5.30398,100.19962],[5.30392,100.19915],[5.30372,100.19813],[5.30351,100.1969],[5.30343,100.19638],[5.30333,100.19576],[5.30334,100.19559],[5.30338,100.19547],[5.30356,100.19533],[5.30462,100.19485],[5.30505,100.19466],[5.30511,100.19461],[5.30523,100.19453],[5.30526,100.19456],[5.30507,100.19469],[5.30496,100.19474],[5.30446,100.19496],[5.30392,100.1952],[5.30357,100.19536],[5.30348,100.19542],[5.30338,100.19557],[5.30337,100.1957],[5.3034,100.19587],[5.30352,100.19675],[5.30365,100.19736],[5.30379,100.19808],[5.30385,100.19853],[5.30399,100.19939],[5.30407,100.19987],[5.30411,100.20001],[5.30419,100.20015],[5.30469,100.20081],[5.30482,100.20101],[5.30504,100.20136],[5.30524,100.20166],[5.30525,100.20166],[5.30548,100.20199],[5.30603,100.20263],[5.30635,100.20302],[5.30649,100.20313],[5.30672,100.20336],[5.30677,100.20321],[5.30702,100.2029],[5.30708,100.20286],[5.30736,100.20277],[5.30799,100.20289],[5.30869,100.20299],[5.30897,100.20306],[5.30953,100.20314],[5.30999,100.20324],[5.31074,100.20335],[5.3117,100.20352],[5.31255,100.20363],[5.31319,100.20375],[5.31346,100.20377],[5.31364,100.20382],[5.31433,100.2039],[5.31507,100.20402],[5.31592,100.20416],[5.31689,100.20432],[5.31699,100.20435],[5.31764,100.20444],[5.31802,100.2045],[5.31834,100.20457],[5.31862,100.20458],[5.31891,100.20462],[5.31908,100.20466],[5.31959,100.20473],[5.31986,100.2048],[5.32055,100.20488],[5.3212,100.20496],[5.32178,100.20506],[5.32264,100.20522],[5.32356,100.20532],[5.32445,100.20542],[5.32509,100.2055],[5.32518,100.20553],[5.32621,100.20562],[5.32686,100.2057],[5.32782,100.20581],[5.32859,100.20589],[5.32879,100.20592],[5.32951,100.206],[5.33056,100.20614],[5.33147,100.20623],[5.33274,100.2064],[5.33287,100.2064],[5.33298,100.20642],[5.33393,100.20652],[5.33484,100.20664],[5.33525,100.20667],[5.33534,100.2067],[5.33733,100.20702],[5.33774,100.20706],[5.33887,100.2072],[5.3396,100.20729],[5.34062,100.20752],[5.34155,100.20768],[5.34253,100.20781],[5.34359,100.20798],[5.34437,100.20807],[5.34463,100.2081],[5.34564,100.20826],[5.34687,100.20843],[5.34797,100.20862],[5.34877,100.20877],[5.34904,100.20879],[5.35026,100.20898],[5.35102,100.20912],[5.35197,100.20932],[5.35211,100.20939],[5.35221,100.20913],[5.35225,100.20873],[5.35223,100.20842],[5.35223,100.20817],[5.35227,100.2078],[5.35241,100.20689],[5.35257,100.20595],[5.35277,100.20457],[5.35298,100.20321],[5.35319,100.20196],[5.35333,100.20114],[5.35346,100.20025],[5.35361,100.19927],[5.3537,100.19869],[5.35379,100.19812],[5.35384,100.19818],[5.35377,100.19866],[5.35366,100.19923],[5.35352,100.2002],[5.35339,100.20094],[5.35324,100.20182],[5.35304,100.20315],[5.35289,100.20401],[5.35273,100.20508],[5.35252,100.20641],[5.35246,100.20682],[5.35233,100.20763],[5.35228,100.20792],[5.35226,100.20822],[5.35226,100.20853],[5.35227,100.20876],[5.35223,100.20909],[5.35221,100.20933],[5.3542,100.20965],[5.35509,100.20981],[5.35545,100.2099],[5.35634,100.21012],[5.35706,100.2103],[5.35708,100.2103],[5.3578,100.2105],[5.35897,100.21074],[5.35948,100.21086],[5.36023,100.21107],[5.36052,100.21112],[5.36102,100.21124],[5.36175,100.21137],[5.36213,100.21147],[5.36244,100.21161],[5.36262,100.21174],[5.36278,100.21189],[5.36296,100.21214],[5.36348,100.21312],[5.36402,100.21412],[5.36447,100.21498],[5.36523,100.21643],[5.36527,100.21664],[5.36525,100.21683],[5.36488,100.21736],[5.36391,100.21858],[5.363,100.21967],[5.36256,100.22026],[5.36226,100.22061],[5.36198,100.2209],[5.36187,100.22102],[5.36131,100.22141],[5.36112,100.22156],[5.3609,100.22169],[5.36066,100.2219],[5.36054,100.22205],[5.36046,100.22224],[5.36009,100.22301],[5.3599,100.22328],[5.35943,100.22387],[5.35898,100.22442],[5.35826,100.22535],[5.35771,100.22599],[5.35718,100.22662],[5.357,100.22684],[5.35629,100.22751],[5.35609,100.2277],[5.35537,100.22835],[5.35459,100.22903],[5.35439,100.22919],[5.35418,100.22929],[5.35388,100.2294],[5.35332,100.22964],[5.35273,100.22992],[5.3526,100.22999],[5.3525,100.23007],[5.35239,100.23014],[5.35233,100.23025],[5.35226,100.23056],[5.35218,100.23092],[5.35195,100.23151],[5.35182,100.23183],[5.35142,100.23238],[5.35119,100.23268],[5.35104,100.23297],[5.35094,100.2332],[5.35068,100.23395],[5.35063,100.23422],[5.35068,100.23449],[5.3507,100.23463],[5.35067,100.23476],[5.35082,100.23496],[5.35128,100.23541],[5.3519,100.23585],[5.35183,100.23596],[5.35156,100.23621],[5.35144,100.23639],[5.35135,100.23668],[5.35129,100.2369],[5.35115,100.23754],[5.3511,100.2379],[5.35113,100.23803],[5.35118,100.23915],[5.35126,100.23914],[5.35128,100.23917],[5.35139,100.2392],[5.35143,100.23926],[5.35137,100.23981],[5.35138,100.24004],[5.35146,100.24012],[5.3516,100.24013],[5.35167,100.24005],[5.35168,100.23991],[5.3517,100.23953],[5.35166,100.23945],[5.35152,100.2393],[5.35143,100.23926]],"tripIds":["260327030901S9","260327030901S5","260327020901S7","260327030901S4","260327010901S11","260327010901S4","260327030901S11","260327010901S10","260327010901S7","260327030901S6","260327020901S4","260327010901S9","260327010901S8","260327010901S6","260327020901S9","260327020901S3","260327020901S2","260327010901S5","260327010901S3","260327030901S10","260327030901S7","260327020901S11","260327020901S6","260327020901S5","260327030901S8","260327030901S3","260327030901S2","260327020901S10","260327020901S8","260327010901S2"],"oppositeTripIds":[],"firstDeparture":"06:00","lastDeparture":"20:15","tripCount":30}