{"routeId":"30000103","shortName":"C13A","directionId":1,"headsign":"FIZ 1. 2 & 3 - SUNWAY","stops":[{"stopId":"12002974","stopName":"Terminal Bas Bayan Baru","stopCode":"IDN2000","lat":5.32696,"lon":100.28032,"sequence":1},{"stopId":"12000851","stopName":"(M2) Spice","stopCode":"IDN0851","lat":5.32736,"lon":100.28051,"sequence":2},{"stopId":"12001933","stopName":"Mapa Glove","stopCode":"IIT1933","lat":5.32757,"lon":100.29807,"sequence":3},{"stopId":"12000014","stopName":"GUH Holdings","stopCode":"I0F0014","lat":5.32858,"lon":100.30004,"sequence":4},{"stopId":"12000013","stopName":"Intel PG12","stopCode":"I0F0013","lat":5.32847,"lon":100.30004,"sequence":5},{"stopId":"12001931","stopName":"Intel","stopCode":"IIT1931","lat":5.32726,"lon":100.29819,"sequence":6},{"stopId":"12002094","stopName":"AMD","stopCode":"IKT2094","lat":5.32274,"lon":100.29578,"sequence":7},{"stopId":"12002011","stopName":"Western Digital","stopCode":"IJR2011","lat":5.32235,"lon":100.29368,"sequence":8},{"stopId":"12002095","stopName":"TPC (M) Sdn. Bhd.","stopCode":"IKT2095","lat":5.32103,"lon":100.29422,"sequence":9},{"stopId":"12001961","stopName":"Knowles Electronics","stopCode":"IJH1961","lat":5.31289,"lon":100.29862,"sequence":10},{"stopId":"12001963","stopName":"Cincaria Sdn. Bhd","stopCode":"IJH1963","lat":5.31434,"lon":100.29616,"sequence":11},{"stopId":"12001965","stopName":"Plexus Riverside","stopCode":"IJH1965","lat":5.3169,"lon":100.2962,"sequence":12},{"stopId":"12001967","stopName":"UTIC Service","stopCode":"IJH1967","lat":5.31892,"lon":100.29341,"sequence":13},{"stopId":"12001968","stopName":"PSDC","stopCode":"IJH1968","lat":5.32003,"lon":100.29091,"sequence":14},{"stopId":"12001426","stopName":"Snake Temple","stopCode":"IGR1426","lat":5.31388,"lon":100.28609,"sequence":15},{"stopId":"12001424","stopName":"Kilang Clarion","stopCode":"IGR1424","lat":5.30821,"lon":100.28236,"sequence":16},{"stopId":"12000874","stopName":"Dynacraft Industries","stopCode":"IDT0874","lat":5.30508,"lon":100.27721,"sequence":17},{"stopId":"12000875","stopName":"Towa (M) Sdn. Bhd.","stopCode":"IDT0875","lat":5.3065,"lon":100.27693,"sequence":18},{"stopId":"12001952","stopName":"B. Braun","stopCode":"IJC1952","lat":5.31256,"lon":100.28348,"sequence":19},{"stopId":"12001951","stopName":"Renesas","stopCode":"IJC1951","lat":5.31132,"lon":100.28407,"sequence":20},{"stopId":"12002043","stopName":"B. Braun Medical","stopCode":"IKD2043","lat":5.30988,"lon":100.28114,"sequence":21},{"stopId":"12002044","stopName":"Plexus Hillside","stopCode":"IKD2044","lat":5.31235,"lon":100.2828,"sequence":22},{"stopId":"12000876","stopName":"Astaka Bukit Gedung","stopCode":"IDT0876","lat":5.31614,"lon":100.28407,"sequence":23},{"stopId":"12002317","stopName":"Pangsapuri Mayang","stopCode":"ICT0050","lat":5.31838,"lon":100.28491,"sequence":24},{"stopId":"12000879","stopName":"Pasaraya Giant","stopCode":"IDT0879","lat":5.32071,"lon":100.28571,"sequence":25},{"stopId":"12000882","stopName":"Masjid Bayan Baru","stopCode":"IDT0882","lat":5.32367,"lon":100.28688,"sequence":26},{"stopId":"12000885","stopName":"Sunshine Square","stopCode":"IDT0885","lat":5.3255,"lon":100.2875,"sequence":27},{"stopId":"12000849","stopName":"Jalan Mahsuri","stopCode":"IDN0849","lat":5.32695,"lon":100.28878,"sequence":28},{"stopId":"12001432","stopName":"Taman Mahsuri","stopCode":"IGR1432","lat":5.32846,"lon":100.29336,"sequence":29},{"stopId":"12001955","stopName":"Krystal Point Corporate Park","stopCode":"IJE1955","lat":5.3307,"lon":100.299,"sequence":30},{"stopId":"12002059","stopName":"Queensbay Mall","stopCode":"IKJ2059","lat":5.33195,"lon":100.30791,"sequence":31},{"stopId":"12002063","stopName":"Bay Garden","stopCode":"IKJ2063","lat":5.33698,"lon":100.30827,"sequence":32},{"stopId":"12002066","stopName":"Putra Place","stopCode":"IKJ2066","lat":5.33992,"lon":100.30946,"sequence":33},{"stopId":"12002069","stopName":"Jeti Pulau Jerejak","stopCode":"IKJ2069","lat":5.34301,"lon":100.31122,"sequence":34},{"stopId":"12001989","stopName":"E-Park Kondominium","stopCode":"IJJ1989","lat":5.35209,"lon":100.30987,"sequence":35},{"stopId":"12002109","stopName":"Jambatan Pulau Pinang","stopCode":"M002109","lat":5.35657,"lon":100.39229,"sequence":36},{"stopId":"12001067","stopName":"(M2) Megamall - Pacific","stopCode":"MEW1067","lat":5.37879,"lon":100.39794,"sequence":37},{"stopId":"12001877","stopName":"Masjid Seberang Jaya","stopCode":"MIF1877","lat":5.38675,"lon":100.40491,"sequence":38},{"stopId":"12001878","stopName":"Pangsapuri B3","stopCode":"MIF1878","lat":5.39097,"lon":100.40536,"sequence":39},{"stopId":"12001880","stopName":"Pangsapuri A1","stopCode":"MIF1880","lat":5.39331,"lon":100.40557,"sequence":40},{"stopId":"12001830","stopName":"Prudential","stopCode":"MIB1830","lat":5.39674,"lon":100.39963,"sequence":41},{"stopId":"12002530","stopName":"Hotel Blanket","stopCode":"ICT0303","lat":5.39485,"lon":100.40001,"sequence":42}],"shape":[[5.32697,100.28009],[5.32693,100.28023],[5.32691,100.28039],[5.32696,100.28051],[5.32704,100.28059],[5.32715,100.28063],[5.32725,100.28063],[5.3273,100.2806],[5.32731,100.28054],[5.32738,100.28032],[5.3274,100.28025],[5.32745,100.28018],[5.32735,100.28006],[5.32722,100.28001],[5.3271,100.28003],[5.32697,100.28009],[5.32675,100.28005],[5.32648,100.28],[5.32594,100.27982],[5.32577,100.27981],[5.32552,100.27978],[5.32532,100.27974],[5.3251,100.2797],[5.32491,100.27967],[5.32484,100.27967],[5.32469,100.27965],[5.32461,100.27963],[5.32446,100.27958],[5.32427,100.27953],[5.32425,100.27961],[5.32412,100.28025],[5.32394,100.28111],[5.32391,100.28121],[5.32391,100.28133],[5.3239,100.28145],[5.32389,100.28153],[5.32387,100.28168],[5.32383,100.28184],[5.32384,100.28184],[5.32375,100.28211],[5.32377,100.28251],[5.32376,100.28284],[5.32373,100.28344],[5.32372,100.28396],[5.32371,100.28435],[5.32365,100.28462],[5.32363,100.28471],[5.32344,100.28549],[5.3232,100.28636],[5.32308,100.28669],[5.32406,100.28703],[5.32488,100.28729],[5.32523,100.28744],[5.32562,100.28756],[5.3259,100.28761],[5.32659,100.28769],[5.32686,100.28771],[5.32697,100.28772],[5.32697,100.28782],[5.32695,100.28811],[5.3269,100.28909],[5.32682,100.28984],[5.32675,100.29029],[5.32664,100.29079],[5.32654,100.29118],[5.32646,100.2915],[5.32639,100.29175],[5.32632,100.29216],[5.32624,100.2924],[5.32612,100.29279],[5.32579,100.29387],[5.3257,100.294],[5.32541,100.29505],[5.3249,100.29674],[5.32482,100.29697],[5.32502,100.29733],[5.32567,100.29751],[5.32622,100.29768],[5.32659,100.29779],[5.32672,100.29784],[5.32727,100.298],[5.32813,100.29824],[5.329,100.29852],[5.32887,100.29889],[5.3287,100.29953],[5.32838,100.30066],[5.32813,100.30144],[5.32796,100.30204],[5.32782,100.30288],[5.32777,100.3029],[5.32778,100.30284],[5.32793,100.30203],[5.32806,100.30154],[5.3284,100.30045],[5.32884,100.2989],[5.32895,100.29855],[5.328,100.29823],[5.32667,100.29786],[5.32642,100.29778],[5.3256,100.29752],[5.32502,100.29733],[5.32489,100.29731],[5.32474,100.29725],[5.32457,100.29721],[5.3244,100.29716],[5.32406,100.29707],[5.3235,100.2969],[5.32299,100.29674],[5.32237,100.29646],[5.32265,100.2958],[5.32304,100.29496],[5.32338,100.2942],[5.32347,100.29402],[5.32296,100.29378],[5.32184,100.29328],[5.32159,100.29313],[5.32121,100.29384],[5.32078,100.29458],[5.32038,100.29529],[5.32027,100.29544],[5.3206,100.29564],[5.32109,100.29591],[5.32165,100.29616],[5.32237,100.29646],[5.32303,100.29673],[5.3235,100.2969],[5.32417,100.29708],[5.3244,100.29716],[5.32461,100.29721],[5.32474,100.29725],[5.32473,100.29736],[5.32469,100.2975],[5.32466,100.29759],[5.32437,100.29853],[5.32425,100.29896],[5.3239,100.30015],[5.32367,100.30093],[5.32334,100.30209],[5.32312,100.30272],[5.32305,100.30299],[5.32299,100.30308],[5.32299,100.30317],[5.32296,100.30327],[5.32292,100.30335],[5.3222,100.30297],[5.32077,100.30223],[5.31982,100.3018],[5.31801,100.30098],[5.31678,100.3004],[5.31621,100.30015],[5.31556,100.29986],[5.31524,100.29979],[5.31358,100.29953],[5.31265,100.29935],[5.31272,100.29917],[5.31274,100.29912],[5.31285,100.29888],[5.31329,100.29816],[5.31396,100.297],[5.31462,100.29586],[5.31488,100.29542],[5.31503,100.29535],[5.31527,100.29538],[5.31552,100.29552],[5.31572,100.29559],[5.31714,100.29624],[5.31771,100.29547],[5.31858,100.29421],[5.31887,100.29373],[5.3189,100.2936],[5.31918,100.29289],[5.31953,100.29194],[5.32019,100.29082],[5.32077,100.28983],[5.32075,100.28965],[5.32014,100.28926],[5.31873,100.28848],[5.31847,100.28836],[5.31827,100.28826],[5.31737,100.28772],[5.31649,100.28723],[5.31602,100.28705],[5.31535,100.28673],[5.31447,100.28627],[5.31375,100.28586],[5.31236,100.285],[5.31115,100.28419],[5.31029,100.28363],[5.30938,100.28301],[5.30901,100.28277],[5.30815,100.28223],[5.30742,100.28178],[5.30667,100.28121],[5.30571,100.28029],[5.305,100.27955],[5.3043,100.27883],[5.30385,100.27836],[5.30393,100.27827],[5.30399,100.27818],[5.30415,100.27805],[5.3048,100.27754],[5.30519,100.27725],[5.30545,100.27712],[5.30561,100.27705],[5.3064,100.27695],[5.30715,100.2768],[5.30729,100.27677],[5.30739,100.27679],[5.30743,100.27682],[5.3075,100.27719],[5.30758,100.27781],[5.30767,100.27805],[5.30783,100.27831],[5.30799,100.27847],[5.30832,100.27866],[5.3087,100.2789],[5.30931,100.27925],[5.30991,100.2796],[5.31022,100.27982],[5.31024,100.27983],[5.31077,100.28022],[5.31117,100.28055],[5.31186,100.281],[5.31205,100.28115],[5.31216,100.28126],[5.31221,100.28133],[5.31232,100.28157],[5.31248,100.28229],[5.31255,100.28251],[5.31265,100.28266],[5.31294,100.28292],[5.3129,100.28299],[5.31285,100.28307],[5.31279,100.28311],[5.3125,100.28359],[5.31214,100.28408],[5.31198,100.28432],[5.31189,100.28437],[5.31172,100.28432],[5.31091,100.28381],[5.3102,100.28332],[5.30957,100.28291],[5.30953,100.28285],[5.30918,100.28267],[5.30873,100.28239],[5.30846,100.28219],[5.30844,100.28214],[5.30853,100.28199],[5.30896,100.28135],[5.30935,100.28081],[5.31036,100.28149],[5.31125,100.28207],[5.31177,100.28239],[5.31279,100.28311],[5.31285,100.28303],[5.31291,100.28295],[5.31294,100.28292],[5.31358,100.28336],[5.31383,100.28346],[5.315,100.2838],[5.31556,100.28395],[5.31564,100.28395],[5.31624,100.28413],[5.31653,100.28421],[5.3169,100.28431],[5.31696,100.28436],[5.31796,100.28476],[5.31861,100.28501],[5.31918,100.28521],[5.31961,100.28541],[5.31972,100.2854],[5.31981,100.28541],[5.31993,100.28547],[5.32021,100.28559],[5.32059,100.2857],[5.32101,100.28585],[5.32137,100.286],[5.32195,100.28626],[5.32206,100.28629],[5.32308,100.28669],[5.32406,100.28703],[5.32488,100.28729],[5.32523,100.28744],[5.32562,100.28756],[5.3259,100.28761],[5.32659,100.28769],[5.32686,100.28771],[5.32697,100.28772],[5.32697,100.28782],[5.32695,100.28811],[5.3269,100.28909],[5.32682,100.28984],[5.32675,100.29029],[5.32664,100.29079],[5.32654,100.29118],[5.32646,100.2915],[5.32639,100.29175],[5.32649,100.29205],[5.32657,100.29219],[5.32663,100.29229],[5.32734,100.29266],[5.32849,100.29342],[5.32927,100.29393],[5.33016,100.29446],[5.33068,100.29476],[5.33079,100.2948],[5.33122,100.29476],[5.33141,100.29462],[5.33154,100.2946],[5.33191,100.29461],[5.33207,100.29471],[5.33214,100.29481],[5.3323,100.29515],[5.33226,100.29539],[5.33217,100.29558],[5.3321,100.29567],[5.33179,100.29583],[5.33165,100.29603],[5.33149,100.29637],[5.33121,100.29731],[5.33081,100.29858],[5.33035,100.30004],[5.33028,100.30047],[5.33027,100.30077],[5.3303,100.30154],[5.33036,100.30176],[5.33039,100.30206],[5.33051,100.30265],[5.33068,100.30309],[5.3312,100.30386],[5.33136,100.30416],[5.33146,100.3044],[5.33152,100.30478],[5.33154,100.30526],[5.33152,100.30587],[5.33146,100.3062],[5.33133,100.30646],[5.33112,100.30672],[5.33084,100.30689],[5.33056,100.30695],[5.3305,100.30703],[5.33013,100.30701],[5.32984,100.30692],[5.32968,100.30692],[5.32931,100.30675],[5.32899,100.30656],[5.32875,100.30645],[5.32853,100.30638],[5.32836,100.30638],[5.32825,100.30645],[5.32814,100.3066],[5.32819,100.30671],[5.32818,100.30683],[5.32808,100.30693],[5.32831,100.3072],[5.32924,100.3078],[5.33007,100.30814],[5.33044,100.30826],[5.33103,100.30838],[5.33127,100.3084],[5.33141,100.3084],[5.3315,100.30833],[5.33157,100.30831],[5.33171,100.30821],[5.33194,100.30795],[5.33221,100.30767],[5.33238,100.30753],[5.33264,100.30736],[5.33319,100.30709],[5.3336,100.30695],[5.33395,100.30688],[5.33438,100.30686],[5.33485,100.30693],[5.33509,100.307],[5.33531,100.30711],[5.33558,100.30727],[5.33581,100.30745],[5.3361,100.30769],[5.33652,100.30802],[5.33701,100.30831],[5.33726,100.30842],[5.33768,100.30852],[5.33778,100.30845],[5.33796,100.30845],[5.33807,100.30853],[5.33813,100.3086],[5.33814,100.30866],[5.33896,100.30889],[5.33935,100.30905],[5.33972,100.3093],[5.34005,100.30967],[5.34068,100.31036],[5.34084,100.31044],[5.34153,100.3107],[5.34237,100.31101],[5.34279,100.31118],[5.34388,100.31148],[5.34417,100.31135],[5.3446,100.31019],[5.3446,100.30995],[5.34464,100.30966],[5.34461,100.30942],[5.34454,100.30919],[5.34446,100.30898],[5.34436,100.3087],[5.34436,100.3085],[5.3444,100.30836],[5.34455,100.30821],[5.34478,100.30806],[5.34499,100.30805],[5.34513,100.30809],[5.34578,100.30841],[5.34655,100.30877],[5.34676,100.30893],[5.34758,100.30927],[5.34825,100.30942],[5.34876,100.30946],[5.34953,100.30947],[5.35003,100.3095],[5.35065,100.30955],[5.3511,100.30963],[5.35249,100.31005],[5.3531,100.31026],[5.35379,100.31064],[5.35438,100.31111],[5.35564,100.31211],[5.35583,100.31216],[5.35615,100.31239],[5.35641,100.31257],[5.35661,100.31268],[5.35692,100.31283],[5.35718,100.31295],[5.35755,100.31309],[5.35786,100.31312],[5.35831,100.31319],[5.35889,100.31333],[5.35921,100.31344],[5.35945,100.31349],[5.36,100.31361],[5.36023,100.31366],[5.36048,100.31373],[5.36064,100.3138],[5.36087,100.31397],[5.36109,100.31423],[5.36122,100.31461],[5.36122,100.31488],[5.36115,100.31516],[5.36097,100.31555],[5.36069,100.3158],[5.35993,100.31619],[5.35935,100.31649],[5.35918,100.3166],[5.3589,100.31694],[5.35875,100.31726],[5.35857,100.31787],[5.35847,100.31835],[5.35841,100.3186],[5.35833,100.31873],[5.35797,100.3213],[5.35696,100.32784],[5.35654,100.33045],[5.35604,100.33351],[5.35548,100.33716],[5.35428,100.34465],[5.354,100.34643],[5.35323,100.35116],[5.35226,100.358],[5.3519,100.36016],[5.35156,100.36259],[5.3514,100.36385],[5.35129,100.36502],[5.35126,100.36669],[5.35134,100.36834],[5.35152,100.37018],[5.35165,100.3714],[5.35192,100.3743],[5.3522,100.37746],[5.3527,100.38228],[5.35301,100.38538],[5.35308,100.38592],[5.35323,100.38758],[5.35339,100.38849],[5.35394,100.38977],[5.35445,100.39058],[5.35491,100.39118],[5.35578,100.39193],[5.35595,100.3921],[5.3566,100.39251],[5.35793,100.39321],[5.35959,100.39409],[5.36089,100.39478],[5.36225,100.39545],[5.36294,100.39584],[5.36353,100.39615],[5.36464,100.39667],[5.36481,100.39673],[5.36539,100.39698],[5.36541,100.39698],[5.36606,100.3973],[5.36665,100.39755],[5.36723,100.39787],[5.36756,100.39806],[5.36767,100.39808],[5.3681,100.39837],[5.36871,100.39883],[5.36911,100.39908],[5.36967,100.39939],[5.36973,100.39948],[5.37146,100.40041],[5.37329,100.40138],[5.3743,100.40171],[5.37566,100.40222],[5.376,100.40231],[5.37641,100.40223],[5.3767,100.40201],[5.37708,100.40137],[5.37725,100.40107],[5.3774,100.40098],[5.37786,100.40012],[5.37876,100.3985],[5.37939,100.39728],[5.37937,100.39705],[5.37931,100.39686],[5.37863,100.39648],[5.3785,100.39646],[5.37842,100.3965],[5.3783,100.39673],[5.3783,100.39681],[5.37836,100.39693],[5.37907,100.39728],[5.3786,100.39821],[5.37828,100.39809],[5.37773,100.39776],[5.37781,100.39751],[5.37796,100.39719],[5.37811,100.39688],[5.37841,100.39632],[5.37854,100.39633],[5.37871,100.39639],[5.3796,100.39687],[5.37974,100.39695],[5.37969,100.39704],[5.37912,100.39811],[5.37866,100.39897],[5.3784,100.39941],[5.37836,100.39968],[5.37802,100.4004],[5.37796,100.4007],[5.37797,100.40106],[5.37821,100.40173],[5.37847,100.40239],[5.37865,100.40304],[5.37908,100.40351],[5.37972,100.40381],[5.38008,100.40394],[5.38025,100.40403],[5.38326,100.40467],[5.38405,100.4048],[5.3851,100.40491],[5.38528,100.40485],[5.3856,100.40483],[5.38564,100.40484],[5.38606,100.40487],[5.38629,100.4049],[5.38963,100.40529],[5.39385,100.40569],[5.39592,100.40588],[5.39633,100.40597],[5.39816,100.40589],[5.39929,100.40596],[5.39945,100.40575],[5.39948,100.40564],[5.39969,100.40409],[5.39976,100.40353],[5.39985,100.40334],[5.39989,100.40268],[5.39993,100.40206],[5.40005,100.40105],[5.40022,100.4002],[5.40005,100.40007],[5.39967,100.39998],[5.39937,100.39994],[5.39854,100.39981],[5.39726,100.39964],[5.39654,100.39954],[5.39539,100.39937],[5.39506,100.39932],[5.39493,100.39938],[5.39485,100.39961],[5.39469,100.40092],[5.39463,100.40172]],"tripIds":["260327012001S3","260327022001S3"],"oppositeTripIds":["260327012001S2","260327022001S2"],"firstDeparture":"17:00","lastDeparture":"17:00","tripCount":2}