{"routeId":"30000005","shortName":"201","directionId":0,"headsign":"PAYA TERUBONG - JETI","stops":[{"stopId":"12001018","stopName":"(M1) Hub Paya Terubong - Petronas","stopCode":"IER1018","lat":5.3716,"lon":100.27493,"sequence":1},{"stopId":"12002102","stopName":"(M2) Tingkat Paya Terubong4","stopCode":"IKX2102","lat":5.36975,"lon":100.27547,"sequence":2},{"stopId":"12002099","stopName":"Tingkat Paya Terubong 2 - 1","stopCode":"IKX2099","lat":5.37092,"lon":100.2774,"sequence":3},{"stopId":"12002100","stopName":"Tingkat Paya Terubong 2 - 2","stopCode":"IKX2100","lat":5.37184,"lon":100.27757,"sequence":4},{"stopId":"12002101","stopName":"Tingkat Paya Terubong 2 - 3","stopCode":"IKX2101","lat":5.37357,"lon":100.27785,"sequence":5},{"stopId":"12001020","stopName":"Oriental Garden","stopCode":"IER1020","lat":5.37547,"lon":100.27576,"sequence":6},{"stopId":"12002286","stopName":"Pekan Paya Terubong","stopCode":"ICT0007","lat":5.37904,"lon":100.27483,"sequence":7},{"stopId":"12001023","stopName":"Paya Terubong Cemetery","stopCode":"IER1023","lat":5.38088,"lon":100.27495,"sequence":8},{"stopId":"12001026","stopName":"Pangsapuri Wisma Indah","stopCode":"IER1026","lat":5.38789,"lon":100.2745,"sequence":9},{"stopId":"12001029","stopName":"Permata Court Complex","stopCode":"IER1029","lat":5.39245,"lon":100.27588,"sequence":10},{"stopId":"12001033","stopName":"SJK Kong Min II","stopCode":"IER1033","lat":5.39529,"lon":100.2767,"sequence":11},{"stopId":"12001035","stopName":"Klinik Desa Paya Terubong","stopCode":"IER1035","lat":5.39777,"lon":100.27714,"sequence":12},{"stopId":"12001037","stopName":"Ambank Paya Terubong","stopCode":"IER1037","lat":5.39975,"lon":100.27792,"sequence":13},{"stopId":"12000151","stopName":"Kek Lok Si Temple","stopCode":"I0Z0151","lat":5.40238,"lon":100.27728,"sequence":14},{"stopId":"12000059","stopName":"Pejabat Pos Ayer Itam","stopCode":"I0Q0059","lat":5.4041,"lon":100.28008,"sequence":15},{"stopId":"12000065","stopName":"Tadika St. Paul","stopCode":"I0Q0065","lat":5.40507,"lon":100.28191,"sequence":16},{"stopId":"12000068","stopName":"CIMB Bank Ayer Itam","stopCode":"I0Q0068","lat":5.4053,"lon":100.28384,"sequence":17},{"stopId":"12000061","stopName":"Masjid Jamek Al-Qadrie","stopCode":"I0Q0061","lat":5.40437,"lon":100.28602,"sequence":18},{"stopId":"12001373","stopName":"Restoran Nasi Kandar Salam","stopCode":"IGE1373","lat":5.40502,"lon":100.28869,"sequence":19},{"stopId":"12001377","stopName":"Pejabat Pos Padang Tembak","stopCode":"IGE1377","lat":5.40776,"lon":100.28855,"sequence":20},{"stopId":"12001379","stopName":"Flat Padang Tembak","stopCode":"IGE1379","lat":5.41063,"lon":100.29005,"sequence":21},{"stopId":"12000967","stopName":"Kuartes PBA","stopCode":"IEJ0967","lat":5.40959,"lon":100.29346,"sequence":22},{"stopId":"12002299","stopName":"PBA Padang Tembak","stopCode":"ICT2023","lat":5.40821,"lon":100.29369,"sequence":23},{"stopId":"12000963","stopName":"Lorong Padang Tembak","stopCode":"IEJ0963","lat":5.40683,"lon":100.29616,"sequence":24},{"stopId":"12000071","stopName":"Masjid Negeri P.Pinang","stopCode":"I0Q0071","lat":5.40777,"lon":100.29997,"sequence":25},{"stopId":"12000073","stopName":"(M2) SMKA Al-Mashoor(Hentian Transit)","stopCode":"I0Q0073","lat":5.40832,"lon":100.3037,"sequence":26},{"stopId":"12000074","stopName":"SMK (L) Methodist","stopCode":"I0Q0074","lat":5.41018,"lon":100.30699,"sequence":27},{"stopId":"12000448","stopName":"Dhoby Ghaut","stopCode":"IBF0448","lat":5.41269,"lon":100.30969,"sequence":28},{"stopId":"12000460","stopName":"Penjara P.Pinang(Hospital)","stopCode":"IBF0460","lat":5.41364,"lon":100.31312,"sequence":29},{"stopId":"12000455","stopName":"Padang Brown","stopCode":"IBF0455","lat":5.41289,"lon":100.31799,"sequence":30},{"stopId":"12000445","stopName":"Kampung Makam","stopCode":"IBF0445","lat":5.41239,"lon":100.32112,"sequence":31},{"stopId":"12000453","stopName":"Pasar Jalan Kuantan","stopCode":"IBF0453","lat":5.41278,"lon":100.32437,"sequence":32},{"stopId":"12000459","stopName":"Penang Times Square","stopCode":"IBF0459","lat":5.41332,"lon":100.3262,"sequence":33},{"stopId":"12000462","stopName":"Pasaraya Gama","stopCode":"IBF0462","lat":5.41384,"lon":100.32789,"sequence":34},{"stopId":"12001060","stopName":"Komtar Utara","stopCode":"IEV1060","lat":5.41513,"lon":100.32899,"sequence":35},{"stopId":"12001832","stopName":"Wisma MCA","stopCode":"IIC1832","lat":5.41841,"lon":100.32954,"sequence":36},{"stopId":"12001835","stopName":"Transfer Road","stopCode":"IIC1835","lat":5.42088,"lon":100.33061,"sequence":37},{"stopId":"12001399","stopName":"Pejabat Maritim","stopCode":"IGN1399","lat":5.42175,"lon":100.33142,"sequence":38},{"stopId":"12001397","stopName":"Sri Bahari","stopCode":"IGN1397","lat":5.42089,"lon":100.33248,"sequence":39},{"stopId":"12001921","stopName":"H.S. Sam Book Store","stopCode":"IIP1921","lat":5.41933,"lon":100.33411,"sequence":40},{"stopId":"12001919","stopName":"Love Lane","stopCode":"IIP1919","lat":5.41834,"lon":100.3364,"sequence":41},{"stopId":"12001917","stopName":"Little India","stopCode":"IIP1917","lat":5.41647,"lon":100.33854,"sequence":42},{"stopId":"12002318","stopName":"Container Hotel","stopCode":"ICT0052","lat":5.4142,"lon":100.34045,"sequence":43},{"stopId":"12002056","stopName":"Jejantas Terminal Feri","stopCode":"IKI2056","lat":5.41452,"lon":100.34187,"sequence":44},{"stopId":"12002058","stopName":"Pejabat Pos Besar P.Pinang","stopCode":"IKI2058","lat":5.41721,"lon":100.34428,"sequence":45},{"stopId":"12002971","stopName":"Pejabat Pos Besar P.Pinang 1","stopCode":"IIR1926","lat":5.41802,"lon":100.34369,"sequence":46},{"stopId":"12001943","stopName":"Balai Polis","stopCode":"IIZ1943","lat":5.41865,"lon":100.34356,"sequence":47},{"stopId":"12002972","stopName":"Swettenham Pier Cruise Terminal","stopCode":"IIR1927","lat":5.4185,"lon":100.34508,"sequence":48},{"stopId":"12002057","stopName":"Church Street Pier","stopCode":"IKI2057","lat":5.41664,"lon":100.34413,"sequence":49},{"stopId":"12002114","stopName":"(M1) JETTY B","stopCode":"IKI2053","lat":5.41379,"lon":100.34178,"sequence":50}],"shape":[[5.37101,100.27502],[5.37108,100.27482],[5.37112,100.2748],[5.37147,100.27491],[5.37159,100.27495],[5.37166,100.27501],[5.37162,100.27519],[5.37161,100.2753],[5.371,100.27515],[5.37085,100.27511],[5.37033,100.27497],[5.37008,100.27495],[5.36971,100.27501],[5.36972,100.27513],[5.36971,100.27538],[5.36967,100.27558],[5.36953,100.27583],[5.36938,100.27596],[5.36908,100.27607],[5.36907,100.27638],[5.36911,100.27653],[5.36923,100.27672],[5.36945,100.27695],[5.36965,100.27711],[5.36986,100.27724],[5.37019,100.27735],[5.37095,100.27748],[5.37181,100.27766],[5.37264,100.27781],[5.37323,100.27789],[5.37363,100.27791],[5.3742,100.27784],[5.3741,100.27749],[5.37373,100.27697],[5.3736,100.27669],[5.37365,100.27636],[5.37381,100.27581],[5.37387,100.27575],[5.37408,100.27572],[5.37439,100.27576],[5.37495,100.2758],[5.37542,100.2758],[5.37578,100.27573],[5.37663,100.27521],[5.37731,100.27483],[5.37773,100.27472],[5.37947,100.27487],[5.37976,100.27489],[5.37982,100.27493],[5.38002,100.2749],[5.38013,100.2749],[5.38022,100.27492],[5.38105,100.27497],[5.3829,100.27524],[5.38377,100.27533],[5.38391,100.27537],[5.384,100.27531],[5.38434,100.27523],[5.38461,100.27514],[5.3849,100.27503],[5.38528,100.27487],[5.38607,100.27464],[5.38643,100.27447],[5.38675,100.27442],[5.38748,100.27446],[5.38912,100.27475],[5.38928,100.27479],[5.39032,100.27522],[5.39061,100.27522],[5.39129,100.27541],[5.39194,100.27563],[5.39371,100.27625],[5.39452,100.27654],[5.39516,100.27668],[5.39591,100.27677],[5.39612,100.27676],[5.39649,100.27673],[5.39679,100.27673],[5.39709,100.27678],[5.39745,100.2769],[5.39769,100.27711],[5.39811,100.27733],[5.39818,100.27735],[5.39914,100.27772],[5.3999,100.27795],[5.4003,100.27805],[5.40136,100.2782],[5.40146,100.27752],[5.40154,100.27707],[5.40171,100.27671],[5.40186,100.2766],[5.4021,100.27692],[5.40258,100.27761],[5.40274,100.27792],[5.4028,100.27809],[5.40283,100.27823],[5.4029,100.27836],[5.40301,100.27847],[5.40309,100.27854],[5.40326,100.27861],[5.40349,100.27902],[5.40396,100.27993],[5.40431,100.28053],[5.40549,100.28265],[5.4055,100.28274],[5.40558,100.2828],[5.40563,100.28294],[5.40568,100.28295],[5.40573,100.283],[5.40575,100.28305],[5.40574,100.28311],[5.40567,100.28317],[5.40563,100.28327],[5.40555,100.28331],[5.40549,100.28351],[5.40525,100.28389],[5.40468,100.2847],[5.40453,100.28504],[5.40441,100.28553],[5.40436,100.28648],[5.40437,100.28695],[5.40441,100.28755],[5.40454,100.28843],[5.40456,100.28852],[5.40477,100.28859],[5.40494,100.28864],[5.40556,100.28867],[5.40568,100.28863],[5.40614,100.28834],[5.40625,100.2883],[5.40668,100.28828],[5.40702,100.2883],[5.40732,100.28837],[5.4074,100.28841],[5.40914,100.28916],[5.41096,100.29033],[5.41105,100.29039],[5.4111,100.29049],[5.41109,100.29065],[5.411,100.29096],[5.41085,100.29137],[5.4106,100.29201],[5.41009,100.29325],[5.41,100.2934],[5.40992,100.29346],[5.40972,100.29347],[5.40916,100.29329],[5.40906,100.2933],[5.4083,100.29362],[5.4079,100.29379],[5.4078,100.29392],[5.40747,100.29442],[5.40721,100.29489],[5.4071,100.29517],[5.40693,100.29581],[5.40676,100.29632],[5.40654,100.29692],[5.40669,100.29704],[5.40694,100.29726],[5.40763,100.29796],[5.40787,100.29835],[5.40796,100.29867],[5.40797,100.29878],[5.40797,100.29889],[5.40795,100.29918],[5.40788,100.29951],[5.40766,100.30032],[5.40752,100.30089],[5.40749,100.30118],[5.40749,100.30137],[5.40754,100.30155],[5.40782,100.30231],[5.40788,100.30253],[5.408,100.30279],[5.40809,100.3031],[5.40848,100.30424],[5.40893,100.30561],[5.40914,100.30613],[5.40941,100.30646],[5.40995,100.30696],[5.41062,100.30748],[5.41126,100.30813],[5.4116,100.30847],[5.4116,100.30858],[5.41205,100.30903],[5.41266,100.30969],[5.41312,100.31022],[5.41338,100.31052],[5.4135,100.31073],[5.41356,100.31101],[5.41364,100.31134],[5.41366,100.3119],[5.41363,100.31285],[5.41358,100.31372],[5.41353,100.31418],[5.4134,100.31463],[5.41302,100.31565],[5.41291,100.31613],[5.41289,100.31666],[5.41286,100.31747],[5.41288,100.31862],[5.41285,100.3191],[5.41279,100.3194],[5.4125,100.32056],[5.41231,100.32144],[5.41221,100.3221],[5.41214,100.32277],[5.41209,100.32317],[5.41215,100.32352],[5.4123,100.32371],[5.41262,100.32409],[5.41284,100.32459],[5.41314,100.32538],[5.41333,100.32624],[5.41361,100.3273],[5.41391,100.32795],[5.41409,100.32849],[5.41414,100.32854],[5.41431,100.32877],[5.41446,100.32886],[5.41545,100.32919],[5.41564,100.32928],[5.4162,100.32945],[5.41667,100.32989],[5.41683,100.32992],[5.41696,100.32986],[5.41698,100.32976],[5.41745,100.32922],[5.41766,100.32902],[5.41795,100.32931],[5.41822,100.32947],[5.41866,100.32968],[5.41941,100.33002],[5.42004,100.33027],[5.42151,100.33089],[5.42196,100.3311],[5.42182,100.33131],[5.42168,100.33156],[5.42129,100.33197],[5.42076,100.33267],[5.42064,100.33285],[5.42054,100.33287],[5.42049,100.33292],[5.42025,100.33269],[5.42004,100.33276],[5.41989,100.33285],[5.41982,100.33306],[5.41958,100.33359],[5.41939,100.33399],[5.41927,100.33431],[5.41911,100.33463],[5.41882,100.33537],[5.41847,100.33611],[5.41828,100.33649],[5.41798,100.33694],[5.41764,100.33731],[5.41709,100.33794],[5.41685,100.33817],[5.41666,100.33837],[5.4163,100.33872],[5.4158,100.3392],[5.41547,100.33953],[5.41543,100.33962],[5.41537,100.33961],[5.41489,100.33998],[5.41444,100.3403],[5.41382,100.34073],[5.41372,100.34077],[5.41386,100.34108],[5.41435,100.3417],[5.41512,100.34262],[5.41584,100.34353],[5.41618,100.34377],[5.41719,100.34428],[5.41745,100.34441],[5.4178,100.34401],[5.41794,100.34387],[5.41818,100.34363],[5.41832,100.34349],[5.41842,100.34338],[5.41845,100.34338],[5.41869,100.34363],[5.41876,100.34371],[5.41886,100.34375],[5.41897,100.34385],[5.41912,100.34393],[5.41929,100.34391],[5.41937,100.344],[5.41937,100.34414],[5.41924,100.34422],[5.41918,100.34424],[5.41877,100.34486],[5.41856,100.34502],[5.41835,100.345],[5.41753,100.34456],[5.41666,100.34413],[5.41604,100.34382],[5.41578,100.34359],[5.41541,100.34312],[5.41484,100.34243],[5.41472,100.34232],[5.41428,100.34176],[5.41421,100.34167],[5.41415,100.34166],[5.4139,100.34182],[5.4138,100.34169],[5.41373,100.3416],[5.41386,100.34147],[5.41393,100.34137],[5.41391,100.34129]],"tripIds":["260327020054S2","260327010054S4","260327010054S5","260327010057S4","260327010059S3","260327010061S2","260327010061S7","260327010063S2","260327010063S3","260327013000S7","260327013001S5","260327020057S5","260327020058S5","260327020059S8","260327020060S8","260327030054S2","260327030054S6","260327030060S4","260327030061S3","260327033002S4","260327020057S2","260327010054S3","260327010057S7","260327010057S8","260327010058S8","260327010060S8","260327010061S5","260327010061S8","260327013001S7","260327013002S2","260327013002S3","260327013002S4","260327020055S5","260327020058S4","260327020058S7","260327020060S5","260327020060S6","260327020061S8","260327023000S3","260327023000S4","260327023001S6","260327023002S7","260327030054S7","260327030055S7","260327030060S3","260327030061S5","260327030063S7","260327033002S3","260327010057S3","260327010057S5","260327010059S5","260327010060S5","260327010060S6","260327010063S4","260327013000S6","260327013001S6","260327013002S6","260327020055S7","260327020057S6","260327020059S7","260327020060S3","260327020061S4","260327020063S3","260327030054S4","260327030057S5","260327030057S7","260327030058S2","260327030058S7","260327030059S4","260327030061S4","260327033000S4","260327033000S5","260327033001S2","260327010058S2","260327010059S2","260327010054S7","260327010054S8","260327010055S3","260327010063S6","260327020054S5","260327020054S6","260327020057S3","260327020057S7","260327020058S8","260327020060S4","260327020061S2","260327020061S6","260327020063S5","260327023002S5","260327023002S6","260327030055S5","260327030058S4","260327030059S2","260327030059S7","260327030060S5","260327030061S6","260327030063S5","260327033001S4","260327033002S2","260327010057S2","260327020058S2","260327010055S5","260327010058S3","260327010060S2","260327010061S4","260327010063S7","260327013000S2","260327013000S4","260327013000S5","260327020054S8","260327020055S3","260327020055S4","260327020057S8","260327020058S3","260327020059S3","260327020059S6","260327020060S2","260327020060S7","260327020063S6","260327023001S2","260327023001S4","260327023001S5","260327030055S3","260327030055S4","260327030057S3","260327030058S3","260327030058S5","260327030060S6","260327030061S2","260327030063S4","260327030063S6","260327033000S3","260327033001S6","260327033002S6","260327010054S2","260327010055S2","260327020059S2","260327010057S6","260327010058S6","260327010058S7","260327010059S6","260327010061S6","260327013000S3","260327013001S3","260327013001S4","260327013002S7","260327020054S3","260327020057S4","260327020061S7","260327023000S5","260327023001S7","260327030054S5","260327030057S6","260327030059S6","260327030061S7","260327033001S5","260327020055S2","260327010055S4","260327010058S5","260327010059S4","260327010059S8","260327010060S3","260327010061S3","260327010063S5","260327013001S2","260327013002S5","260327020054S7","260327020055S6","260327020055S8","260327020058S6","260327020061S3","260327020061S5","260327020063S4","260327023000S7","260327023002S4","260327030055S2","260327030057S4","260327030058S6","260327030059S5","260327030063S3","260327033000S6","260327033001S3","260327010054S6","260327010055S6","260327010055S7","260327010055S8","260327010058S4","260327010059S7","260327010060S4","260327010060S7","260327020054S4","260327020059S4","260327020059S5","260327020063S2","260327020063S7","260327023000S2","260327023000S6","260327023001S3","260327023002S2","260327023002S3","260327030054S3","260327030055S6","260327030057S2","260327030059S3","260327030060S2","260327030060S7","260327030063S2","260327033000S2","260327033002S5"],"oppositeTripIds":["260327033000S7","260327013000S8","260327023000S8","260327030054S8","260327013002S8","260327023001S8","260327013001S8","260327020063S8","260327023002S8","260327033001S7","260327033002S7","260327010063S8"],"firstDeparture":"05:30","lastDeparture":"21:10","tripCount":209}