{"routeId":"30000139","shortName":"CT15","directionId":0,"headsign":"CAT HOSPITAL","stops":[{"stopId":"12002988","stopName":"(M1) Hub Lebuh Carnavon","stopCode":"IIL1950","lat":5.41262,"lon":100.332,"sequence":1},{"stopId":"12002213","stopName":"Komtar II","stopCode":"IFW1399","lat":5.41502,"lon":100.33089,"sequence":2},{"stopId":"12000827","stopName":"Masjid Simpang Enam","stopCode":"IDJ0827","lat":5.41438,"lon":100.32784,"sequence":3},{"stopId":"12000830","stopName":"Pusat Kegiatan Guru Kelawei","stopCode":"IDJ0830","lat":5.41622,"lon":100.32396,"sequence":4},{"stopId":"12002208","stopName":"Pasar Jalan Anson","stopCode":"I0M0054","lat":5.41613,"lon":100.32093,"sequence":5},{"stopId":"12000051","stopName":"Kolej MSU","stopCode":"I0M0051","lat":5.41477,"lon":100.31888,"sequence":6},{"stopId":"12001080","stopName":"Koperasi Melayu Pulau Pinang","stopCode":"IEX1080","lat":5.41742,"lon":100.31678,"sequence":7},{"stopId":"12002203","stopName":"YMCA","stopCode":"IEX1199","lat":5.42055,"lon":100.31556,"sequence":8},{"stopId":"12001081","stopName":"YMCA","stopCode":"IEX1081","lat":5.42074,"lon":100.31528,"sequence":9},{"stopId":"12001355","stopName":"(M2) SK Jalan Residensi","stopCode":"IFV1355","lat":5.42026,"lon":100.31155,"sequence":10},{"stopId":"12003627","stopName":"Hospital Pulau Pinang","stopCode":"IFV1356","lat":5.41796,"lon":100.31063,"sequence":11},{"stopId":"12001894","stopName":"Hospital P.Pinang II","stopCode":"IIK1894","lat":5.41561,"lon":100.31017,"sequence":12},{"stopId":"12000460","stopName":"Penjara P.Pinang(Hospital)","stopCode":"IBF0460","lat":5.41364,"lon":100.31312,"sequence":13},{"stopId":"12001079","stopName":"Astaka Padang Brown","stopCode":"IEX1079","lat":5.41409,"lon":100.31632,"sequence":14},{"stopId":"12001080","stopName":"Koperasi Melayu Pulau Pinang","stopCode":"IEX1080","lat":5.41742,"lon":100.31678,"sequence":15},{"stopId":"12000833","stopName":"Hospital Loh Guan Lye","stopCode":"IDJ0833","lat":5.41912,"lon":100.3182,"sequence":16},{"stopId":"12000832","stopName":"Tropicana Hotel","stopCode":"IDJ0832","lat":5.41802,"lon":100.32038,"sequence":17},{"stopId":"12000831","stopName":"Ayam Garam Macalister","stopCode":"IDJ0831","lat":5.41718,"lon":100.32225,"sequence":18},{"stopId":"12000829","stopName":"Nasi Kandar Pelita","stopCode":"IDJ0829","lat":5.41614,"lon":100.32443,"sequence":19},{"stopId":"12000828","stopName":"Masjid Simpang Enam","stopCode":"IDJ0828","lat":5.41454,"lon":100.32774,"sequence":20},{"stopId":"12001060","stopName":"Komtar Utara","stopCode":"IEV1060","lat":5.41513,"lon":100.32899,"sequence":21},{"stopId":"12002213","stopName":"Komtar II","stopCode":"IFW1399","lat":5.41502,"lon":100.33089,"sequence":22},{"stopId":"12002988","stopName":"(M1) Hub Lebuh Carnavon","stopCode":"IIL1950","lat":5.41262,"lon":100.332,"sequence":23}],"shape":[[5.41303,100.33222],[5.41269,100.332],[5.41257,100.33185],[5.41258,100.33176],[5.41286,100.33122],[5.41315,100.33067],[5.41357,100.33088],[5.41382,100.331],[5.41396,100.33116],[5.41467,100.33194],[5.41486,100.33198],[5.41543,100.33156],[5.4155,100.33155],[5.41459,100.33046],[5.41371,100.32948],[5.41396,100.32902],[5.41406,100.32874],[5.41414,100.32854],[5.41451,100.32772],[5.41476,100.32719],[5.41503,100.32661],[5.41554,100.3256],[5.41578,100.32506],[5.41595,100.32466],[5.41663,100.32326],[5.41736,100.32167],[5.4168,100.32127],[5.41622,100.32093],[5.41588,100.32061],[5.41557,100.32026],[5.41524,100.31967],[5.41499,100.3192],[5.41487,100.31869],[5.41484,100.31822],[5.41476,100.31719],[5.41475,100.31671],[5.41487,100.31652],[5.41494,100.31648],[5.41589,100.31664],[5.41676,100.31671],[5.41811,100.31695],[5.41903,100.31709],[5.41939,100.31714],[5.41959,100.31704],[5.41992,100.31686],[5.4206,100.31564],[5.42146,100.31423],[5.42188,100.31358],[5.42193,100.31353],[5.42202,100.3133],[5.42205,100.31316],[5.42201,100.31291],[5.42186,100.3125],[5.42175,100.31231],[5.4217,100.31222],[5.42155,100.3121],[5.42147,100.31198],[5.42119,100.31188],[5.42064,100.31167],[5.42033,100.31153],[5.41993,100.31134],[5.41964,100.31125],[5.41893,100.31097],[5.41836,100.31068],[5.41775,100.31042],[5.41752,100.31019],[5.41745,100.31],[5.41686,100.30893],[5.41668,100.30863],[5.41664,100.30856],[5.41657,100.30861],[5.41647,100.30862],[5.41631,100.30891],[5.4157,100.31],[5.41539,100.31055],[5.41519,100.31081],[5.41484,100.31121],[5.4146,100.31152],[5.41444,100.31174],[5.41404,100.31226],[5.4139,100.31247],[5.41374,100.31273],[5.41363,100.31285],[5.41358,100.31372],[5.41353,100.31418],[5.4134,100.31463],[5.41302,100.31565],[5.41291,100.31613],[5.4146,100.31643],[5.41494,100.31648],[5.41589,100.31664],[5.41676,100.31671],[5.41811,100.31695],[5.41903,100.31709],[5.41939,100.31714],[5.41961,100.31718],[5.41965,100.31727],[5.41937,100.31787],[5.41885,100.31869],[5.41848,100.31935],[5.418,100.32043],[5.41747,100.32152],[5.41739,100.32173],[5.41702,100.3225],[5.41661,100.32337],[5.41616,100.3243],[5.416,100.3247],[5.41582,100.3251],[5.41508,100.32661],[5.41425,100.32841],[5.41429,100.32861],[5.41437,100.32879],[5.41446,100.32886],[5.41545,100.32919],[5.41564,100.32928],[5.4162,100.32945],[5.41667,100.32989],[5.41676,100.3302],[5.41667,100.33046],[5.41656,100.33063],[5.41609,100.331],[5.4155,100.33155],[5.41459,100.33046],[5.41371,100.32948],[5.41396,100.32902],[5.41412,100.32888],[5.41431,100.32885],[5.41446,100.32886],[5.41545,100.32919],[5.41564,100.32928],[5.4162,100.32945],[5.41667,100.32989],[5.41676,100.3302],[5.41667,100.33046],[5.41656,100.33063],[5.41609,100.331],[5.4155,100.33155],[5.41488,100.33204],[5.41456,100.33227],[5.41409,100.33263],[5.41358,100.33251],[5.41336,100.33238],[5.41303,100.33222],[5.41269,100.332],[5.41257,100.33185],[5.41258,100.33176]],"tripIds":["260327038000S7","260327031103S10","260327028001S12","260327018001S12","260327018001S11","260327018001S2","260327018000S8","260327011103S13","260327011103S7","260327038001S4","260327038000S12","260327038000S9","260327031103S9","260327031103S7","260327028001S10","260327028001S5","260327028001S3","260327028000S11","260327028000S9","260327028000S5","260327028000S3","260327021103S8","260327021103S2","260327018001S13","260327018001S4","260327018000S11","260327018000S9","260327018000S2","260327011103S8","260327011103S2","260327038001S9","260327038001S3","260327038000S10","260327038000S8","260327031103S13","260327028001S7","260327028001S6","260327028000S8","260327028000S4","260327021103S13","260327021103S12","260327021103S9","260327021103S3","260327018001S5","260327018000S10","260327018000S7","260327011103S6","260327038001S12","260327038001S10","260327038001S7","260327038001S5","260327031103S12","260327031103S4","260327028001S2","260327021103S4","260327018001S10","260327018001S9","260327018001S3","260327018000S5","260327018000S3","260327011103S11","260327038001S13","260327038001S2","260327028000S13","260327028000S2","260327021103S11","260327021103S7","260327021103S6","260327011103S10","260327011103S5","260327038000S2","260327031103S5","260327028001S11","260327028000S7","260327018001S8","260327018001S7","260327018000S12","260327018000S6","260327038001S11","260327038001S6","260327038000S6","260327038000S4","260327038000S3","260327031103S8","260327031103S2","260327028001S8","260327028000S12","260327028000S10","260327021103S10","260327021103S5","260327018001S6","260327011103S3","260327038001S8","260327038000S13","260327038000S11","260327038000S5","260327031103S11","260327031103S6","260327031103S3","260327028001S13","260327028001S9","260327028001S4","260327028000S6","260327018000S13","260327018000S4","260327011103S12","260327011103S9","260327011103S4"],"oppositeTripIds":[],"firstDeparture":"06:00","lastDeparture":"20:00","tripCount":108}