{"routeId":"30000009","shortName":"206","directionId":1,"headsign":"TESCO - JETI","stops":[{"stopId":"12001887","stopName":"(M1) Tesco Tunku Kudin","stopCode":"IIH1887","lat":5.37723,"lon":100.31506,"sequence":1},{"stopId":"12001458","stopName":"(M2) RECSAM","stopCode":"IGR1458","lat":5.37593,"lon":100.3084,"sequence":2},{"stopId":"12001456","stopName":"Astaka Gelugor","stopCode":"IGR1456","lat":5.37239,"lon":100.30944,"sequence":3},{"stopId":"12002243","stopName":"Anggerik Villa","stopCode":"I0G0015","lat":5.3686,"lon":100.3084,"sequence":4},{"stopId":"12000016","stopName":"Astaka Taman Tun Sardon","stopCode":"I0G0016","lat":5.36909,"lon":100.30492,"sequence":5},{"stopId":"12000018","stopName":"Flat Taman Tun Sardon","stopCode":"I0G0018","lat":5.37152,"lon":100.30283,"sequence":6},{"stopId":"12000022","stopName":"Dewan JKKK","stopCode":"I0G0022","lat":5.37275,"lon":100.30267,"sequence":7},{"stopId":"12000809","stopName":"Perumahan Kastam","stopCode":"IDE0809","lat":5.37408,"lon":100.30198,"sequence":8},{"stopId":"12000313","stopName":"SK Bukit Gelugor","stopCode":"IAR0313","lat":5.37685,"lon":100.30202,"sequence":9},{"stopId":"12000466","stopName":"Jalan Delima","stopCode":"IBG0466","lat":5.38019,"lon":100.30267,"sequence":10},{"stopId":"12000465","stopName":"Jalan Delima 2","stopCode":"IBG0465","lat":5.38001,"lon":100.30061,"sequence":11},{"stopId":"12000467","stopName":"Jalan Delima 3","stopCode":"IBG0467","lat":5.3814,"lon":100.29879,"sequence":12},{"stopId":"12002244","stopName":"Jalan Delima 4","stopCode":"IKY2504","lat":5.38308,"lon":100.2996,"sequence":13},{"stopId":"12000468","stopName":"Jalan Delima 5","stopCode":"IBG0468","lat":5.38354,"lon":100.30242,"sequence":14},{"stopId":"12002245","stopName":"Jalan Delima 6","stopCode":"IKY2505","lat":5.38378,"lon":100.3046,"sequence":15},{"stopId":"12000860","stopName":"Shell Green Lane","stopCode":"IDS0860","lat":5.38559,"lon":100.30514,"sequence":16},{"stopId":"12000864","stopName":"Persatuan Kanak-Kanak Sepastik","stopCode":"IDS0864","lat":5.3891,"lon":100.30325,"sequence":17},{"stopId":"12000866","stopName":"Hospital Lam Wah Ee","stopCode":"IDS0866","lat":5.39285,"lon":100.3026,"sequence":18},{"stopId":"12000286","stopName":"Jalan Besi I","stopCode":"IAN0286","lat":5.3949,"lon":100.30194,"sequence":19},{"stopId":"12000285","stopName":"Apartmen Green Lane Height","stopCode":"IAN0285","lat":5.39361,"lon":100.29983,"sequence":20},{"stopId":"12002221","stopName":"Jalan Besi II","stopCode":"IKY2109","lat":5.39201,"lon":100.29974,"sequence":21},{"stopId":"12001798","stopName":"Jalan Tembaga","stopCode":"IHS1798","lat":5.38924,"lon":100.29984,"sequence":22},{"stopId":"12002241","stopName":"Jalan Tembaga II","stopCode":"IKY2502","lat":5.38941,"lon":100.3014,"sequence":23},{"stopId":"12001960","stopName":"(M2) Pasar Batu Lanchang I","stopCode":"IJG1960","lat":5.38943,"lon":100.30688,"sequence":24},{"stopId":"12002002","stopName":"Pasar Batu Lanchang II","stopCode":"IJP2002","lat":5.39051,"lon":100.30661,"sequence":25},{"stopId":"12001641","stopName":"(M3) Flat Bata Merah","stopCode":"IHH1641","lat":5.39265,"lon":100.30711,"sequence":26},{"stopId":"12002246","stopName":"Jalan Sir Ibrahim I","stopCode":"IKY2506","lat":5.39545,"lon":100.3087,"sequence":27},{"stopId":"12002247","stopName":"Jalan Sir Ibrahim II","stopCode":"IGL1391","lat":5.39704,"lon":100.3091,"sequence":28},{"stopId":"12000536","stopName":"SMJK Heng Ee","stopCode":"IBR0536","lat":5.40039,"lon":100.30877,"sequence":29},{"stopId":"12002222","stopName":"Taman Free School","stopCode":"IKY2110","lat":5.40456,"lon":100.30861,"sequence":30},{"stopId":"12000933","stopName":"Flat Seri Hussain","stopCode":"IEE0933","lat":5.40639,"lon":100.30955,"sequence":31},{"stopId":"12002248","stopName":"Jalan P.Ramlee I","stopCode":"IKY2507","lat":5.40678,"lon":100.3115,"sequence":32},{"stopId":"12000934","stopName":"SMK Abdullah Munshi","stopCode":"IEE0934","lat":5.40854,"lon":100.31325,"sequence":33},{"stopId":"12000935","stopName":"Rumah P.Ramlee","stopCode":"IEE0935","lat":5.40966,"lon":100.31549,"sequence":34},{"stopId":"12001588","stopName":"Penang Japanese School","stopCode":"IHA1588","lat":5.40843,"lon":100.3176,"sequence":35},{"stopId":"12001587","stopName":"JKP Sungai Pinang","stopCode":"IHA1587","lat":5.40643,"lon":100.31944,"sequence":36},{"stopId":"12000991","stopName":"Apartmen Taman Seri Petani","stopCode":"IEO0991","lat":5.40585,"lon":100.32143,"sequence":37},{"stopId":"12000993","stopName":"Jalan Patani.","stopCode":"IEO0993","lat":5.40974,"lon":100.32274,"sequence":38},{"stopId":"12000453","stopName":"Pasar Jalan Kuantan","stopCode":"IBF0453","lat":5.41278,"lon":100.32437,"sequence":39},{"stopId":"12000459","stopName":"Penang Times Square","stopCode":"IBF0459","lat":5.41332,"lon":100.3262,"sequence":40},{"stopId":"12000462","stopName":"Pasaraya Gama","stopCode":"IBF0462","lat":5.41384,"lon":100.32789,"sequence":41},{"stopId":"12001060","stopName":"Komtar Utara","stopCode":"IEV1060","lat":5.41513,"lon":100.32899,"sequence":42},{"stopId":"12001832","stopName":"Wisma MCA","stopCode":"IIC1832","lat":5.41841,"lon":100.32954,"sequence":43},{"stopId":"12001835","stopName":"Transfer Road","stopCode":"IIC1835","lat":5.42088,"lon":100.33061,"sequence":44},{"stopId":"12001399","stopName":"Pejabat Maritim","stopCode":"IGN1399","lat":5.42175,"lon":100.33142,"sequence":45},{"stopId":"12001397","stopName":"Sri Bahari","stopCode":"IGN1397","lat":5.42089,"lon":100.33248,"sequence":46},{"stopId":"12001921","stopName":"H.S. Sam Book Store","stopCode":"IIP1921","lat":5.41933,"lon":100.33411,"sequence":47},{"stopId":"12001919","stopName":"Love Lane","stopCode":"IIP1919","lat":5.41834,"lon":100.3364,"sequence":48},{"stopId":"12001917","stopName":"Little India","stopCode":"IIP1917","lat":5.41647,"lon":100.33854,"sequence":49},{"stopId":"12002318","stopName":"Container Hotel","stopCode":"ICT0052","lat":5.4142,"lon":100.34045,"sequence":50},{"stopId":"12002056","stopName":"Jejantas Terminal Feri","stopCode":"IKI2056","lat":5.41452,"lon":100.34187,"sequence":51},{"stopId":"12002058","stopName":"Pejabat Pos Besar P.Pinang","stopCode":"IKI2058","lat":5.41721,"lon":100.34428,"sequence":52},{"stopId":"12002971","stopName":"Pejabat Pos Besar P.Pinang 1","stopCode":"IIR1926","lat":5.41802,"lon":100.34369,"sequence":53},{"stopId":"12001943","stopName":"Balai Polis","stopCode":"IIZ1943","lat":5.41865,"lon":100.34356,"sequence":54},{"stopId":"12002972","stopName":"Swettenham Pier Cruise Terminal","stopCode":"IIR1927","lat":5.4185,"lon":100.34508,"sequence":55},{"stopId":"12002057","stopName":"Church Street Pier","stopCode":"IKI2057","lat":5.41664,"lon":100.34413,"sequence":56},{"stopId":"12002114","stopName":"(M1) JETTY B","stopCode":"IKI2053","lat":5.41379,"lon":100.34178,"sequence":57}],"shape":[[5.3777,100.31373],[5.37753,100.31381],[5.3774,100.31396],[5.37734,100.31412],[5.37732,100.31441],[5.37732,100.31462],[5.37728,100.31486],[5.37708,100.31533],[5.3769,100.31586],[5.37684,100.31605],[5.37689,100.31615],[5.377,100.31622],[5.37788,100.3164],[5.37802,100.31639],[5.37811,100.31641],[5.37813,100.31646],[5.3788,100.3162],[5.37901,100.31597],[5.37919,100.31551],[5.37981,100.31245],[5.37987,100.31203],[5.37988,100.31159],[5.37986,100.31096],[5.37977,100.30968],[5.37977,100.30936],[5.37984,100.30891],[5.37995,100.30846],[5.37993,100.30833],[5.37993,100.30815],[5.3798,100.30807],[5.37967,100.30806],[5.37899,100.30807],[5.37855,100.30809],[5.37841,100.30806],[5.37832,100.30801],[5.37733,100.30808],[5.37683,100.30815],[5.37613,100.3083],[5.37526,100.30849],[5.37436,100.30869],[5.37359,100.3089],[5.3731,100.30907],[5.3724,100.30941],[5.37149,100.3099],[5.37087,100.31009],[5.37037,100.31016],[5.36932,100.31019],[5.36872,100.31025],[5.3687,100.31009],[5.36865,100.30992],[5.36867,100.3096],[5.36867,100.30929],[5.36865,100.3088],[5.36865,100.30854],[5.36846,100.30786],[5.36842,100.30763],[5.36842,100.30742],[5.36845,100.30724],[5.36854,100.30693],[5.36879,100.30621],[5.369,100.30549],[5.36907,100.3051],[5.36911,100.30482],[5.36919,100.30433],[5.36921,100.30417],[5.36925,100.30405],[5.36934,100.30399],[5.36947,100.30396],[5.36996,100.30392],[5.3703,100.30386],[5.37043,100.30379],[5.37129,100.30306],[5.37202,100.3024],[5.37222,100.30223],[5.37248,100.3025],[5.37281,100.30272],[5.37325,100.30287],[5.3737,100.30294],[5.37375,100.30269],[5.37415,100.30181],[5.3744,100.30133],[5.37483,100.30069],[5.37503,100.30105],[5.37521,100.30128],[5.37545,100.30144],[5.37623,100.30184],[5.37793,100.30248],[5.37866,100.30278],[5.37994,100.3034],[5.38012,100.30298],[5.38015,100.30293],[5.38013,100.30227],[5.38012,100.30196],[5.38006,100.30125],[5.3799,100.30024],[5.37982,100.29966],[5.37982,100.29953],[5.37983,100.29943],[5.37988,100.29921],[5.38002,100.29901],[5.38029,100.29878],[5.3805,100.29871],[5.38071,100.29869],[5.3811,100.29873],[5.3814,100.29878],[5.38179,100.29882],[5.38194,100.29883],[5.38232,100.29888],[5.38268,100.29897],[5.38276,100.29901],[5.38293,100.29914],[5.38308,100.29934],[5.38314,100.29943],[5.38323,100.29978],[5.38336,100.30034],[5.38348,100.30187],[5.38349,100.30209],[5.38356,100.30294],[5.38363,100.30378],[5.38372,100.3043],[5.38382,100.30474],[5.38384,100.30491],[5.3839,100.30504],[5.38397,100.30514],[5.38419,100.30568],[5.38427,100.30572],[5.38436,100.30574],[5.38518,100.3054],[5.38624,100.30488],[5.38726,100.30437],[5.38811,100.30388],[5.38909,100.30337],[5.39005,100.30288],[5.39101,100.30253],[5.39131,100.30246],[5.39164,100.30243],[5.39183,100.30246],[5.39294,100.3027],[5.39411,100.30294],[5.39475,100.30307],[5.39474,100.303],[5.39474,100.30295],[5.39476,100.30292],[5.39475,100.30284],[5.39479,100.30239],[5.39499,100.30129],[5.39512,100.30016],[5.39509,100.30007],[5.39504,100.30004],[5.3948,100.30002],[5.39419,100.29995],[5.39306,100.29982],[5.39277,100.29976],[5.39216,100.29973],[5.39178,100.29969],[5.3899,100.29951],[5.38971,100.29948],[5.38931,100.29942],[5.38921,100.30029],[5.38923,100.30085],[5.3894,100.30156],[5.38995,100.30279],[5.38998,100.30285],[5.38999,100.30289],[5.39004,100.303],[5.38963,100.30323],[5.38888,100.30364],[5.38822,100.304],[5.3881,100.30403],[5.38767,100.30434],[5.38763,100.3044],[5.38754,100.30455],[5.38755,100.30465],[5.38763,100.3049],[5.38767,100.30499],[5.38786,100.30517],[5.38833,100.30573],[5.38842,100.30581],[5.38882,100.30625],[5.38924,100.30667],[5.38927,100.30669],[5.38946,100.30694],[5.38957,100.30709],[5.38972,100.3072],[5.39032,100.30671],[5.39066,100.30654],[5.39077,100.3065],[5.39146,100.30654],[5.39202,100.30661],[5.39236,100.30663],[5.39259,100.30666],[5.39258,100.30704],[5.3925,100.30738],[5.39248,100.30782],[5.39288,100.30795],[5.39328,100.30811],[5.39352,100.30816],[5.39412,100.30834],[5.39452,100.30845],[5.3954,100.30873],[5.39564,100.30878],[5.39582,100.30883],[5.3964,100.30901],[5.39683,100.30915],[5.39735,100.3093],[5.39736,100.3093],[5.39773,100.30951],[5.39832,100.30986],[5.3985,100.30961],[5.39878,100.30916],[5.399,100.30883],[5.39913,100.30845],[5.39943,100.30855],[5.39991,100.30865],[5.40077,100.30884],[5.40152,100.30898],[5.40242,100.30902],[5.4025,100.30906],[5.40256,100.30893],[5.40266,100.30887],[5.40274,100.30888],[5.40285,100.30894],[5.40289,100.30903],[5.40305,100.30897],[5.40386,100.30882],[5.40492,100.30864],[5.40536,100.30862],[5.40585,100.30866],[5.40626,100.30874],[5.40638,100.30879],[5.40646,100.30876],[5.4065,100.30881],[5.40643,100.30888],[5.40641,100.30928],[5.40629,100.31066],[5.40636,100.31082],[5.40658,100.31128],[5.40717,100.31221],[5.40774,100.31268],[5.40943,100.31393],[5.40972,100.3142],[5.40972,100.31452],[5.4096,100.31602],[5.40959,100.31632],[5.40947,100.31659],[5.40919,100.31689],[5.40846,100.31756],[5.40736,100.31854],[5.40507,100.3207],[5.40569,100.32129],[5.40605,100.32163],[5.40674,100.32231],[5.40708,100.32265],[5.40741,100.32285],[5.40764,100.32286],[5.40839,100.32282],[5.40943,100.32277],[5.41046,100.32272],[5.41184,100.32272],[5.41202,100.32274],[5.41214,100.32277],[5.41209,100.32317],[5.41215,100.32352],[5.4123,100.32371],[5.41262,100.32409],[5.41284,100.32459],[5.41314,100.32538],[5.41333,100.32624],[5.41361,100.3273],[5.41391,100.32795],[5.41409,100.32849],[5.41414,100.32854],[5.41431,100.32877],[5.41446,100.32886],[5.41545,100.32919],[5.41564,100.32928],[5.4162,100.32945],[5.41667,100.32989],[5.41683,100.32992],[5.41696,100.32986],[5.41698,100.32976],[5.41745,100.32922],[5.41766,100.32902],[5.41795,100.32931],[5.41822,100.32947],[5.41866,100.32968],[5.41941,100.33002],[5.42004,100.33027],[5.42151,100.33089],[5.42196,100.3311],[5.42182,100.33131],[5.42168,100.33156],[5.42129,100.33197],[5.42076,100.33267],[5.42064,100.33285],[5.42054,100.33287],[5.42049,100.33292],[5.42025,100.33269],[5.42004,100.33276],[5.41989,100.33285],[5.41982,100.33306],[5.41958,100.33359],[5.41939,100.33399],[5.41927,100.33431],[5.41911,100.33463],[5.41882,100.33537],[5.41847,100.33611],[5.41828,100.33649],[5.41798,100.33694],[5.41764,100.33731],[5.41709,100.33794],[5.41685,100.33817],[5.41666,100.33837],[5.4163,100.33872],[5.4158,100.3392],[5.41547,100.33953],[5.41543,100.33962],[5.41537,100.33961],[5.41489,100.33998],[5.41444,100.3403],[5.41382,100.34073],[5.41372,100.34077],[5.41386,100.34108],[5.41435,100.3417],[5.41512,100.34262],[5.41584,100.34353],[5.41618,100.34377],[5.41719,100.34428],[5.41745,100.34441],[5.4178,100.34401],[5.41794,100.34387],[5.41818,100.34363],[5.41832,100.34349],[5.41842,100.34338],[5.41845,100.34338],[5.41869,100.34363],[5.41876,100.34371],[5.41886,100.34375],[5.41897,100.34385],[5.41912,100.34393],[5.41929,100.34391],[5.41937,100.344],[5.41937,100.34414],[5.41924,100.34422],[5.41918,100.34424],[5.41877,100.34486],[5.41856,100.34502],[5.41835,100.345],[5.41753,100.34456],[5.41666,100.34413],[5.41604,100.34382],[5.41578,100.34359],[5.41541,100.34312],[5.41484,100.34243],[5.41472,100.34232],[5.41428,100.34176],[5.41421,100.34167],[5.41415,100.34166],[5.4139,100.34182],[5.4138,100.34169],[5.41373,100.3416],[5.41386,100.34147],[5.41393,100.34137],[5.41391,100.34129]]}