{"routeId":"30000004","shortName":"104","directionId":0,"headsign":"TG.BUNGAH-KOMTAR","stops":[{"stopId":"12001668","stopName":"Menara Asas","stopCode":"IHJ1668","lat":5.46519,"lon":100.28331,"sequence":1},{"stopId":"12001669","stopName":"Pejabat Pos Tg.Bungah","stopCode":"IHJ1669","lat":5.46527,"lon":100.28159,"sequence":2},{"stopId":"12000817","stopName":"Kondominium Azuria","stopCode":"IDF0817","lat":5.46375,"lon":100.28027,"sequence":3},{"stopId":"12000815","stopName":"SK Tanjung Bunga","stopCode":"IDF0815","lat":5.46169,"lon":100.2798,"sequence":4},{"stopId":"12000814","stopName":"Sekolah Kebangsaan Pendidikan Khas","stopCode":"IDF0814","lat":5.45905,"lon":100.28022,"sequence":5},{"stopId":"12000812","stopName":"Tenby School","stopCode":"IDF0812","lat":5.45863,"lon":100.28201,"sequence":6},{"stopId":"12002015","stopName":"Flat Boon Siew","stopCode":"IJT2015","lat":5.45615,"lon":100.28251,"sequence":7},{"stopId":"12002029","stopName":"TAR Kolej I","stopCode":"IJZ2029","lat":5.45398,"lon":100.28435,"sequence":8},{"stopId":"12002030","stopName":"TAR Kolej II","stopCode":"IJZ2030","lat":5.4536,"lon":100.28648,"sequence":9},{"stopId":"12002031","stopName":"Lorong Lembah Permai 3","stopCode":"IJZ2031","lat":5.45452,"lon":100.28829,"sequence":10},{"stopId":"12002219","stopName":"Lembah Permai","stopCode":"IKY2107","lat":5.45746,"lon":100.28921,"sequence":11},{"stopId":"12000080","stopName":"Sekolah Ikthisas Tentera Udara","stopCode":"I0S0080","lat":5.45865,"lon":100.28951,"sequence":12},{"stopId":"12000826","stopName":"Pasar Mini","stopCode":"IDI0826","lat":5.46216,"lon":100.28994,"sequence":13},{"stopId":"12001563","stopName":"Petron Jalan Sungai Kelian","stopCode":"IGY1563","lat":5.46493,"lon":100.2915,"sequence":14},{"stopId":"12001667","stopName":"Penang Swimming Club","stopCode":"IHJ1667","lat":5.46487,"lon":100.29629,"sequence":15},{"stopId":"12001664","stopName":"Mercure Penang Beach Hotel","stopCode":"IHJ1664","lat":5.46386,"lon":100.30121,"sequence":16},{"stopId":"12000481","stopName":"Jalan Gajah I","stopCode":"IBL0481","lat":5.46238,"lon":100.30381,"sequence":17},{"stopId":"12000480","stopName":"Jalan Gajah II","stopCode":"IBL0480","lat":5.45985,"lon":100.30281,"sequence":18},{"stopId":"12000288","stopName":"Jalan Bintang","stopCode":"IAP0288","lat":5.45703,"lon":100.30225,"sequence":19},{"stopId":"12000478","stopName":"Jalan Evergreen","stopCode":"IBJ0478","lat":5.4533,"lon":100.30272,"sequence":20},{"stopId":"12000807","stopName":"Pepper Estate","stopCode":"IDC0807","lat":5.45461,"lon":100.29941,"sequence":21},{"stopId":"12000901","stopName":"Kompleks Institut Pendidikan","stopCode":"IDX0901","lat":5.45032,"lon":100.30222,"sequence":22},{"stopId":"12000899","stopName":"Pusat Penjagaan Kanak - Kanak","stopCode":"IDX0899","lat":5.44589,"lon":100.30257,"sequence":23},{"stopId":"12000898","stopName":"Hong Seng Estate","stopCode":"IDX0898","lat":5.44099,"lon":100.30308,"sequence":24},{"stopId":"12000895","stopName":"Chinese Cemetery","stopCode":"IDX0895","lat":5.4371,"lon":100.30277,"sequence":25},{"stopId":"12000371","stopName":"(M1) Hospital Adventist","stopCode":"IAX0371","lat":5.43375,"lon":100.30376,"sequence":26},{"stopId":"12000369","stopName":"Midlands One Stop Centre","stopCode":"IAX0369","lat":5.43289,"lon":100.30629,"sequence":27},{"stopId":"12000368","stopName":"SMK/SK Convent Pulau Tikus","stopCode":"IAX0368","lat":5.43267,"lon":100.30824,"sequence":28},{"stopId":"12000367","stopName":"Belissa Row","stopCode":"IAX0367","lat":5.43251,"lon":100.31017,"sequence":29},{"stopId":"12000365","stopName":"Hardware Pulau Tikus","stopCode":"IAX0365","lat":5.43024,"lon":100.31296,"sequence":30},{"stopId":"12000363","stopName":"Premier Centre","stopCode":"IAX0363","lat":5.42833,"lon":100.31481,"sequence":31},{"stopId":"12000362","stopName":"Sokka Gakai","stopCode":"IAX0362","lat":5.42736,"lon":100.31622,"sequence":32},{"stopId":"12000361","stopName":"Kolej MSU","stopCode":"IAX0361","lat":5.42648,"lon":100.31749,"sequence":33},{"stopId":"12000970","stopName":"Gleneagles I","stopCode":"IEL0970","lat":5.42659,"lon":100.31886,"sequence":34},{"stopId":"12002220","stopName":"Northam Hotel","stopCode":"IKY2108","lat":5.42727,"lon":100.32215,"sequence":35},{"stopId":"12001416","stopName":"Wawasan Open University","stopCode":"IGQ1416","lat":5.42627,"lon":100.32352,"sequence":36},{"stopId":"12001415","stopName":"Feruni","stopCode":"IGQ1415","lat":5.42541,"lon":100.32504,"sequence":37},{"stopId":"12001414","stopName":"Citibank","stopCode":"IGQ1414","lat":5.42364,"lon":100.32848,"sequence":38},{"stopId":"12001411","stopName":"Menara KWSP","stopCode":"IGQ1411","lat":5.42341,"lon":100.3304,"sequence":39},{"stopId":"12001412","stopName":"The Mansion","stopCode":"IGQ1412","lat":5.42345,"lon":100.33253,"sequence":40},{"stopId":"12001927","stopName":"Padang SMK Convent","stopCode":"IIS1927","lat":5.42121,"lon":100.33756,"sequence":41},{"stopId":"12001926","stopName":"Muzium Pulau Pinang","stopCode":"IIS1926","lat":5.42045,"lon":100.3391,"sequence":42},{"stopId":"12001928","stopName":"SMK ST. Xavier","stopCode":"IIS1928","lat":5.42126,"lon":100.33701,"sequence":43},{"stopId":"12001066","stopName":"Hotel Cititel","stopCode":"IEV1066","lat":5.42143,"lon":100.3337,"sequence":44},{"stopId":"12001064","stopName":"Penang Road","stopCode":"IEV1064","lat":5.41925,"lon":100.33199,"sequence":45},{"stopId":"12001061","stopName":"Pasar Chowrasta","stopCode":"IEV1061","lat":5.41813,"lon":100.33125,"sequence":46},{"stopId":"12001937","stopName":"Komtar","stopCode":"IIV1937","lat":5.41378,"lon":100.33094,"sequence":47},{"stopId":"12002988","stopName":"(M1) Hub Lebuh Carnavon","stopCode":"IIL1950","lat":5.41262,"lon":100.332,"sequence":48}],"shape":[[5.46488,100.28446],[5.46488,100.2846],[5.46483,100.28462],[5.46461,100.28464],[5.46455,100.28464],[5.46454,100.28446],[5.46492,100.28441],[5.46533,100.28437],[5.46537,100.28439],[5.46532,100.28406],[5.46531,100.28376],[5.4653,100.28301],[5.46527,100.2818],[5.46532,100.28142],[5.46538,100.28101],[5.46547,100.28072],[5.46538,100.28074],[5.46455,100.28054],[5.46395,100.28037],[5.46295,100.28012],[5.46239,100.27999],[5.46123,100.27967],[5.46055,100.27949],[5.45966,100.27926],[5.45951,100.27925],[5.4594,100.2793],[5.4593,100.2794],[5.45923,100.27951],[5.4587,100.2816],[5.4584,100.28296],[5.45832,100.28295],[5.45681,100.28262],[5.45574,100.28241],[5.45446,100.28214],[5.45443,100.28214],[5.45433,100.28217],[5.45429,100.2822],[5.45428,100.28226],[5.45395,100.28428],[5.45358,100.28637],[5.45357,100.28667],[5.45343,100.28734],[5.45338,100.2876],[5.45338,100.28777],[5.45344,100.28796],[5.45363,100.2882],[5.4538,100.28828],[5.45399,100.28832],[5.4547,100.28837],[5.45688,100.28847],[5.45751,100.28849],[5.45742,100.28969],[5.45754,100.28975],[5.45772,100.28979],[5.45796,100.28982],[5.45822,100.28979],[5.45844,100.28971],[5.45913,100.28915],[5.45933,100.28899],[5.45961,100.28885],[5.45994,100.28879],[5.46,100.28879],[5.46009,100.28897],[5.46027,100.28934],[5.46045,100.2896],[5.4607,100.28981],[5.46086,100.28986],[5.46165,100.28993],[5.46316,100.29006],[5.46342,100.29001],[5.46402,100.28974],[5.46481,100.29144],[5.46493,100.29171],[5.46503,100.29185],[5.46514,100.29207],[5.46535,100.29216],[5.46548,100.2922],[5.46561,100.29224],[5.46522,100.29359],[5.46509,100.29396],[5.46499,100.29447],[5.46495,100.29511],[5.46489,100.29614],[5.46485,100.29641],[5.46465,100.29719],[5.46466,100.29745],[5.46468,100.29775],[5.46457,100.29846],[5.4646,100.299],[5.46464,100.29946],[5.4646,100.29975],[5.46445,100.3001],[5.46386,100.30121],[5.46344,100.30209],[5.46343,100.30219],[5.46319,100.30276],[5.46304,100.30337],[5.46298,100.30357],[5.46291,100.30385],[5.46289,100.30392],[5.46276,100.30389],[5.46265,100.30391],[5.46187,100.30374],[5.46111,100.30342],[5.46061,100.30316],[5.46025,100.30302],[5.46002,100.30289],[5.45969,100.30276],[5.45951,100.30271],[5.45906,100.30266],[5.45882,100.30264],[5.45855,100.30263],[5.45816,100.3027],[5.45803,100.30273],[5.45772,100.30288],[5.45746,100.3022],[5.45733,100.30222],[5.45633,100.30246],[5.45623,100.30204],[5.45583,100.30214],[5.45504,100.30232],[5.45486,100.30237],[5.45407,100.30231],[5.45399,100.30231],[5.45335,100.30272],[5.45276,100.30311],[5.45267,100.30313],[5.45255,100.30311],[5.45241,100.30306],[5.45252,100.30269],[5.45253,100.30244],[5.45247,100.30202],[5.45251,100.30194],[5.45316,100.30143],[5.45352,100.30106],[5.4543,100.3004],[5.45435,100.30011],[5.45449,100.29984],[5.45456,100.29963],[5.45462,100.29933],[5.45465,100.29931],[5.45466,100.29938],[5.45463,100.2995],[5.4546,100.29959],[5.45455,100.2998],[5.45447,100.29996],[5.45435,100.30011],[5.45445,100.30014],[5.45441,100.30034],[5.45433,100.30049],[5.45365,100.30103],[5.45327,100.30142],[5.45305,100.30162],[5.45274,100.30186],[5.45247,100.30202],[5.45215,100.30216],[5.4519,100.30223],[5.45105,100.3022],[5.45003,100.30221],[5.44973,100.30222],[5.44928,100.30219],[5.44829,100.30216],[5.44789,100.30216],[5.44691,100.30232],[5.44635,100.30245],[5.44545,100.3027],[5.44533,100.30274],[5.44474,100.30278],[5.44332,100.3029],[5.44228,100.30302],[5.44104,100.30306],[5.44011,100.30301],[5.43895,100.30291],[5.43786,100.3028],[5.43713,100.30277],[5.43661,100.30284],[5.43574,100.30303],[5.43491,100.30321],[5.43433,100.30334],[5.43389,100.30357],[5.43345,100.30414],[5.43329,100.30437],[5.43303,100.30478],[5.43286,100.30595],[5.43268,100.30704],[5.43262,100.3078],[5.4326,100.30818],[5.4326,100.30884],[5.43257,100.30937],[5.43257,100.30947],[5.43248,100.31014],[5.43239,100.31048],[5.43225,100.3108],[5.43204,100.31123],[5.43163,100.31184],[5.43122,100.31221],[5.43038,100.31288],[5.43003,100.31314],[5.42997,100.31318],[5.4295,100.31357],[5.42897,100.314],[5.42887,100.31413],[5.42872,100.31431],[5.42845,100.31468],[5.4282,100.31501],[5.42803,100.31526],[5.42747,100.31607],[5.42705,100.31664],[5.42689,100.31686],[5.42665,100.31717],[5.42602,100.3181],[5.42599,100.31825],[5.42604,100.3184],[5.42678,100.3191],[5.42742,100.31968],[5.42765,100.31987],[5.4281,100.32026],[5.42822,100.32045],[5.42826,100.32062],[5.42828,100.32075],[5.42795,100.32118],[5.42738,100.32189],[5.42695,100.32249],[5.42644,100.32319],[5.42592,100.32404],[5.42537,100.32504],[5.42532,100.32522],[5.42498,100.32573],[5.42453,100.32644],[5.42421,100.32694],[5.42411,100.32715],[5.42393,100.32744],[5.42379,100.32787],[5.42371,100.32812],[5.42359,100.32884],[5.42342,100.33009],[5.42336,100.3305],[5.42336,100.3308],[5.42353,100.33149],[5.42355,100.33164],[5.42355,100.33196],[5.42336,100.33294],[5.42342,100.33314],[5.42349,100.33326],[5.42358,100.33345],[5.4236,100.3336],[5.42325,100.33501],[5.42304,100.33588],[5.42279,100.33618],[5.42248,100.33638],[5.42203,100.33662],[5.42167,100.33691],[5.42148,100.3371],[5.42131,100.33736],[5.42099,100.33812],[5.42104,100.33835],[5.42112,100.3385],[5.42129,100.33869],[5.42135,100.33887],[5.42093,100.33996],[5.42083,100.34025],[5.42062,100.34023],[5.42023,100.33999],[5.42016,100.33985],[5.42013,100.33973],[5.42047,100.33911],[5.42074,100.33847],[5.4209,100.33804],[5.42107,100.33759],[5.42127,100.3371],[5.42141,100.33607],[5.42149,100.33584],[5.42155,100.33564],[5.42165,100.33543],[5.42179,100.33518],[5.42207,100.33485],[5.42222,100.33471],[5.42219,100.33439],[5.4219,100.33412],[5.42153,100.33378],[5.42049,100.33292],[5.42025,100.33269],[5.42,100.33245],[5.41984,100.3324],[5.41945,100.33214],[5.41909,100.33185],[5.41897,100.33175],[5.41863,100.33155],[5.41847,100.33146],[5.41836,100.33139],[5.41805,100.33118],[5.41763,100.3309],[5.41725,100.33061],[5.4171,100.33044],[5.41693,100.3304],[5.41677,100.33044],[5.41656,100.33063],[5.41609,100.331],[5.4155,100.33155],[5.41488,100.33204],[5.41456,100.33227],[5.41409,100.33263],[5.41358,100.33251],[5.41336,100.33238],[5.41303,100.33222],[5.41269,100.332],[5.41257,100.33185],[5.41258,100.33176],[5.41286,100.33122],[5.41315,100.33067],[5.41357,100.33088],[5.41382,100.331],[5.41396,100.33116],[5.41467,100.33194],[5.41459,100.33223],[5.41409,100.33263],[5.41358,100.33251],[5.41336,100.33238],[5.41303,100.33222],[5.41269,100.332],[5.41257,100.33185],[5.41258,100.33176]],"tripIds":["260327010039S6","260327010038S4","260327010038S6","260327010039S12","260327020038S4","260327030038S12","260327030038S14","260327010038S8","260327010038S12","260327010039S2","260327010039S10","260327020039S4","260327020039S6","260327020039S10","260327030039S10","260327010038S10","260327010039S4","260327020038S10","260327020038S12","260327010039S8","260327030038S8","260327030039S4","260327010038S2","260327020038S6","260327020038S14","260327030038S10","260327030039S12","260327020038S2","260327020038S8","260327020039S8","260327020039S12","260327030038S2","260327030038S6","260327030039S8","260327010038S14","260327020039S2","260327030038S4","260327030039S2","260327030039S6"],"oppositeTripIds":["260327010038S5","260327010039S7","260327010039S13","260327020038S7","260327030038S7","260327030039S5","260327010038S11","260327030039S9","260327020038S11","260327020039S3","260327030038S13","260327010038S9","260327020038S5","260327020038S9","260327030038S3","260327030038S5","260327010038S3","260327010038S7","260327020039S7","260327020039S9","260327030038S11","260327030038S15","260327030039S13","260327010038S13","260327010039S3","260327020038S3","260327030038S9","260327010039S5","260327010039S9","260327020038S13","260327020039S5","260327030039S3","260327030039S7","260327010039S11","260327020039S11","260327020039S13","260327030039S11"],"firstDeparture":"05:30","lastDeparture":"21:10","tripCount":39}