{"routeId":"30000020","shortName":"401E","directionId":1,"headsign":"BLK.PULAU - JETI (EKS)","stops":[{"stopId":"12002115","stopName":"Terminal Bas Balik Pulau","stopCode":"IIG1885","lat":5.35145,"lon":100.23982,"sequence":1},{"stopId":"12000140","stopName":"Pekan Kongsi","stopCode":"I0Z0140","lat":5.35078,"lon":100.23511,"sequence":2},{"stopId":"12002313","stopName":"Pejabat Pos B.Pulau","stopCode":"ICT0019","lat":5.34926,"lon":100.23354,"sequence":3},{"stopId":"12000149","stopName":"SK Kongsi","stopCode":"I0Z0149","lat":5.34619,"lon":100.23028,"sequence":4},{"stopId":"12000147","stopName":"Taman Seri Indah","stopCode":"I0Z0147","lat":5.34338,"lon":100.22744,"sequence":5},{"stopId":"12002298","stopName":"IPD Balik Pulau","stopCode":"ICT0020","lat":5.34169,"lon":100.22559,"sequence":6},{"stopId":"12000144","stopName":"Taman Sri Genting","stopCode":"I0Z0144","lat":5.33832,"lon":100.22207,"sequence":7},{"stopId":"12000136","stopName":"SMK Pondok Upeh","stopCode":"I0Z0136","lat":5.33604,"lon":100.2197,"sequence":8},{"stopId":"12000142","stopName":"Masjid Jamek Kampung Paya","stopCode":"I0Z0142","lat":5.33486,"lon":100.21839,"sequence":9},{"stopId":"12000141","stopName":"Hub Pekan Genting","stopCode":"I0Z0141","lat":5.33336,"lon":100.21667,"sequence":10},{"stopId":"12000135","stopName":"Kolej Kemahiran Tinggi Mara Balik Pulau","stopCode":"I0Z0135","lat":5.33228,"lon":100.21707,"sequence":11},{"stopId":"12002634","stopName":"Bukit Genting","stopCode":"ICT8888","lat":5.31575,"lon":100.22621,"sequence":12},{"stopId":"12001786","stopName":"Kampung Matahari Naik","stopCode":"IHQ1786","lat":5.29946,"lon":100.23202,"sequence":13},{"stopId":"12001785","stopName":"Hentian Kampung Bukit","stopCode":"IHQ1785","lat":5.29662,"lon":100.23239,"sequence":14},{"stopId":"12001783","stopName":"Bandar Baru Teluk Kumbar","stopCode":"IHQ1783","lat":5.29402,"lon":100.23231,"sequence":15},{"stopId":"12001780","stopName":"SK Teluk Kumbar","stopCode":"IHQ1780","lat":5.29041,"lon":100.2326,"sequence":16},{"stopId":"12001776","stopName":"Hotel Grand Lexis","stopCode":"IHQ1776","lat":5.28696,"lon":100.23383,"sequence":17},{"stopId":"12001775","stopName":"Restoran Sri Anjung Ikan Bakar","stopCode":"IHQ1775","lat":5.28665,"lon":100.23472,"sequence":18},{"stopId":"12001774","stopName":"Flat Taman Emas Sungai Batu","stopCode":"IHQ1774","lat":5.28641,"lon":100.23697,"sequence":19},{"stopId":"12001773","stopName":"SMK Teluk Kumbar","stopCode":"IHQ1773","lat":5.2864,"lon":100.241,"sequence":20},{"stopId":"12001779","stopName":"Saujana Heights","stopCode":"IHQ1779","lat":5.28949,"lon":100.24884,"sequence":21},{"stopId":"12002256","stopName":"Pekan Bayan Lepas","stopCode":"IKY2517","lat":5.29463,"lon":100.25861,"sequence":22},{"stopId":"12000247","stopName":"Apartment Bayan Permai","stopCode":"IAG0247","lat":5.29562,"lon":100.26242,"sequence":23},{"stopId":"12002615","stopName":"Ideal One Resident","stopCode":"ICT1112","lat":5.30147,"lon":100.26691,"sequence":24},{"stopId":"12002616","stopName":"Ideal Summer Skye Square","stopCode":"ICT1113","lat":5.29931,"lon":100.26699,"sequence":25},{"stopId":"12001418","stopName":"The Star Publication","stopCode":"IGR1418","lat":5.29811,"lon":100.26985,"sequence":26},{"stopId":"12001419","stopName":"Chung Shan Chinese School","stopCode":"IGR1419","lat":5.29816,"lon":100.27025,"sequence":27},{"stopId":"12002211","stopName":"(M1) Lapangan Terbang Antarabangsa Pulau Pinang","stopCode":"IGR1417","lat":5.29261,"lon":100.26483,"sequence":28},{"stopId":"12001418","stopName":"The Star Publication","stopCode":"IGR1418","lat":5.29811,"lon":100.26985,"sequence":29},{"stopId":"12001422","stopName":"Sungai Tiram","stopCode":"IGR1422","lat":5.3027,"lon":100.27651,"sequence":30},{"stopId":"12001423","stopName":"Dynacraft Industries Sdn. Bhd.","stopCode":"IGR1423","lat":5.30481,"lon":100.27917,"sequence":31},{"stopId":"12001425","stopName":"B Braun","stopCode":"IGR1425","lat":5.30838,"lon":100.28226,"sequence":32},{"stopId":"12001427","stopName":"Snake Temple","stopCode":"IGR1427","lat":5.31424,"lon":100.28605,"sequence":33},{"stopId":"12001800","stopName":"Jalan Tengah","stopCode":"IHU1800","lat":5.31882,"lon":100.2873,"sequence":34},{"stopId":"12000879","stopName":"Pasaraya Giant","stopCode":"IDT0879","lat":5.32071,"lon":100.28571,"sequence":35},{"stopId":"12000882","stopName":"Masjid Bayan Baru","stopCode":"IDT0882","lat":5.32367,"lon":100.28688,"sequence":36},{"stopId":"12000885","stopName":"Sunshine Square","stopCode":"IDT0885","lat":5.3255,"lon":100.2875,"sequence":37},{"stopId":"12000847","stopName":"KFC Jalan Mahsuri","stopCode":"IDN0847","lat":5.32686,"lon":100.28667,"sequence":38},{"stopId":"12000848","stopName":"Mayang Mall","stopCode":"IDN0848","lat":5.32693,"lon":100.2843,"sequence":39},{"stopId":"12000851","stopName":"(M2) Spice","stopCode":"IDN0851","lat":5.32736,"lon":100.28051,"sequence":40},{"stopId":"12001837","stopName":"Setia Welcome Center","stopCode":"IID1837","lat":5.32963,"lon":100.27883,"sequence":41},{"stopId":"12001840","stopName":"SRJK Min Sin","stopCode":"IID1840","lat":5.33117,"lon":100.28143,"sequence":42},{"stopId":"12001842","stopName":"Bukit Jambul Golf Club","stopCode":"IID1842","lat":5.33199,"lon":100.28419,"sequence":43},{"stopId":"12001845","stopName":"Masjid Sungai Nibong Kecil","stopCode":"IID1845","lat":5.3326,"lon":100.28684,"sequence":44},{"stopId":"12001847","stopName":"Kompleks Bukit Jambul","stopCode":"IID1847","lat":5.3327,"lon":100.29074,"sequence":45},{"stopId":"12001955","stopName":"Krystal Point Corporate Park","stopCode":"IJE1955","lat":5.3307,"lon":100.299,"sequence":46},{"stopId":"12002059","stopName":"Queensbay Mall","stopCode":"IKJ2059","lat":5.33195,"lon":100.30791,"sequence":47},{"stopId":"12002062","stopName":"Bay Garden","stopCode":"IKJ2062","lat":5.33694,"lon":100.30833,"sequence":48},{"stopId":"12002066","stopName":"Putra Place","stopCode":"IKJ2066","lat":5.33992,"lon":100.30946,"sequence":49},{"stopId":"12002067","stopName":"Jeti Pulau Jerejak","stopCode":"IKJ2067","lat":5.34299,"lon":100.31129,"sequence":50},{"stopId":"12001989","stopName":"E-Park Kondominium","stopCode":"IJJ1989","lat":5.35209,"lon":100.30987,"sequence":51},{"stopId":"12001988","stopName":"Tesco Tunku Kudin","stopCode":"IJJ1988","lat":5.37429,"lon":100.31522,"sequence":52},{"stopId":"12001985","stopName":"Mutiara Height","stopCode":"IJJ1985","lat":5.3881,"lon":100.31811,"sequence":53},{"stopId":"12002111","stopName":"Flat Macullum","stopCode":"IJJ2111","lat":5.40708,"lon":100.33167,"sequence":54},{"stopId":"12000003","stopName":"Flat Lebuh Noordin","stopCode":"I0B0003","lat":5.41115,"lon":100.33395,"sequence":55},{"stopId":"12001937","stopName":"Komtar","stopCode":"IIV1937","lat":5.41378,"lon":100.33094,"sequence":56},{"stopId":"12002056","stopName":"Jejantas Terminal Feri","stopCode":"IKI2056","lat":5.41452,"lon":100.34187,"sequence":57},{"stopId":"12002058","stopName":"Pejabat Pos Besar P.Pinang","stopCode":"IKI2058","lat":5.41721,"lon":100.34428,"sequence":58},{"stopId":"12002971","stopName":"Pejabat Pos Besar P.Pinang 1","stopCode":"IIR1926","lat":5.41802,"lon":100.34369,"sequence":59},{"stopId":"12001943","stopName":"Balai Polis","stopCode":"IIZ1943","lat":5.41865,"lon":100.34356,"sequence":60},{"stopId":"12002972","stopName":"Swettenham Pier Cruise Terminal","stopCode":"IIR1927","lat":5.4185,"lon":100.34508,"sequence":61},{"stopId":"12002057","stopName":"Church Street Pier","stopCode":"IKI2057","lat":5.41664,"lon":100.34413,"sequence":62},{"stopId":"12002113","stopName":"(M1) JETTY A","stopCode":"IKI2054","lat":5.41417,"lon":100.34223,"sequence":63}],"shape":[[5.35143,100.23926],[5.35137,100.23981],[5.35138,100.24004],[5.35146,100.24012],[5.3516,100.24013],[5.35167,100.24005],[5.35168,100.23991],[5.3517,100.23953],[5.35166,100.23945],[5.35152,100.2393],[5.35143,100.23926],[5.35128,100.23917],[5.35125,100.23919],[5.35118,100.23915],[5.35106,100.23913],[5.35101,100.23805],[5.35106,100.23789],[5.35111,100.23752],[5.35125,100.23685],[5.3514,100.23638],[5.35154,100.23617],[5.35179,100.23595],[5.35183,100.23585],[5.35123,100.23541],[5.35087,100.23507],[5.35067,100.23487],[5.3498,100.23393],[5.34937,100.2335],[5.34811,100.23218],[5.34806,100.23215],[5.34741,100.23145],[5.34657,100.23054],[5.34617,100.23029],[5.34585,100.22997],[5.34548,100.2296],[5.34479,100.22886],[5.34462,100.22871],[5.34423,100.22821],[5.34376,100.22775],[5.34291,100.22684],[5.34189,100.22573],[5.34108,100.22485],[5.33995,100.22363],[5.33899,100.22266],[5.33844,100.22201],[5.3382,100.2218],[5.33681,100.22045],[5.33612,100.21972],[5.33545,100.21901],[5.33497,100.2185],[5.33407,100.21748],[5.33378,100.21727],[5.33365,100.21722],[5.33338,100.21716],[5.33297,100.21706],[5.33206,100.21696],[5.33201,100.21687],[5.33201,100.21663],[5.33222,100.21653],[5.33282,100.21605],[5.33325,100.21654],[5.33353,100.21681],[5.33355,100.21688],[5.33356,100.21695],[5.33348,100.21706],[5.33338,100.21716],[5.33297,100.21706],[5.33206,100.21696],[5.33149,100.21688],[5.33129,100.21681],[5.33109,100.2167],[5.33094,100.21663],[5.33057,100.21657],[5.33043,100.2166],[5.33027,100.21668],[5.33002,100.21689],[5.32965,100.21707],[5.32943,100.21714],[5.32901,100.21716],[5.32859,100.21718],[5.32815,100.21724],[5.32745,100.21748],[5.32733,100.21763],[5.32714,100.21793],[5.32695,100.21834],[5.32649,100.21968],[5.3264,100.21984],[5.32624,100.21999],[5.32613,100.22009],[5.32605,100.22024],[5.32605,100.22035],[5.32612,100.22066],[5.32622,100.22082],[5.32632,100.22089],[5.32641,100.22108],[5.32651,100.22146],[5.32651,100.22169],[5.3264,100.2219],[5.32602,100.22205],[5.32552,100.22236],[5.32528,100.22247],[5.32493,100.22255],[5.32408,100.22281],[5.32343,100.22303],[5.32272,100.22328],[5.32252,100.22337],[5.32207,100.22374],[5.32167,100.22412],[5.32147,100.22425],[5.32128,100.22436],[5.32074,100.22446],[5.32047,100.22455],[5.3203,100.22466],[5.32015,100.22488],[5.32008,100.22513],[5.32007,100.22531],[5.32013,100.22553],[5.32022,100.22576],[5.3203,100.22597],[5.3203,100.22627],[5.32018,100.22656],[5.32009,100.22669],[5.31998,100.22678],[5.31985,100.22685],[5.31964,100.2269],[5.31945,100.2269],[5.3192,100.22684],[5.31783,100.22612],[5.3176,100.22605],[5.31737,100.22611],[5.31665,100.22621],[5.31649,100.22623],[5.31603,100.22622],[5.31573,100.22617],[5.31542,100.22618],[5.31529,100.22619],[5.31512,100.22623],[5.31481,100.22638],[5.31452,100.22655],[5.31435,100.22656],[5.31392,100.22683],[5.31353,100.22704],[5.3131,100.2272],[5.31273,100.22732],[5.3123,100.22744],[5.31193,100.22754],[5.31159,100.22761],[5.31134,100.2277],[5.31109,100.22783],[5.3107,100.22814],[5.31031,100.22853],[5.3101,100.22865],[5.3099,100.22872],[5.30969,100.22878],[5.30942,100.22876],[5.30896,100.22868],[5.30874,100.22866],[5.30845,100.22868],[5.30827,100.22878],[5.30813,100.22892],[5.30802,100.22906],[5.30797,100.22927],[5.30797,100.22949],[5.30801,100.23014],[5.30809,100.23069],[5.3082,100.23108],[5.30876,100.23196],[5.3088,100.23205],[5.30882,100.23227],[5.30879,100.2325],[5.30875,100.23264],[5.30869,100.23275],[5.30855,100.23291],[5.30828,100.23306],[5.30801,100.23311],[5.30782,100.2331],[5.30754,100.23297],[5.30715,100.23276],[5.30686,100.23263],[5.30662,100.2326],[5.30638,100.23264],[5.30614,100.23274],[5.30555,100.23307],[5.3052,100.23327],[5.30502,100.2333],[5.30482,100.23327],[5.30456,100.23314],[5.30418,100.23285],[5.30395,100.23265],[5.3038,100.23246],[5.30367,100.23239],[5.30335,100.23239],[5.30325,100.23236],[5.30295,100.23214],[5.30279,100.23207],[5.30263,100.23207],[5.3025,100.23212],[5.30229,100.23221],[5.30211,100.23219],[5.302,100.23215],[5.30186,100.23202],[5.30172,100.23195],[5.30163,100.23192],[5.30139,100.2319],[5.30118,100.23187],[5.3009,100.2318],[5.30031,100.23172],[5.30018,100.23174],[5.29994,100.23184],[5.29938,100.23208],[5.29886,100.23235],[5.29837,100.23246],[5.29791,100.23251],[5.29738,100.23247],[5.29686,100.23242],[5.29645,100.2324],[5.29589,100.23232],[5.29566,100.2323],[5.29545,100.23229],[5.29433,100.23229],[5.29358,100.23235],[5.29227,100.23253],[5.2917,100.23257],[5.29064,100.23262],[5.29009,100.23266],[5.28971,100.23267],[5.28915,100.23245],[5.28841,100.23202],[5.28824,100.23199],[5.28817,100.23201],[5.28809,100.23206],[5.28763,100.2325],[5.28738,100.2329],[5.28713,100.23344],[5.28687,100.23405],[5.28652,100.2351],[5.2865,100.23527],[5.28654,100.23547],[5.28659,100.2356],[5.28666,100.23582],[5.2867,100.23605],[5.28667,100.23628],[5.2865,100.23674],[5.28633,100.23723],[5.28612,100.23789],[5.28601,100.23827],[5.28589,100.23863],[5.28593,100.23878],[5.28589,100.23921],[5.2859,100.23963],[5.28596,100.24001],[5.28604,100.24029],[5.28608,100.24044],[5.28612,100.24052],[5.28665,100.24132],[5.28712,100.24231],[5.28735,100.24273],[5.28745,100.24302],[5.28752,100.24333],[5.28749,100.24353],[5.28756,100.24388],[5.2876,100.24441],[5.28769,100.24479],[5.28779,100.24502],[5.28801,100.24546],[5.28815,100.24583],[5.28846,100.24658],[5.2886,100.24702],[5.28877,100.2475],[5.28889,100.24794],[5.28902,100.24827],[5.28914,100.24852],[5.28933,100.24877],[5.28956,100.24898],[5.28968,100.24911],[5.28992,100.24925],[5.29019,100.24934],[5.29092,100.24966],[5.29109,100.24976],[5.29133,100.24999],[5.29162,100.25022],[5.29189,100.25044],[5.29205,100.25054],[5.29262,100.25093],[5.29279,100.25099],[5.29312,100.25106],[5.29331,100.25115],[5.29343,100.25125],[5.29378,100.25192],[5.29384,100.25208],[5.29393,100.25256],[5.29399,100.25276],[5.29408,100.25291],[5.29417,100.25309],[5.29417,100.25334],[5.29407,100.2541],[5.294,100.25444],[5.29401,100.2546],[5.29406,100.25483],[5.29423,100.2553],[5.29431,100.25553],[5.29437,100.25586],[5.29441,100.25626],[5.29446,100.25671],[5.29438,100.25674],[5.29449,100.25687],[5.29452,100.25722],[5.29457,100.2576],[5.29462,100.258],[5.29459,100.25808],[5.29469,100.25818],[5.29468,100.25837],[5.29459,100.2585],[5.29469,100.25856],[5.29484,100.25941],[5.29481,100.2595],[5.29498,100.25998],[5.2952,100.26094],[5.29531,100.2614],[5.29544,100.26182],[5.29556,100.26228],[5.29563,100.26259],[5.29574,100.26276],[5.29609,100.26396],[5.29618,100.26402],[5.29634,100.26453],[5.2965,100.26508],[5.29658,100.26521],[5.29678,100.26539],[5.29712,100.26551],[5.29726,100.26556],[5.29744,100.26566],[5.29764,100.26583],[5.29782,100.26604],[5.29799,100.26629],[5.29812,100.26646],[5.29846,100.26664],[5.29855,100.26669],[5.29898,100.26669],[5.30065,100.26681],[5.30108,100.26684],[5.30148,100.2669],[5.30172,100.267],[5.3026,100.26755],[5.30306,100.26785],[5.30376,100.26821],[5.30397,100.26835],[5.30431,100.26856],[5.30433,100.26864],[5.30432,100.26872],[5.30423,100.26876],[5.30372,100.26838],[5.30328,100.26808],[5.30282,100.26782],[5.30226,100.26746],[5.30159,100.26707],[5.30142,100.267],[5.30123,100.26696],[5.30058,100.26692],[5.30003,100.26691],[5.29941,100.26685],[5.29889,100.2668],[5.29839,100.26682],[5.29781,100.2668],[5.29748,100.26681],[5.29732,100.26689],[5.29715,100.26695],[5.29704,100.26702],[5.29694,100.26714],[5.29691,100.26721],[5.29691,100.26729],[5.29698,100.26777],[5.29711,100.26821],[5.29737,100.26878],[5.29746,100.26896],[5.29761,100.26917],[5.29814,100.26992],[5.29846,100.2703],[5.29877,100.27067],[5.29903,100.27101],[5.29922,100.27132],[5.29935,100.27152],[5.29947,100.2716],[5.30015,100.27259],[5.30046,100.27306],[5.30054,100.27315],[5.30058,100.27328],[5.30052,100.27342],[5.3004,100.2735],[5.30024,100.27343],[5.29974,100.2727],[5.29932,100.27206],[5.29896,100.2714],[5.29887,100.27125],[5.29828,100.27042],[5.29784,100.26987],[5.29759,100.26952],[5.29747,100.2693],[5.29744,100.26918],[5.29735,100.26915],[5.29715,100.26887],[5.29695,100.26851],[5.2968,100.26807],[5.29667,100.26741],[5.29661,100.26713],[5.29647,100.26696],[5.29629,100.26683],[5.29591,100.2668],[5.29584,100.2668],[5.29518,100.26677],[5.29468,100.26671],[5.29354,100.26566],[5.29246,100.26469],[5.29206,100.26428],[5.29213,100.26414],[5.29234,100.26401],[5.29268,100.26389],[5.293,100.26412],[5.29412,100.26518],[5.29531,100.26642],[5.29558,100.26664],[5.29588,100.26674],[5.29629,100.26672],[5.2965,100.26652],[5.29683,100.26644],[5.29713,100.26665],[5.29753,100.26667],[5.2978,100.26651],[5.29786,100.26627],[5.2977,100.26602],[5.29745,100.26576],[5.29715,100.2656],[5.29693,100.26554],[5.2968,100.26557],[5.29667,100.26574],[5.29662,100.26603],[5.29688,100.26756],[5.29699,100.26805],[5.29722,100.26867],[5.29761,100.26917],[5.29814,100.26992],[5.29846,100.2703],[5.29916,100.27127],[5.2997,100.27207],[5.3008,100.27369],[5.30086,100.27382],[5.30187,100.27533],[5.3023,100.27599],[5.30276,100.27667],[5.30302,100.27705],[5.30347,100.27772],[5.30393,100.27827],[5.30488,100.27924],[5.30611,100.28048],[5.30705,100.28133],[5.30855,100.28236],[5.30948,100.28295],[5.31091,100.28389],[5.3124,100.28488],[5.31321,100.28538],[5.31404,100.28592],[5.3152,100.28649],[5.31611,100.28692],[5.31815,100.288],[5.31839,100.28811],[5.31854,100.28786],[5.31885,100.28733],[5.31918,100.28681],[5.31955,100.28602],[5.31975,100.28552],[5.31981,100.28541],[5.31993,100.28547],[5.32021,100.28559],[5.32059,100.2857],[5.32101,100.28585],[5.32137,100.286],[5.32195,100.28626],[5.32206,100.28629],[5.32308,100.28669],[5.32406,100.28703],[5.32488,100.28729],[5.32523,100.28744],[5.32562,100.28756],[5.3259,100.28761],[5.32659,100.28769],[5.32677,100.28759],[5.32688,100.28747],[5.32698,100.28562],[5.32699,100.28533],[5.32702,100.28438],[5.32703,100.28399],[5.32707,100.28316],[5.32712,100.28271],[5.32716,100.28247],[5.32721,100.28199],[5.32724,100.28176],[5.32727,100.28151],[5.32741,100.28049],[5.32745,100.28018],[5.32761,100.27938],[5.32782,100.27841],[5.32785,100.27826],[5.32786,100.27817],[5.32798,100.2782],[5.32874,100.27838],[5.32916,100.27855],[5.3294,100.27868],[5.32992,100.27905],[5.3302,100.27932],[5.33047,100.27964],[5.33063,100.27991],[5.33083,100.28038],[5.33087,100.28051],[5.33119,100.28162],[5.33129,100.28188],[5.33145,100.28242],[5.33157,100.28292],[5.33161,100.2831],[5.33168,100.28329],[5.33191,100.28413],[5.33226,100.28538],[5.33255,100.28663],[5.33273,100.28741],[5.33275,100.28766],[5.33281,100.2879],[5.33288,100.2884],[5.3329,100.2886],[5.33289,100.28872],[5.33288,100.28893],[5.33281,100.28972],[5.33279,100.29002],[5.33266,100.29084],[5.33253,100.29168],[5.33244,100.29216],[5.33233,100.29282],[5.33208,100.29395],[5.33202,100.29422],[5.33205,100.29444],[5.33212,100.29469],[5.33214,100.29481],[5.3323,100.29515],[5.33226,100.29539],[5.33217,100.29558],[5.3321,100.29567],[5.33179,100.29583],[5.33165,100.29603],[5.33149,100.29637],[5.33121,100.29731],[5.33081,100.29858],[5.33035,100.30004],[5.33028,100.30047],[5.33027,100.30077],[5.3303,100.30154],[5.33036,100.30176],[5.33039,100.30206],[5.33051,100.30265],[5.33068,100.30309],[5.3312,100.30386],[5.33136,100.30416],[5.33146,100.3044],[5.33152,100.30478],[5.33154,100.30526],[5.33152,100.30587],[5.33146,100.3062],[5.33133,100.30646],[5.33112,100.30672],[5.33084,100.30689],[5.33056,100.30695],[5.3305,100.30703],[5.33013,100.30701],[5.32984,100.30692],[5.32968,100.30692],[5.32931,100.30675],[5.32899,100.30656],[5.32875,100.30645],[5.32853,100.30638],[5.32836,100.30638],[5.32825,100.30645],[5.32814,100.3066],[5.32819,100.30671],[5.32818,100.30683],[5.32808,100.30693],[5.32831,100.3072],[5.32924,100.3078],[5.33007,100.30814],[5.33044,100.30826],[5.33103,100.30838],[5.33127,100.3084],[5.33141,100.3084],[5.3315,100.30833],[5.33157,100.30831],[5.33171,100.30821],[5.33194,100.30795],[5.33221,100.30767],[5.33238,100.30753],[5.33264,100.30736],[5.33319,100.30709],[5.3336,100.30695],[5.33395,100.30688],[5.33438,100.30686],[5.33485,100.30693],[5.33509,100.307],[5.33531,100.30711],[5.33558,100.30727],[5.33581,100.30745],[5.3361,100.30769],[5.33652,100.30802],[5.33701,100.30831],[5.33726,100.30842],[5.33768,100.30852],[5.33778,100.30845],[5.33796,100.30845],[5.33807,100.30853],[5.33813,100.3086],[5.33814,100.30866],[5.33896,100.30889],[5.33935,100.30905],[5.33972,100.3093],[5.34005,100.30967],[5.34068,100.31036],[5.34084,100.31044],[5.34153,100.3107],[5.34237,100.31101],[5.34279,100.31118],[5.34388,100.31148],[5.34417,100.31135],[5.3446,100.31019],[5.3446,100.30995],[5.34464,100.30966],[5.34461,100.30942],[5.34454,100.30919],[5.34446,100.30898],[5.34436,100.3087],[5.34436,100.3085],[5.3444,100.30836],[5.34455,100.30821],[5.34478,100.30806],[5.34499,100.30805],[5.34513,100.30809],[5.34578,100.30841],[5.34655,100.30877],[5.34676,100.30893],[5.34758,100.30927],[5.34825,100.30942],[5.34876,100.30946],[5.34953,100.30947],[5.35003,100.3095],[5.35065,100.30955],[5.3511,100.30963],[5.35249,100.31005],[5.3531,100.31026],[5.35379,100.31064],[5.35438,100.31111],[5.35564,100.31211],[5.35652,100.31278],[5.35724,100.31335],[5.35776,100.31364],[5.35803,100.31379],[5.35885,100.31405],[5.35931,100.31411],[5.36079,100.31417],[5.36113,100.31417],[5.36139,100.31415],[5.36148,100.31423],[5.36284,100.31417],[5.36327,100.31414],[5.36614,100.31403],[5.36791,100.31395],[5.36969,100.31394],[5.3711,100.31417],[5.37145,100.31425],[5.37217,100.31445],[5.37461,100.31536],[5.37545,100.3157],[5.37582,100.31588],[5.37615,100.31603],[5.37739,100.31646],[5.37876,100.31686],[5.37934,100.31699],[5.3799,100.31712],[5.38043,100.31717],[5.38063,100.31713],[5.38252,100.31667],[5.38297,100.31659],[5.38334,100.31654],[5.38421,100.31661],[5.38473,100.31675],[5.38506,100.31689],[5.386,100.3174],[5.38673,100.31761],[5.38734,100.31782],[5.38774,100.318],[5.38857,100.31832],[5.38872,100.3184],[5.38883,100.31848],[5.38908,100.31855],[5.38965,100.31887],[5.39084,100.31944],[5.39115,100.31963],[5.39122,100.31974],[5.39198,100.32023],[5.3947,100.32242],[5.39628,100.32368],[5.39703,100.32429],[5.3991,100.32623],[5.39922,100.32633],[5.40027,100.32732],[5.40126,100.328],[5.4013,100.32801],[5.40233,100.32877],[5.40282,100.32911],[5.40381,100.32968],[5.40485,100.33024],[5.40567,100.33071],[5.40624,100.33112],[5.40647,100.33127],[5.40666,100.33139],[5.40727,100.33184],[5.40768,100.33213],[5.40782,100.33226],[5.40791,100.33231],[5.40811,100.33245],[5.40885,100.33294],[5.40906,100.33314],[5.40936,100.3334],[5.40964,100.33368],[5.40975,100.33383],[5.41003,100.33417],[5.41016,100.33436],[5.41044,100.33448],[5.41135,100.33392],[5.4116,100.33372],[5.41169,100.33357],[5.41201,100.33292],[5.41241,100.33212],[5.41258,100.33176],[5.41286,100.33122],[5.41315,100.33067],[5.41357,100.33088],[5.41382,100.331],[5.41396,100.33116],[5.41467,100.33194],[5.41459,100.33223],[5.41409,100.33263],[5.41397,100.33271],[5.41383,100.33279],[5.41363,100.33293],[5.41281,100.33354],[5.41199,100.33408],[5.41123,100.33455],[5.4109,100.33471],[5.41066,100.33482],[5.41064,100.33497],[5.41061,100.33511],[5.4108,100.33549],[5.41093,100.3357],[5.4114,100.33655],[5.4121,100.33786],[5.41229,100.33822],[5.41248,100.33851],[5.41298,100.33947],[5.41312,100.33974],[5.41322,100.33992],[5.41338,100.34023],[5.41359,100.34066],[5.41372,100.34077],[5.41386,100.34108],[5.41435,100.3417],[5.41512,100.34262],[5.41584,100.34353],[5.41618,100.34377],[5.41719,100.34428],[5.41745,100.34441],[5.4178,100.34401],[5.41794,100.34387],[5.41818,100.34363],[5.41832,100.34349],[5.41842,100.34338],[5.41845,100.34338],[5.41869,100.34363],[5.41876,100.34371],[5.41886,100.34375],[5.41897,100.34385],[5.41912,100.34393],[5.41929,100.34391],[5.41937,100.344],[5.41937,100.34414],[5.41924,100.34422],[5.41918,100.34424],[5.41877,100.34486],[5.41856,100.34502],[5.41835,100.345],[5.41753,100.34456],[5.41666,100.34413],[5.41604,100.34382],[5.41578,100.34359],[5.41541,100.34312],[5.41484,100.34243],[5.41472,100.34232],[5.41433,100.34233],[5.41419,100.34216],[5.41423,100.34205],[5.41429,100.34185],[5.41429,100.34182],[5.41428,100.34176]]}