{"routeId":"30000010","shortName":"301","directionId":1,"headsign":"RELAU - JETI","stops":[{"stopId":"12001945","stopName":"Hub Relau","stopCode":"IJA1945","lat":5.3415,"lon":100.27212,"sequence":1},{"stopId":"12001010","stopName":"Apartmen Taman Bendera","stopCode":"IER1010","lat":5.33954,"lon":100.27439,"sequence":2},{"stopId":"12001005","stopName":"Flat 88","stopCode":"IER1005","lat":5.33592,"lon":100.27525,"sequence":3},{"stopId":"12001000","stopName":"Kompleks Golden Triangle","stopCode":"IER1000","lat":5.3316,"lon":100.27689,"sequence":4},{"stopId":"12000438","stopName":"Public Bank","stopCode":"IBE0438","lat":5.33075,"lon":100.27945,"sequence":5},{"stopId":"12001840","stopName":"SRJK Min Sin","stopCode":"IID1840","lat":5.33117,"lon":100.28143,"sequence":6},{"stopId":"12001842","stopName":"Bukit Jambul Golf Club","stopCode":"IID1842","lat":5.33199,"lon":100.28419,"sequence":7},{"stopId":"12001845","stopName":"Masjid Sungai Nibong Kecil","stopCode":"IID1845","lat":5.3326,"lon":100.28684,"sequence":8},{"stopId":"12001847","stopName":"Kompleks Bukit Jambul","stopCode":"IID1847","lat":5.3327,"lon":100.29074,"sequence":9},{"stopId":"12001435","stopName":"SRJK Kwang Hwa","stopCode":"IGR1435","lat":5.33615,"lon":100.29726,"sequence":10},{"stopId":"12001437","stopName":"Ayamas Sg. Nibong","stopCode":"IGR1437","lat":5.33806,"lon":100.29855,"sequence":11},{"stopId":"12001439","stopName":"Masjid Jamek Sg Nibong","stopCode":"IGR1439","lat":5.34011,"lon":100.29935,"sequence":12},{"stopId":"12001492","stopName":"Terminal Ekspress Sg Nibong","stopCode":"IGX1492","lat":5.34244,"lon":100.29952,"sequence":13},{"stopId":"12001494","stopName":"SJKC Phor Tay","stopCode":"IGX1494","lat":5.34373,"lon":100.29739,"sequence":14},{"stopId":"12001497","stopName":"SRJK Keong Hoe","stopCode":"IGX1497","lat":5.34654,"lon":100.29564,"sequence":15},{"stopId":"12001500","stopName":"Tesco Sungai Dua","stopCode":"IGX1500","lat":5.35118,"lon":100.29788,"sequence":16},{"stopId":"12001502","stopName":"Apartmen Desa Universiti","stopCode":"IGX1502","lat":5.35216,"lon":100.29911,"sequence":17},{"stopId":"12001504","stopName":"USM","stopCode":"IGX1504","lat":5.35288,"lon":100.30185,"sequence":18},{"stopId":"12001448","stopName":"Jejantas Batu Uban","stopCode":"IGR1448","lat":5.35418,"lon":100.30793,"sequence":19},{"stopId":"12001450","stopName":"Padang Bola USM","stopCode":"IGR1450","lat":5.35994,"lon":100.31049,"sequence":20},{"stopId":"12001452","stopName":"SK Sg. Gelugor","stopCode":"IGR1452","lat":5.36497,"lon":100.31097,"sequence":21},{"stopId":"12001455","stopName":"Maybank Gelugor","stopCode":"IGR1455","lat":5.36971,"lon":100.31005,"sequence":22},{"stopId":"12001457","stopName":"KTM Motor","stopCode":"IGR1457","lat":5.37278,"lon":100.30903,"sequence":23},{"stopId":"12001459","stopName":"Recsam","stopCode":"IGR1459","lat":5.37671,"lon":100.30803,"sequence":24},{"stopId":"12001958","stopName":"Lebuh Raya Gelugor I","stopCode":"IJG1958","lat":5.38604,"lon":100.30952,"sequence":25},{"stopId":"12001959","stopName":"Lebuh Raya Gelugor II","stopCode":"IJG1959","lat":5.38759,"lon":100.30667,"sequence":26},{"stopId":"12001960","stopName":"(M2) Pasar Batu Lanchang I","stopCode":"IJG1960","lat":5.38943,"lon":100.30688,"sequence":27},{"stopId":"12001640","stopName":"Balai Polis Jelutong","stopCode":"IHH1640","lat":5.3914,"lon":100.31242,"sequence":28},{"stopId":"12001069","stopName":"Asrama Munshi","stopCode":"IEX1069","lat":5.39236,"lon":100.31354,"sequence":29},{"stopId":"12001070","stopName":"Sunshine Jelutong","stopCode":"IEX1070","lat":5.3939,"lon":100.31424,"sequence":30},{"stopId":"12001071","stopName":"Old Town Café","stopCode":"IEX1071","lat":5.39527,"lon":100.31467,"sequence":31},{"stopId":"12000570","stopName":"(M2) Hong Leong Bank Jelutong","stopCode":"ICA0570","lat":5.39582,"lon":100.31751,"sequence":32},{"stopId":"12000572","stopName":"Taman Cemerlang","stopCode":"ICA0572","lat":5.39701,"lon":100.31896,"sequence":33},{"stopId":"12000575","stopName":"Maybank Jelutong","stopCode":"ICA0575","lat":5.3979,"lon":100.31989,"sequence":34},{"stopId":"12000576","stopName":"SJK(C) MOH GHEE Cawangan","stopCode":"ICA0576","lat":5.40042,"lon":100.3222,"sequence":35},{"stopId":"12001585","stopName":"Sungai Pinang","stopCode":"IHA1585","lat":5.40265,"lon":100.32297,"sequence":36},{"stopId":"12000991","stopName":"Apartmen Taman Seri Petani","stopCode":"IEO0991","lat":5.40585,"lon":100.32143,"sequence":37},{"stopId":"12000993","stopName":"Jalan Patani.","stopCode":"IEO0993","lat":5.40974,"lon":100.32274,"sequence":38},{"stopId":"12000453","stopName":"Pasar Jalan Kuantan","stopCode":"IBF0453","lat":5.41278,"lon":100.32437,"sequence":39},{"stopId":"12000459","stopName":"Penang Times Square","stopCode":"IBF0459","lat":5.41332,"lon":100.3262,"sequence":40},{"stopId":"12000462","stopName":"Pasaraya Gama","stopCode":"IBF0462","lat":5.41384,"lon":100.32789,"sequence":41},{"stopId":"12001060","stopName":"Komtar Utara","stopCode":"IEV1060","lat":5.41513,"lon":100.32899,"sequence":42},{"stopId":"12000474","stopName":"Komtar Timur","stopCode":"IBH0474","lat":5.41458,"lon":100.33229,"sequence":43},{"stopId":"12001910","stopName":"Lebuh Carnavon","stopCode":"IIO1910","lat":5.41424,"lon":100.33328,"sequence":44},{"stopId":"12001915","stopName":"Hotel Armenian","stopCode":"IIO1915","lat":5.41549,"lon":100.335,"sequence":45},{"stopId":"12000611","stopName":"Kampung Kolam","stopCode":"ICF0611","lat":5.41614,"lon":100.33647,"sequence":46},{"stopId":"12001917","stopName":"Little India","stopCode":"IIP1917","lat":5.41647,"lon":100.33854,"sequence":47},{"stopId":"12002318","stopName":"Container Hotel","stopCode":"ICT0052","lat":5.4142,"lon":100.34045,"sequence":48},{"stopId":"12002056","stopName":"Jejantas Terminal Feri","stopCode":"IKI2056","lat":5.41452,"lon":100.34187,"sequence":49},{"stopId":"12002058","stopName":"Pejabat Pos Besar P.Pinang","stopCode":"IKI2058","lat":5.41721,"lon":100.34428,"sequence":50},{"stopId":"12002971","stopName":"Pejabat Pos Besar P.Pinang 1","stopCode":"IIR1926","lat":5.41802,"lon":100.34369,"sequence":51},{"stopId":"12001943","stopName":"Balai Polis","stopCode":"IIZ1943","lat":5.41865,"lon":100.34356,"sequence":52},{"stopId":"12002972","stopName":"Swettenham Pier Cruise Terminal","stopCode":"IIR1927","lat":5.4185,"lon":100.34508,"sequence":53},{"stopId":"12002057","stopName":"Church Street Pier","stopCode":"IKI2057","lat":5.41664,"lon":100.34413,"sequence":54},{"stopId":"12002113","stopName":"(M1) JETTY A","stopCode":"IKI2054","lat":5.41417,"lon":100.34223,"sequence":55}],"shape":[[5.3416,100.27112],[5.34167,100.27125],[5.34165,100.27133],[5.34146,100.27233],[5.3411,100.27372],[5.34101,100.27408],[5.33983,100.27433],[5.33948,100.27438],[5.33853,100.27462],[5.3383,100.27472],[5.33792,100.27481],[5.33729,100.27494],[5.33711,100.27492],[5.33674,100.27502],[5.33581,100.2752],[5.33552,100.27522],[5.33509,100.27536],[5.33427,100.27571],[5.33349,100.27604],[5.33326,100.27611],[5.3331,100.27625],[5.3329,100.27632],[5.33262,100.27642],[5.33239,100.27654],[5.33177,100.2768],[5.33154,100.27687],[5.33111,100.27687],[5.33088,100.27691],[5.33067,100.27697],[5.33043,100.27716],[5.33032,100.27724],[5.33022,100.27737],[5.33022,100.2775],[5.33022,100.27771],[5.33028,100.27784],[5.33033,100.27811],[5.33044,100.27835],[5.33064,100.27907],[5.33074,100.27947],[5.33075,100.27968],[5.33086,100.28009],[5.3309,100.28037],[5.33087,100.28051],[5.33119,100.28162],[5.33129,100.28188],[5.33145,100.28242],[5.33157,100.28292],[5.33161,100.2831],[5.33168,100.28329],[5.33191,100.28413],[5.33226,100.28538],[5.33255,100.28663],[5.33273,100.28741],[5.33275,100.28766],[5.33281,100.2879],[5.33288,100.2884],[5.3329,100.2886],[5.33289,100.28872],[5.33288,100.28893],[5.33281,100.28972],[5.33279,100.29002],[5.33266,100.29084],[5.33253,100.29168],[5.33269,100.292],[5.3329,100.29238],[5.33347,100.29319],[5.33382,100.2939],[5.33418,100.29458],[5.33439,100.29508],[5.33461,100.29572],[5.33464,100.29587],[5.33462,100.29612],[5.33482,100.29621],[5.335,100.29633],[5.33528,100.29652],[5.33555,100.29674],[5.33572,100.29688],[5.33586,100.29701],[5.33593,100.29711],[5.33597,100.29716],[5.33623,100.29737],[5.33654,100.29763],[5.33707,100.29805],[5.3374,100.29825],[5.33774,100.29847],[5.3385,100.2988],[5.33866,100.2988],[5.3395,100.29916],[5.3408,100.29968],[5.34134,100.29994],[5.34171,100.30012],[5.34194,100.30024],[5.34196,100.3002],[5.34202,100.30018],[5.34212,100.30015],[5.34222,100.30006],[5.34231,100.29986],[5.34302,100.29857],[5.34336,100.298],[5.34349,100.29787],[5.34359,100.29767],[5.34371,100.29746],[5.34401,100.29715],[5.34447,100.29682],[5.34585,100.29589],[5.34609,100.29577],[5.34671,100.29559],[5.34766,100.29552],[5.34799,100.29561],[5.34924,100.29611],[5.3495,100.29624],[5.34969,100.29633],[5.34988,100.29648],[5.35013,100.29668],[5.35039,100.29695],[5.35078,100.29741],[5.35096,100.2976],[5.35103,100.29767],[5.35174,100.29853],[5.35193,100.29883],[5.35208,100.299],[5.35224,100.29926],[5.35236,100.29952],[5.35245,100.29981],[5.35253,100.3005],[5.35256,100.30084],[5.35267,100.30128],[5.35268,100.30146],[5.35278,100.30159],[5.35304,100.30264],[5.35307,100.30274],[5.35311,100.30297],[5.35322,100.30325],[5.35332,100.3035],[5.35334,100.3036],[5.35351,100.30378],[5.35375,100.30403],[5.35395,100.30421],[5.35407,100.3043],[5.35419,100.30446],[5.35427,100.30466],[5.35431,100.30483],[5.35435,100.30503],[5.35436,100.30522],[5.35435,100.30544],[5.3543,100.30559],[5.35424,100.30578],[5.35396,100.30632],[5.35382,100.30652],[5.35371,100.30684],[5.35368,100.30703],[5.35366,100.30723],[5.35401,100.30778],[5.35476,100.3086],[5.35566,100.30923],[5.35654,100.30971],[5.35672,100.30979],[5.35735,100.31003],[5.35883,100.31038],[5.36017,100.3106],[5.36231,100.31096],[5.36358,100.31109],[5.36494,100.31102],[5.36621,100.31076],[5.36749,100.31033],[5.36818,100.31015],[5.3687,100.31009],[5.36981,100.31004],[5.37093,100.30996],[5.37161,100.30974],[5.37248,100.30926],[5.3736,100.30876],[5.37468,100.30852],[5.37626,100.30815],[5.37724,100.30794],[5.3781,100.3079],[5.37921,100.30787],[5.3802,100.30789],[5.38138,100.3079],[5.38207,100.30787],[5.3823,100.30793],[5.38242,100.30799],[5.38293,100.3081],[5.38317,100.30819],[5.38395,100.30871],[5.38465,100.30925],[5.38486,100.30948],[5.38501,100.30971],[5.38529,100.31023],[5.38561,100.31083],[5.38588,100.31053],[5.38615,100.30925],[5.38617,100.30919],[5.3863,100.30857],[5.38646,100.30776],[5.38663,100.30747],[5.38681,100.30727],[5.38726,100.30686],[5.38787,100.30655],[5.38813,100.30636],[5.38861,100.30606],[5.38882,100.30625],[5.38924,100.30667],[5.38927,100.30669],[5.38946,100.30694],[5.38957,100.30709],[5.38972,100.3072],[5.39004,100.30754],[5.3905,100.30797],[5.39088,100.30825],[5.39114,100.30845],[5.39165,100.30866],[5.39223,100.30891],[5.39202,100.30978],[5.39162,100.31122],[5.39146,100.31182],[5.39124,100.31265],[5.3911,100.31311],[5.3911,100.31321],[5.39112,100.3133],[5.39126,100.31327],[5.39132,100.31327],[5.39192,100.31343],[5.39265,100.31367],[5.39304,100.31384],[5.3942,100.31436],[5.39477,100.31458],[5.39509,100.31466],[5.39558,100.31472],[5.39614,100.31474],[5.39643,100.31475],[5.39619,100.31546],[5.39596,100.31612],[5.39576,100.31666],[5.39561,100.31706],[5.39563,100.31726],[5.39568,100.31745],[5.39625,100.31809],[5.39686,100.31879],[5.39715,100.3191],[5.39772,100.31972],[5.39808,100.32005],[5.39859,100.32043],[5.39906,100.32075],[5.3994,100.32102],[5.39996,100.32162],[5.40025,100.32203],[5.4003,100.32211],[5.40117,100.32316],[5.40156,100.32361],[5.40162,100.32373],[5.40175,100.32378],[5.40188,100.32368],[5.40197,100.32365],[5.40239,100.32323],[5.40298,100.32267],[5.40344,100.32222],[5.40402,100.32167],[5.40499,100.3207],[5.40507,100.32066],[5.40507,100.3207],[5.40569,100.32129],[5.40605,100.32163],[5.40674,100.32231],[5.40708,100.32265],[5.40741,100.32285],[5.40764,100.32286],[5.40839,100.32282],[5.40943,100.32277],[5.41046,100.32272],[5.41184,100.32272],[5.41202,100.32274],[5.41214,100.32277],[5.41209,100.32317],[5.41215,100.32352],[5.4123,100.32371],[5.41262,100.32409],[5.41284,100.32459],[5.41314,100.32538],[5.41333,100.32624],[5.41361,100.3273],[5.41391,100.32795],[5.41409,100.32849],[5.41414,100.32854],[5.41431,100.32877],[5.41446,100.32886],[5.41545,100.32919],[5.41564,100.32928],[5.4162,100.32945],[5.41667,100.32989],[5.41676,100.3302],[5.41667,100.33046],[5.41656,100.33063],[5.41609,100.331],[5.4155,100.33155],[5.41488,100.33204],[5.41456,100.33227],[5.41409,100.33263],[5.41397,100.33271],[5.41394,100.33283],[5.41445,100.33358],[5.41479,100.33413],[5.41523,100.33471],[5.41567,100.33522],[5.41638,100.33555],[5.41625,100.33594],[5.4162,100.3361],[5.41617,100.3362],[5.41616,100.33641],[5.41601,100.33717],[5.41602,100.33726],[5.41604,100.33732],[5.41611,100.33739],[5.41643,100.33753],[5.41666,100.33767],[5.41709,100.33794],[5.41685,100.33817],[5.41666,100.33837],[5.4163,100.33872],[5.4158,100.3392],[5.41547,100.33953],[5.41543,100.33962],[5.41537,100.33961],[5.41489,100.33998],[5.41444,100.3403],[5.41382,100.34073],[5.41372,100.34077],[5.41386,100.34108],[5.41435,100.3417],[5.41512,100.34262],[5.41584,100.34353],[5.41618,100.34377],[5.41719,100.34428],[5.41745,100.34441],[5.4178,100.34401],[5.41794,100.34387],[5.41818,100.34363],[5.41832,100.34349],[5.41842,100.34338],[5.41845,100.34338],[5.41869,100.34363],[5.41876,100.34371],[5.41886,100.34375],[5.41897,100.34385],[5.41912,100.34393],[5.41929,100.34391],[5.41937,100.344],[5.41937,100.34414],[5.41924,100.34422],[5.41918,100.34424],[5.41877,100.34486],[5.41856,100.34502],[5.41835,100.345],[5.41753,100.34456],[5.41666,100.34413],[5.41604,100.34382],[5.41578,100.34359],[5.41541,100.34312],[5.41484,100.34243],[5.41472,100.34232],[5.41433,100.34233],[5.41419,100.34216],[5.41423,100.34205],[5.41429,100.34185],[5.41429,100.34182],[5.41428,100.34176]],"tripIds":["260327010096S8","260327010103S3","260327010108S7","260327010109S4","260327010109S6","260327010109S10","260327020096S8","260327020097S2","260327020097S4","260327020100S6","260327020101S2","260327020104S3","260327020107S9","260327020110S4","260327030094S6","260327030095S2","260327030095S6","260327030098S8","260327039002S7","260327039003S7","260327039025S5","260327010098S6","260327010100S4","260327010100S6","260327010106S7","260327020094S2","260327020094S6","260327020097S8","260327020101S4","260327020104S5","260327020106S5","260327020108S3","260327020110S8","260327030095S4","260327030098S6","260327030101S2","260327030102S9","260327039003S9","260327039024S5","260327039025S7","260327010095S8","260327010096S2","260327010098S4","260327010098S8","260327010101S2","260327010101S4","260327010106S3","260327010107S3","260327010107S5","260327010108S9","260327010110S2","260327020095S6","260327020096S2","260327020097S6","260327020098S2","260327020098S4","260327020098S8","260327020101S8","260327020105S5","260327020107S3","260327020108S5","260327020108S7","260327020109S2","260327010094S2","260327010094S4","260327010096S10","260327010098S10","260327010100S8","260327010104S3","260327010104S5","260327010104S9","260327010110S4","260327020095S4","260327020103S3","260327020104S9","260327020105S9","260327030102S5","260327039002S5","260327039002S9","260327039024S9","260327010094S6","260327010095S6","260327010097S4","260327010098S2","260327010103S9","260327010108S5","260327010110S8","260327020096S10","260327020098S6","260327020098S10","260327020103S7","260327020104S7","260327020106S7","260327020107S5","260327020108S9","260327020110S6","260327030094S2","260327030098S2","260327030100S6","260327039003S3","260327039025S9","260327010096S4","260327010096S6","260327010097S6","260327010097S8","260327010100S2","260327010101S6","260327010103S5","260327010103S7","260327010104S7","260327010106S5","260327010107S7","260327010109S8","260327010110S6","260327020100S2","260327020106S9","260327020110S2","260327030094S4","260327030094S8","260327030095S8","260327030096S6","260327030097S4","260327030097S6","260327030097S8","260327030098S4","260327030100S2","260327030100S4","260327030100S8","260327030101S8","260327039002S3","260327010094S8","260327010097S2","260327010105S3","260327010105S5","260327010105S9","260327010106S9","260327010107S9","260327010109S2","260327020095S2","260327020095S8","260327020096S6","260327020100S8","260327020101S6","260327020103S5","260327020103S9","260327020105S3","260327020105S7","260327020107S7","260327020109S6","260327020109S8","260327020109S10","260327030096S2","260327030096S8","260327030097S2","260327030101S4","260327030101S6","260327030102S7","260327039024S3","260327010095S2","260327010095S4","260327010101S8","260327010105S7","260327010108S3","260327020094S4","260327020094S8","260327020096S4","260327020100S4","260327020106S3","260327020109S4","260327030096S4","260327030102S3","260327039003S5","260327039024S7","260327039025S3"],"oppositeTripIds":["260327010103S8","260327010110S7","260327020095S3","260327020101S5","260327020104S4","260327020105S2","260327020107S8","260327020109S7","260327030094S5","260327030100S7","260327030101S9","260327030102S6","260327039003S2","260327039025S4","260327010095S9","260327010096S7","260327010097S5","260327010101S5","260327010103S10","260327010104S4","260327010104S6","260327010105S4","260327010108S6","260327010109S9","260327020094S5","260327020094S7","260327020094S9","260327020095S5","260327020095S7","260327020103S6","260327020103S8","260327020105S4","260327020108S4","260327020109S9","260327020110S5","260327030097S3","260327030098S9","260327030100S9","260327010097S3","260327010098S5","260327010098S7","260327010100S9","260327010106S4","260327010108S2","260327010108S4","260327020095S9","260327020101S7","260327020103S4","260327020104S8","260327020106S8","260327020108S2","260327020109S3","260327030097S7","260327030100S5","260327039024S4","260327039025S2","260327010094S7","260327010095S5","260327010096S3","260327010103S2","260327010104S8","260327010106S2","260327010107S4","260327010107S8","260327010108S8","260327010110S5","260327020094S3","260327020096S3","260327020100S7","260327020107S2","260327020107S4","260327020110S9","260327030096S7","260327030101S3","260327030101S5","260327030102S10","260327039002S2","260327039002S10","260327039003S6","260327010094S9","260327010095S7","260327010096S9","260327010101S3","260327010103S6","260327010107S2","260327010109S5","260327010109S7","260327010110S9","260327020097S3","260327020098S3","260327020098S7","260327020100S3","260327020100S9","260327020103S2","260327020105S6","260327020106S4","260327020107S6","260327030095S3","260327030098S7","260327030102S8","260327039024S6","260327010096S5","260327010097S9","260327010103S4","260327010105S6","260327010105S8","260327010106S6","260327010106S8","260327010107S6","260327010109S3","260327020096S7","260327020103S10","260327020106S6","260327020108S8","260327030094S7","260327030094S9","260327030095S7","260327030097S5","260327030098S3","260327030098S5","260327030100S3","260327030102S2","260327039025S6","260327010094S5","260327010095S3","260327010098S3","260327010098S9","260327010100S3","260327010100S5","260327010110S3","260327020096S9","260327020097S5","260327020098S5","260327020101S3","260327020101S9","260327020105S8","260327020106S2","260327020109S5","260327020110S3","260327030096S5","260327039002S4","260327039002S6","260327039002S8","260327039003S4","260327039025S8","260327010094S3","260327010097S7","260327010100S7","260327010101S7","260327010101S9","260327010104S2","260327010105S2","260327020096S5","260327020097S7","260327020097S9","260327020098S9","260327020100S5","260327020104S2","260327020104S6","260327020108S6","260327020110S7","260327030094S3","260327030095S5","260327030095S9","260327030096S3","260327030096S9","260327030097S9","260327030101S7","260327030102S4","260327039003S8","260327039024S2","260327039024S8"],"firstDeparture":"05:30","lastDeparture":"22:30","tripCount":174}