{"routeId":"30000050","shortName":"13","directionId":0,"headsign":"LOTUS - PAYA TERUBONG","stops":[{"stopId":"12001887","stopName":"(M1) Tesco Tunku Kudin","stopCode":"IIH1887","lat":5.37723,"lon":100.31506,"sequence":1},{"stopId":"12000565","stopName":"Bukit Dumbar","stopCode":"ICA0565","lat":5.38595,"lon":100.31157,"sequence":2},{"stopId":"12000566","stopName":"Pekan Jelutong","stopCode":"ICA0566","lat":5.3879,"lon":100.3127,"sequence":3},{"stopId":"12002319","stopName":"Balai Polis Jelutong","stopCode":"ICT0053","lat":5.3913,"lon":100.31217,"sequence":4},{"stopId":"12002002","stopName":"Pasar Batu Lanchang II","stopCode":"IJP2002","lat":5.39051,"lon":100.30661,"sequence":5},{"stopId":"12001641","stopName":"(M3) Flat Bata Merah","stopCode":"IHH1641","lat":5.39265,"lon":100.30711,"sequence":6},{"stopId":"12002246","stopName":"Jalan Sir Ibrahim I","stopCode":"IKY2506","lat":5.39545,"lon":100.3087,"sequence":7},{"stopId":"12002247","stopName":"Jalan Sir Ibrahim II","stopCode":"IGL1391","lat":5.39704,"lon":100.3091,"sequence":8},{"stopId":"12000537","stopName":"Taman Hutchings","stopCode":"IBR0537","lat":5.39763,"lon":100.30691,"sequence":9},{"stopId":"12002022","stopName":"SK Batu Lanchang","stopCode":"IJX2022","lat":5.39884,"lon":100.30117,"sequence":10},{"stopId":"12002023","stopName":"SMK Georgetown","stopCode":"IJX2023","lat":5.39906,"lon":100.29873,"sequence":11},{"stopId":"12001980","stopName":"Shineville Park","stopCode":"IJI1980","lat":5.39926,"lon":100.29572,"sequence":12},{"stopId":"12001979","stopName":"All Season Place","stopCode":"IJI1979","lat":5.39689,"lon":100.29035,"sequence":13},{"stopId":"12001977","stopName":"Pasar Farlim","stopCode":"IJI1977","lat":5.39391,"lon":100.28861,"sequence":14},{"stopId":"12001975","stopName":"Tanjung Court","stopCode":"IJI1975","lat":5.39251,"lon":100.28713,"sequence":15},{"stopId":"12000049","stopName":"Klinik Kesihatan Bandar Baru Air Itam","stopCode":"I0L0049","lat":5.38963,"lon":100.2851,"sequence":16},{"stopId":"12001372","stopName":"Flat 4E Farlim","stopCode":"IGD1372","lat":5.38613,"lon":100.28323,"sequence":17},{"stopId":"12001999","stopName":"Lintang Angsana","stopCode":"IJO1999","lat":5.3887,"lon":100.28208,"sequence":18},{"stopId":"12001974","stopName":"Lebuhraya Thean Teik","stopCode":"IJI1974","lat":5.38921,"lon":100.28046,"sequence":19},{"stopId":"12001972","stopName":"Perumahan PDRM","stopCode":"IJI1972","lat":5.38801,"lon":100.27852,"sequence":20},{"stopId":"12001970","stopName":"Lone Pine Club","stopCode":"IJI1970","lat":5.38659,"lon":100.27661,"sequence":21},{"stopId":"12001022","stopName":"Paya Terubong Cemetery","stopCode":"IER1022","lat":5.38044,"lon":100.27504,"sequence":22},{"stopId":"12002290","stopName":"Pekan Paya Terubong","stopCode":"ICT0011","lat":5.3787,"lon":100.27488,"sequence":23},{"stopId":"12001021","stopName":"Oriental Garden","stopCode":"IER1021","lat":5.3757,"lon":100.27586,"sequence":24},{"stopId":"12001019","stopName":"Surau Al Muttaqin","stopCode":"IER1019","lat":5.37176,"lon":100.27534,"sequence":25},{"stopId":"12002102","stopName":"(M2) Tingkat Paya Terubong4","stopCode":"IKX2102","lat":5.36975,"lon":100.27547,"sequence":26},{"stopId":"12002099","stopName":"Tingkat Paya Terubong 2 - 1","stopCode":"IKX2099","lat":5.37092,"lon":100.2774,"sequence":27},{"stopId":"12002100","stopName":"Tingkat Paya Terubong 2 - 2","stopCode":"IKX2100","lat":5.37184,"lon":100.27757,"sequence":28},{"stopId":"12002101","stopName":"Tingkat Paya Terubong 2 - 3","stopCode":"IKX2101","lat":5.37357,"lon":100.27785,"sequence":29},{"stopId":"12001019","stopName":"Surau Al Muttaqin","stopCode":"IER1019","lat":5.37176,"lon":100.27534,"sequence":30},{"stopId":"12001018","stopName":"(M1) Hub Paya Terubong - Petronas","stopCode":"IER1018","lat":5.3716,"lon":100.27493,"sequence":31}],"shape":[[5.3777,100.31373],[5.37753,100.31381],[5.3774,100.31396],[5.37734,100.31412],[5.37732,100.31441],[5.37732,100.31462],[5.37728,100.31486],[5.37708,100.31533],[5.3769,100.31586],[5.37684,100.31605],[5.37689,100.31615],[5.377,100.31622],[5.37788,100.3164],[5.37802,100.31639],[5.37811,100.31641],[5.37813,100.31646],[5.3788,100.3162],[5.37901,100.31597],[5.37919,100.31551],[5.37981,100.31245],[5.37987,100.31203],[5.37988,100.31159],[5.37986,100.31096],[5.37977,100.30968],[5.37977,100.30936],[5.37984,100.30891],[5.37995,100.30846],[5.37993,100.30833],[5.37993,100.30815],[5.3798,100.30803],[5.37977,100.30793],[5.37979,100.30782],[5.37983,100.30776],[5.38004,100.30766],[5.38014,100.30768],[5.38023,100.30772],[5.38029,100.30777],[5.38059,100.3078],[5.3814,100.3078],[5.38189,100.30782],[5.382,100.30783],[5.38207,100.30787],[5.3823,100.30793],[5.38242,100.30799],[5.38293,100.3081],[5.38317,100.30819],[5.38395,100.30871],[5.38465,100.30925],[5.38486,100.30948],[5.38501,100.30971],[5.38529,100.31023],[5.38561,100.31083],[5.38594,100.31158],[5.38599,100.31176],[5.38609,100.31188],[5.38628,100.31214],[5.38659,100.31237],[5.38682,100.31249],[5.38693,100.31258],[5.38743,100.31265],[5.38884,100.31286],[5.38954,100.31294],[5.3902,100.31304],[5.39084,100.31318],[5.39102,100.31326],[5.3911,100.31311],[5.3912,100.31273],[5.39124,100.31257],[5.39139,100.31203],[5.39146,100.31182],[5.39161,100.31121],[5.39176,100.31066],[5.39202,100.30978],[5.39209,100.30945],[5.39223,100.30891],[5.39166,100.30868],[5.39114,100.30845],[5.39079,100.30821],[5.39052,100.30801],[5.39007,100.3076],[5.38972,100.3072],[5.39032,100.30671],[5.39066,100.30654],[5.39077,100.3065],[5.39146,100.30654],[5.39202,100.30661],[5.39236,100.30663],[5.39259,100.30666],[5.39258,100.30704],[5.3925,100.30738],[5.39248,100.30782],[5.39288,100.30795],[5.39328,100.30811],[5.39352,100.30816],[5.39412,100.30834],[5.39452,100.30845],[5.3954,100.30873],[5.39564,100.30878],[5.39582,100.30883],[5.3964,100.30901],[5.39683,100.30915],[5.39735,100.3093],[5.39736,100.3093],[5.39773,100.30951],[5.39832,100.30986],[5.3985,100.30961],[5.39878,100.30916],[5.39901,100.30885],[5.39916,100.30852],[5.3989,100.30842],[5.39853,100.30824],[5.39823,100.30799],[5.39793,100.3076],[5.39778,100.30736],[5.39776,100.30724],[5.39765,100.30683],[5.39764,100.3066],[5.39765,100.30629],[5.39771,100.30589],[5.39775,100.30562],[5.39775,100.30548],[5.39783,100.30488],[5.39792,100.30441],[5.39807,100.30411],[5.39824,100.30389],[5.3985,100.30359],[5.39861,100.30336],[5.39868,100.30303],[5.39874,100.30247],[5.39876,100.30222],[5.39877,100.30199],[5.39881,100.3018],[5.39889,100.3007],[5.39897,100.29988],[5.399,100.29913],[5.39905,100.29889],[5.39914,100.29864],[5.39928,100.29837],[5.39951,100.29799],[5.3998,100.29761],[5.4,100.29741],[5.40022,100.29726],[5.40061,100.29709],[5.4005,100.29686],[5.40025,100.29663],[5.40004,100.29642],[5.39975,100.29619],[5.39951,100.29591],[5.39916,100.29541],[5.39888,100.29497],[5.39865,100.2944],[5.39842,100.29375],[5.39836,100.29336],[5.3983,100.29272],[5.39818,100.29206],[5.39809,100.29168],[5.39802,100.29136],[5.39788,100.29109],[5.39774,100.29095],[5.39738,100.29065],[5.39666,100.29013],[5.39616,100.2898],[5.39581,100.28959],[5.39512,100.28923],[5.39443,100.28886],[5.39402,100.28863],[5.39371,100.2884],[5.39346,100.28818],[5.39313,100.28787],[5.39283,100.28759],[5.39256,100.2871],[5.39252,100.28694],[5.39252,100.28688],[5.39247,100.28663],[5.39247,100.28645],[5.39238,100.28608],[5.39234,100.28575],[5.3922,100.28553],[5.39211,100.28548],[5.39206,100.28545],[5.39201,100.2854],[5.39194,100.28542],[5.39072,100.28554],[5.39048,100.28556],[5.39034,100.28552],[5.39021,100.28545],[5.38912,100.28474],[5.38827,100.28416],[5.38815,100.28406],[5.38808,100.2842],[5.38789,100.28443],[5.38782,100.28444],[5.38722,100.28403],[5.38655,100.28354],[5.38634,100.28336],[5.38616,100.2832],[5.386,100.28302],[5.38582,100.28284],[5.38574,100.28272],[5.38574,100.28271],[5.38574,100.28267],[5.38601,100.28248],[5.38615,100.28241],[5.38656,100.28289],[5.38734,100.28347],[5.38742,100.28337],[5.38766,100.28309],[5.38818,100.28254],[5.3888,100.28204],[5.38981,100.28136],[5.38976,100.28127],[5.38893,100.28],[5.38805,100.27854],[5.38775,100.27802],[5.38757,100.27778],[5.38758,100.27771],[5.38745,100.27762],[5.38685,100.27679],[5.3862,100.27624],[5.38608,100.27618],[5.38538,100.2757],[5.38519,100.27562],[5.3847,100.27543],[5.38449,100.27535],[5.3844,100.27531],[5.38428,100.27531],[5.384,100.27537],[5.38391,100.27537],[5.38374,100.27542],[5.38289,100.27533],[5.38229,100.27526],[5.3811,100.27508],[5.3801,100.27504],[5.37995,100.27501],[5.37982,100.27493],[5.37971,100.27495],[5.37844,100.27486],[5.37772,100.27479],[5.37731,100.27488],[5.37652,100.27534],[5.37578,100.2758],[5.37537,100.27586],[5.37476,100.27585],[5.37428,100.27581],[5.37387,100.27575],[5.37322,100.27558],[5.37286,100.27545],[5.37241,100.27544],[5.37213,100.27538],[5.37195,100.27538],[5.37161,100.2753],[5.371,100.27515],[5.37085,100.27511],[5.37033,100.27497],[5.37008,100.27495],[5.36971,100.27501],[5.36972,100.27513],[5.36971,100.27538],[5.36967,100.27558],[5.36953,100.27583],[5.36938,100.27596],[5.36908,100.27607],[5.36907,100.27638],[5.36911,100.27653],[5.36923,100.27672],[5.36945,100.27695],[5.36965,100.27711],[5.36986,100.27724],[5.37019,100.27735],[5.37095,100.27748],[5.37181,100.27766],[5.37264,100.27781],[5.37323,100.27789],[5.37363,100.27791],[5.3742,100.27784],[5.3741,100.27749],[5.37373,100.27697],[5.3736,100.27669],[5.37365,100.27636],[5.37381,100.27581],[5.37387,100.27575],[5.37322,100.27558],[5.37286,100.27545],[5.37241,100.27544],[5.37213,100.27538],[5.37195,100.27538],[5.37161,100.2753],[5.371,100.27515],[5.37088,100.275],[5.37101,100.27502],[5.37108,100.27482],[5.37112,100.2748],[5.37147,100.27491],[5.37159,100.27495],[5.37166,100.27501],[5.37162,100.27519]],"tripIds":["260327010052S13","260327010053S13","260327030052S3","260327030053S8","260327030053S12","260327030755S7","260327010755S7","260327020052S7","260327030053S6","260327010052S3","260327010053S9","260327020052S13","260327020053S5","260327020053S9","260327030052S11","260327030755S3","260327030755S9","260327030755S11","260327010052S9","260327010053S5","260327010053S7","260327010053S11","260327010755S5","260327010755S13","260327020053S3","260327020053S11","260327020053S13","260327010755S3","260327010755S9","260327020052S11","260327020053S7","260327020755S5","260327030052S13","260327030755S5","260327010052S7","260327010053S3","260327020052S3","260327020755S3","260327020755S7","260327030052S5","260327030053S4","260327030755S13","260327010052S5","260327010755S11","260327020052S9","260327020755S9","260327030052S7","260327030052S9","260327030053S2","260327010052S11","260327020052S5","260327020755S11","260327020755S13","260327030053S10"],"oppositeTripIds":["260327010052S4","260327010053S6","260327010755S4","260327010755S6","260327010755S10","260327010755S12","260327020052S14","260327020053S2","260327020053S4","260327020053S8","260327020053S10","260327020755S2","260327020755S8","260327030052S4","260327030053S9","260327030755S10","260327010053S2","260327020052S12","260327020755S4","260327020755S10","260327030053S7","260327030755S2","260327030755S6","260327020053S14","260327010052S8","260327030052S8","260327030052S12","260327010052S6","260327010755S8","260327020052S2","260327030052S10","260327030755S12","260327010052S10","260327010052S14","260327010053S4","260327010053S10","260327020052S4","260327020052S6","260327020052S8","260327030052S6","260327030053S11","260327010052S2","260327010053S8","260327010053S12","260327010053S14","260327020052S10","260327020053S6","260327020755S12","260327030052S2","260327030053S3","260327030053S5","260327030755S4","260327030755S8","260327010052S12","260327010755S2","260327020053S12","260327020755S6","260327030053S13"],"firstDeparture":"07:35","lastDeparture":"22:30","tripCount":54}