{"routeId":"30000104","shortName":"C13C","directionId":0,"headsign":"SUNWAY - FIZ 4 & BLIP","stops":[{"stopId":"12002530","stopName":"Hotel Blanket","stopCode":"ICT0303","lat":5.39485,"lon":100.40001,"sequence":1},{"stopId":"12001809","stopName":"Pasar Awam","stopCode":"MHV1809","lat":5.39298,"lon":100.4016,"sequence":2},{"stopId":"12001388","stopName":"SP Arena","stopCode":"MGJ1388","lat":5.38636,"lon":100.40236,"sequence":3},{"stopId":"12002994","stopName":"Taman Tun Hussein Onn","stopCode":"MJY2027","lat":5.38615,"lon":100.40574,"sequence":4},{"stopId":"12001067","stopName":"(M2) Megamall - Pacific","stopCode":"MEW1067","lat":5.37879,"lon":100.39794,"sequence":5},{"stopId":"12002108","stopName":"Jambatan Pulau Pinang","stopCode":"M002108","lat":5.3558,"lon":100.39232,"sequence":6},{"stopId":"12001981","stopName":"Batu Uban Highway","stopCode":"IJJ1981","lat":5.35125,"lon":100.30986,"sequence":7},{"stopId":"12002068","stopName":"Jeti Pulau Jerejak","stopCode":"IKJ2068","lat":5.34299,"lon":100.31141,"sequence":8},{"stopId":"12002064","stopName":"Gold Coast Kondominium","stopCode":"IKJ2064","lat":5.33974,"lon":100.30965,"sequence":9},{"stopId":"12002303","stopName":"KWSP Queensbay","stopCode":"ICT0031","lat":5.33692,"lon":100.30844,"sequence":10},{"stopId":"12002060","stopName":"Hadapan Queensbay Mall","stopCode":"IKJ2060","lat":5.33233,"lon":100.30773,"sequence":11},{"stopId":"12000025","stopName":"Venture Electronics","stopCode":"I0H0025","lat":5.30167,"lon":100.29407,"sequence":12},{"stopId":"12002004","stopName":"Kobe Precision Technology","stopCode":"IJQ2004","lat":5.30206,"lon":100.29121,"sequence":13},{"stopId":"12002005","stopName":"Kingdee Southeast Asia","stopCode":"IJQ2005","lat":5.29999,"lon":100.28868,"sequence":14},{"stopId":"12002006","stopName":"K.K Chong Engineering","stopCode":"IJQ2006","lat":5.30032,"lon":100.28667,"sequence":15},{"stopId":"12002008","stopName":"ER Mekatron","stopCode":"IJQ2008","lat":5.29809,"lon":100.28541,"sequence":16},{"stopId":"12002007","stopName":"SAM Engineering & Equipment","stopCode":"IJQ2007","lat":5.29565,"lon":100.28665,"sequence":17},{"stopId":"12002070","stopName":"AT Engineering","stopCode":"IKK2070","lat":5.29435,"lon":100.28719,"sequence":18},{"stopId":"12002050","stopName":"Pentamaster","stopCode":"IKH2050","lat":5.29576,"lon":100.28863,"sequence":19},{"stopId":"12002052","stopName":"Advantest Engineering","stopCode":"IKH2052","lat":5.29852,"lon":100.29017,"sequence":20},{"stopId":"12002051","stopName":"Motorola","stopCode":"IKH2051","lat":5.298,"lon":100.29277,"sequence":21},{"stopId":"12002049","stopName":"Mini Circuits","stopCode":"IKH2049","lat":5.29464,"lon":100.29099,"sequence":22},{"stopId":"12002010","stopName":"Elsoft Research","stopCode":"IJQ2010","lat":5.29279,"lon":100.28856,"sequence":23},{"stopId":"12002009","stopName":"Microlead","stopCode":"IJQ2009","lat":5.29142,"lon":100.28672,"sequence":24},{"stopId":"12002003","stopName":"MOX","stopCode":"IJQ2003","lat":5.29281,"lon":100.28574,"sequence":25},{"stopId":"12000026","stopName":"Jabil Circuit","stopCode":"I0H0026","lat":5.30433,"lon":100.29144,"sequence":26},{"stopId":"12000029","stopName":"SAM Engineering","stopCode":"I0H0029","lat":5.30492,"lon":100.29403,"sequence":27},{"stopId":"12000030","stopName":"Brady Technology","stopCode":"I0H0030","lat":5.30572,"lon":100.29559,"sequence":28},{"stopId":"12000028","stopName":"ASE","stopCode":"I0H0028","lat":5.30857,"lon":100.29408,"sequence":29},{"stopId":"12000027","stopName":"Dell","stopCode":"I0H0027","lat":5.30717,"lon":100.29253,"sequence":30},{"stopId":"12000607","stopName":"Broadcom","stopCode":"ICE0607","lat":5.32346,"lon":100.30109,"sequence":31},{"stopId":"12000608","stopName":"Esquel Group","stopCode":"ICE0608","lat":5.32399,"lon":100.29932,"sequence":32},{"stopId":"12000609","stopName":"Fastron","stopCode":"ICE0609","lat":5.32499,"lon":100.29604,"sequence":33},{"stopId":"12000846","stopName":"Jalan Mahsuri","stopCode":"IDN0846","lat":5.32677,"lon":100.28886,"sequence":34},{"stopId":"12000847","stopName":"KFC Jalan Mahsuri","stopCode":"IDN0847","lat":5.32686,"lon":100.28667,"sequence":35},{"stopId":"12000848","stopName":"Mayang Mall","stopCode":"IDN0848","lat":5.32693,"lon":100.2843,"sequence":36},{"stopId":"12000851","stopName":"(M2) Spice","stopCode":"IDN0851","lat":5.32736,"lon":100.28051,"sequence":37},{"stopId":"12002974","stopName":"Terminal Bas Bayan Baru","stopCode":"IDN2000","lat":5.32696,"lon":100.28032,"sequence":38}],"shape":[[5.39506,100.39932],[5.39493,100.39938],[5.39485,100.39961],[5.39469,100.40092],[5.39463,100.40172],[5.39461,100.40176],[5.39456,100.40176],[5.39454,100.40172],[5.39448,100.40172],[5.39399,100.40169],[5.3939,100.40167],[5.39207,100.40147],[5.38957,100.40122],[5.38726,100.40098],[5.38707,100.40104],[5.38689,100.40105],[5.38671,100.40114],[5.38657,100.40127],[5.38646,100.40145],[5.3864,100.40159],[5.38629,100.40209],[5.38624,100.40252],[5.38613,100.40317],[5.38596,100.40483],[5.38583,100.4062],[5.38575,100.407],[5.38577,100.40713],[5.38571,100.40774],[5.3867,100.40782],[5.3868,100.40776],[5.38701,100.40649],[5.38695,100.40639],[5.38665,100.40616],[5.3865,100.40602],[5.38635,100.40598],[5.38612,100.40594],[5.38607,100.40588],[5.38608,100.40562],[5.3861,100.40542],[5.38578,100.40533],[5.38555,100.40526],[5.38533,100.40511],[5.3835,100.40489],[5.38204,100.40461],[5.38014,100.40419],[5.37819,100.40363],[5.37628,100.40293],[5.37569,100.40267],[5.37547,100.40272],[5.37522,100.40267],[5.3749,100.40272],[5.3747,100.40282],[5.37454,100.403],[5.37445,100.40325],[5.37446,100.40355],[5.37457,100.4038],[5.3748,100.404],[5.37501,100.4041],[5.37522,100.40409],[5.37546,100.40404],[5.37572,100.40388],[5.37586,100.40367],[5.37601,100.4036],[5.37655,100.40251],[5.37716,100.40146],[5.3774,100.40098],[5.37786,100.40012],[5.37876,100.3985],[5.37939,100.39728],[5.37937,100.39705],[5.37931,100.39686],[5.37863,100.39648],[5.3785,100.39646],[5.37842,100.3965],[5.3783,100.39673],[5.3783,100.39681],[5.37836,100.39693],[5.37907,100.39728],[5.3786,100.39821],[5.37828,100.39809],[5.37773,100.39776],[5.37781,100.39751],[5.37796,100.39719],[5.37811,100.39688],[5.37841,100.39632],[5.37854,100.39633],[5.37871,100.39639],[5.3796,100.39687],[5.37974,100.39695],[5.37969,100.39704],[5.37912,100.39811],[5.37866,100.39897],[5.3784,100.39941],[5.37783,100.40054],[5.37739,100.40134],[5.37689,100.4023],[5.37585,100.40426],[5.37567,100.40458],[5.3754,100.40469],[5.37513,100.40468],[5.37488,100.40453],[5.37467,100.40431],[5.37456,100.40413],[5.37414,100.40288],[5.3739,100.4022],[5.37363,100.40188],[5.37337,100.4017],[5.37327,100.40155],[5.37125,100.4005],[5.36998,100.39978],[5.36985,100.3998],[5.3694,100.39962],[5.36899,100.39953],[5.36875,100.39949],[5.36837,100.39948],[5.36809,100.39949],[5.36791,100.39951],[5.36767,100.39955],[5.36701,100.39975],[5.36673,100.39983],[5.36629,100.40002],[5.36583,100.40019],[5.36554,100.40024],[5.36522,100.40025],[5.36489,100.40019],[5.36472,100.40016],[5.36455,100.40008],[5.36437,100.39996],[5.36422,100.39987],[5.36416,100.3998],[5.36395,100.39959],[5.36383,100.3994],[5.36374,100.39922],[5.36364,100.39905],[5.36359,100.39881],[5.36358,100.3987],[5.36358,100.39865],[5.36356,100.39825],[5.36355,100.39771],[5.36352,100.39719],[5.36343,100.39685],[5.36331,100.39663],[5.36313,100.39636],[5.36292,100.39611],[5.36276,100.39592],[5.36132,100.39521],[5.36008,100.39465],[5.35826,100.39366],[5.35769,100.39332],[5.3565,100.39267],[5.35571,100.39209],[5.35504,100.39147],[5.35425,100.39053],[5.35372,100.38959],[5.35338,100.38871],[5.35322,100.3882],[5.35309,100.38742],[5.35296,100.38594],[5.35277,100.38415],[5.35251,100.38159],[5.35231,100.37959],[5.35204,100.37673],[5.35185,100.37475],[5.35154,100.37142],[5.35123,100.36833],[5.35116,100.36634],[5.35118,100.36541],[5.35128,100.36394],[5.35179,100.36036],[5.35216,100.35799],[5.35251,100.35561],[5.3527,100.35422],[5.35323,100.35068],[5.35366,100.34773],[5.35409,100.34482],[5.35413,100.34463],[5.35535,100.33713],[5.35597,100.3332],[5.35635,100.3307],[5.3568,100.32781],[5.3581,100.31936],[5.3582,100.31881],[5.35817,100.3187],[5.35824,100.31804],[5.35827,100.3176],[5.3583,100.31723],[5.35829,100.31695],[5.35823,100.31668],[5.35815,100.31643],[5.35793,100.31603],[5.35772,100.31575],[5.35745,100.31542],[5.35737,100.31526],[5.35694,100.31467],[5.35678,100.31449],[5.35611,100.3136],[5.3557,100.31308],[5.3553,100.31253],[5.35485,100.31205],[5.35466,100.31176],[5.35336,100.3107],[5.35293,100.31041],[5.35248,100.31019],[5.35121,100.30977],[5.35067,100.30968],[5.35007,100.30963],[5.34976,100.30964],[5.3486,100.30963],[5.34805,100.30954],[5.34736,100.30935],[5.34601,100.30884],[5.34584,100.30887],[5.34572,100.30885],[5.34557,100.30886],[5.34539,100.30896],[5.34526,100.30904],[5.3451,100.30922],[5.345,100.30945],[5.34463,100.31047],[5.34432,100.31128],[5.34422,100.31157],[5.34418,100.31168],[5.34339,100.31149],[5.34287,100.31134],[5.34144,100.31086],[5.34069,100.31054],[5.34042,100.31033],[5.33996,100.30979],[5.33973,100.30952],[5.33964,100.30943],[5.33916,100.3091],[5.33844,100.30887],[5.33807,100.30886],[5.33798,100.30894],[5.33786,100.30896],[5.33773,100.30893],[5.33764,100.30883],[5.3376,100.30865],[5.33705,100.30842],[5.33651,100.30815],[5.33602,100.30777],[5.33533,100.30725],[5.3352,100.30719],[5.33504,100.30711],[5.3349,100.30707],[5.33458,100.30699],[5.33444,100.30696],[5.33391,100.307],[5.33363,100.30706],[5.33315,100.30723],[5.33243,100.30762],[5.3322,100.30782],[5.3319,100.30818],[5.33182,100.30827],[5.33177,100.30838],[5.33182,100.3085],[5.33179,100.30864],[5.33164,100.30874],[5.33149,100.30869],[5.3314,100.3086],[5.33127,100.30857],[5.3307,100.30846],[5.33038,100.30838],[5.33,100.30826],[5.32961,100.3081],[5.32924,100.30793],[5.32869,100.3076],[5.32822,100.30729],[5.32788,100.30698],[5.32773,100.30684],[5.32773,100.30667],[5.32779,100.30654],[5.32787,100.3065],[5.32797,100.30649],[5.32807,100.30632],[5.32812,100.30617],[5.32804,100.30602],[5.32785,100.30583],[5.327,100.30538],[5.32682,100.30539],[5.32562,100.30476],[5.32446,100.30418],[5.32292,100.30335],[5.3222,100.30297],[5.32077,100.30223],[5.31982,100.3018],[5.31801,100.30098],[5.31678,100.3004],[5.31621,100.30015],[5.31556,100.29986],[5.31524,100.29979],[5.31358,100.29953],[5.31265,100.29935],[5.31203,100.29926],[5.31043,100.29901],[5.30986,100.29892],[5.30884,100.29863],[5.30728,100.29816],[5.30549,100.29759],[5.30432,100.29724],[5.30256,100.29671],[5.3013,100.29634],[5.30033,100.29609],[5.30033,100.29603],[5.30038,100.29594],[5.30043,100.29585],[5.30046,100.29585],[5.30064,100.2956],[5.30197,100.29376],[5.30231,100.29334],[5.30288,100.29282],[5.30329,100.29241],[5.30261,100.29163],[5.30182,100.29076],[5.30152,100.2905],[5.30109,100.29029],[5.30041,100.28993],[5.29967,100.28953],[5.29962,100.28949],[5.30014,100.28854],[5.30074,100.28746],[5.30106,100.28693],[5.30019,100.28645],[5.29973,100.28619],[5.29889,100.28569],[5.29803,100.28522],[5.29695,100.28469],[5.29677,100.28464],[5.29667,100.28472],[5.29651,100.28504],[5.29597,100.286],[5.2953,100.28712],[5.29447,100.2867],[5.29396,100.2877],[5.29419,100.28779],[5.29425,100.28787],[5.29564,100.2886],[5.29714,100.28946],[5.29882,100.29035],[5.29983,100.2909],[5.29995,100.29099],[5.3,100.29109],[5.29996,100.2912],[5.29943,100.29208],[5.29904,100.29284],[5.29893,100.29299],[5.29884,100.29302],[5.2987,100.293],[5.29794,100.29257],[5.29642,100.29171],[5.29511,100.29104],[5.29421,100.29054],[5.29309,100.28993],[5.29294,100.28987],[5.2928,100.28979],[5.29305,100.28926],[5.29337,100.28871],[5.29217,100.2881],[5.29103,100.28748],[5.29094,100.28742],[5.29131,100.28665],[5.29172,100.28588],[5.29202,100.28532],[5.29329,100.28601],[5.29426,100.28656],[5.29447,100.2867],[5.29496,100.28692],[5.2953,100.28712],[5.29666,100.28782],[5.29748,100.28829],[5.29814,100.28865],[5.29861,100.28894],[5.2993,100.28929],[5.29962,100.28949],[5.30057,100.29],[5.30152,100.29049],[5.3018,100.29073],[5.30238,100.29135],[5.30302,100.29208],[5.30329,100.29241],[5.30394,100.29182],[5.30504,100.29084],[5.30535,100.2906],[5.30594,100.29119],[5.30659,100.29189],[5.30691,100.29226],[5.30613,100.29302],[5.3047,100.29428],[5.30539,100.295],[5.30596,100.2956],[5.30636,100.29608],[5.30651,100.29617],[5.30669,100.29615],[5.3074,100.29583],[5.30854,100.2953],[5.30935,100.29489],[5.30852,100.29407],[5.30803,100.29352],[5.30765,100.29309],[5.30691,100.29226],[5.30628,100.29159],[5.30574,100.29102],[5.30535,100.2906],[5.30469,100.29121],[5.30365,100.29214],[5.30329,100.29241],[5.30252,100.29317],[5.3023,100.29337],[5.3018,100.29401],[5.30102,100.29509],[5.30064,100.2956],[5.30069,100.29581],[5.30074,100.29592],[5.30142,100.29612],[5.30287,100.29655],[5.30504,100.2972],[5.30587,100.29747],[5.30713,100.29787],[5.30869,100.29832],[5.30929,100.29849],[5.30979,100.29864],[5.31008,100.29872],[5.31085,100.29885],[5.31206,100.29904],[5.31244,100.29908],[5.31274,100.29912],[5.31293,100.29917],[5.31416,100.29938],[5.31541,100.2996],[5.31592,100.29976],[5.3165,100.30002],[5.31695,100.30023],[5.31783,100.30063],[5.31875,100.30105],[5.31981,100.30154],[5.32075,100.30197],[5.3215,100.30232],[5.32217,100.30267],[5.32273,100.30293],[5.3229,100.30291],[5.32304,100.30276],[5.32312,100.30272],[5.32338,100.3018],[5.32369,100.30074],[5.32412,100.29933],[5.3246,100.29767],[5.32466,100.29759],[5.32468,100.29747],[5.32471,100.29734],[5.32474,100.29725],[5.32477,100.29715],[5.3248,100.29705],[5.32482,100.29697],[5.32493,100.29652],[5.32544,100.29478],[5.3257,100.294],[5.32572,100.29379],[5.326,100.29273],[5.32601,100.29267],[5.32611,100.29233],[5.32618,100.2921],[5.32629,100.29168],[5.32648,100.29097],[5.3266,100.29057],[5.32664,100.29027],[5.32675,100.28973],[5.32681,100.28918],[5.32683,100.28844],[5.32685,100.28807],[5.32686,100.28781],[5.32686,100.28771],[5.32688,100.28747],[5.32698,100.28562],[5.32699,100.28533],[5.32702,100.28438],[5.32703,100.28399],[5.32707,100.28316],[5.32712,100.28271],[5.32716,100.28247],[5.32721,100.28199],[5.32724,100.28176],[5.32727,100.28151],[5.32741,100.28049],[5.32745,100.28018],[5.32735,100.28006],[5.32722,100.28001],[5.3271,100.28003],[5.32697,100.28009],[5.32693,100.28023],[5.32691,100.28039],[5.32696,100.28051],[5.32704,100.28059],[5.32715,100.28063],[5.32725,100.28063],[5.3273,100.2806],[5.32731,100.28054]]}