{"routeId":"30000007","shortName":"203","directionId":1,"headsign":"AIR ITAM - JETI","stops":[{"stopId":"12000058","stopName":"Pejabat Pos Ayer Itam","stopCode":"I0Q0058","lat":5.4038,"lon":100.27982,"sequence":1},{"stopId":"12000057","stopName":"Pekan Air Itam","stopCode":"I0Q0057","lat":5.40182,"lon":100.27837,"sequence":2},{"stopId":"12001036","stopName":"Klinik Desa Paya Terubong.","stopCode":"IER1036","lat":5.39799,"lon":100.27734,"sequence":3},{"stopId":"12001031","stopName":"Desa Permata","stopCode":"IER1031","lat":5.39341,"lon":100.27625,"sequence":4},{"stopId":"12001028","stopName":"Ruby Court","stopCode":"IER1028","lat":5.39133,"lon":100.27552,"sequence":5},{"stopId":"12001027","stopName":"Pangsapuri Wisma Indah","stopCode":"IER1027","lat":5.38804,"lon":100.27461,"sequence":6},{"stopId":"12001025","stopName":"JKR Paya Terubong","stopCode":"IER1025","lat":5.38604,"lon":100.27467,"sequence":7},{"stopId":"12001969","stopName":"Apartment Lone Pine","stopCode":"IJI1969","lat":5.38657,"lon":100.27638,"sequence":8},{"stopId":"12001971","stopName":"Perumahan PDRM","stopCode":"IJI1971","lat":5.38794,"lon":100.27821,"sequence":9},{"stopId":"12001973","stopName":"Lebuhraya Thean Teik","stopCode":"IJI1973","lat":5.38875,"lon":100.27956,"sequence":10},{"stopId":"12002001","stopName":"(M2) Lintang Angsana","stopCode":"IJO2001","lat":5.38898,"lon":100.28198,"sequence":11},{"stopId":"12001998","stopName":"Lintang Angsana II","stopCode":"IJO1998","lat":5.38804,"lon":100.28272,"sequence":12},{"stopId":"12001372","stopName":"Flat 4E Farlim","stopCode":"IGD1372","lat":5.38613,"lon":100.28323,"sequence":13},{"stopId":"12000048","stopName":"Petronas Farlim","stopCode":"I0L0048","lat":5.38858,"lon":100.28429,"sequence":14},{"stopId":"12000050","stopName":"Klinik Kesihatan Bandar Baru Air Itam","stopCode":"I0L0050","lat":5.38964,"lon":100.28497,"sequence":15},{"stopId":"12001812","stopName":"Masjid Bandar Baru Air Itam","stopCode":"IHX1812","lat":5.39384,"lon":100.2852,"sequence":16},{"stopId":"12001814","stopName":"Pasaraya Sunshine Farlim","stopCode":"IHX1814","lat":5.39577,"lon":100.28657,"sequence":17},{"stopId":"12001815","stopName":"Fortune Court","stopCode":"IHX1815","lat":5.3978,"lon":100.28845,"sequence":18},{"stopId":"12001816","stopName":"Apartmen Desa Mawar","stopCode":"IHX1816","lat":5.40085,"lon":100.29066,"sequence":19},{"stopId":"12001817","stopName":"Wisma Yatim","stopCode":"IHX1817","lat":5.40347,"lon":100.29143,"sequence":20},{"stopId":"12000067","stopName":"Balai Polis Kampung Baru","stopCode":"I0Q0067","lat":5.40526,"lon":100.29424,"sequence":21},{"stopId":"12000069","stopName":"Pasar Kampung Baru","stopCode":"I0Q0069","lat":5.40612,"lon":100.29637,"sequence":22},{"stopId":"12000071","stopName":"Masjid Negeri P.Pinang","stopCode":"I0Q0071","lat":5.40777,"lon":100.29997,"sequence":23},{"stopId":"12000073","stopName":"(M2) SMKA Al-Mashoor(Hentian Transit)","stopCode":"I0Q0073","lat":5.40832,"lon":100.3037,"sequence":24},{"stopId":"12000074","stopName":"SMK (L) Methodist","stopCode":"I0Q0074","lat":5.41018,"lon":100.30699,"sequence":25},{"stopId":"12000448","stopName":"Dhoby Ghaut","stopCode":"IBF0448","lat":5.41269,"lon":100.30969,"sequence":26},{"stopId":"12000460","stopName":"Penjara P.Pinang(Hospital)","stopCode":"IBF0460","lat":5.41364,"lon":100.31312,"sequence":27},{"stopId":"12000455","stopName":"Padang Brown","stopCode":"IBF0455","lat":5.41289,"lon":100.31799,"sequence":28},{"stopId":"12000445","stopName":"Kampung Makam","stopCode":"IBF0445","lat":5.41239,"lon":100.32112,"sequence":29},{"stopId":"12000453","stopName":"Pasar Jalan Kuantan","stopCode":"IBF0453","lat":5.41278,"lon":100.32437,"sequence":30},{"stopId":"12000459","stopName":"Penang Times Square","stopCode":"IBF0459","lat":5.41332,"lon":100.3262,"sequence":31},{"stopId":"12000462","stopName":"Pasaraya Gama","stopCode":"IBF0462","lat":5.41384,"lon":100.32789,"sequence":32},{"stopId":"12001060","stopName":"Komtar Utara","stopCode":"IEV1060","lat":5.41513,"lon":100.32899,"sequence":33},{"stopId":"12001832","stopName":"Wisma MCA","stopCode":"IIC1832","lat":5.41841,"lon":100.32954,"sequence":34},{"stopId":"12001835","stopName":"Transfer Road","stopCode":"IIC1835","lat":5.42088,"lon":100.33061,"sequence":35},{"stopId":"12001399","stopName":"Pejabat Maritim","stopCode":"IGN1399","lat":5.42175,"lon":100.33142,"sequence":36},{"stopId":"12001397","stopName":"Sri Bahari","stopCode":"IGN1397","lat":5.42089,"lon":100.33248,"sequence":37},{"stopId":"12001921","stopName":"H.S. Sam Book Store","stopCode":"IIP1921","lat":5.41933,"lon":100.33411,"sequence":38},{"stopId":"12001919","stopName":"Love Lane","stopCode":"IIP1919","lat":5.41834,"lon":100.3364,"sequence":39},{"stopId":"12001917","stopName":"Little India","stopCode":"IIP1917","lat":5.41647,"lon":100.33854,"sequence":40},{"stopId":"12002318","stopName":"Container Hotel","stopCode":"ICT0052","lat":5.4142,"lon":100.34045,"sequence":41},{"stopId":"12002056","stopName":"Jejantas Terminal Feri","stopCode":"IKI2056","lat":5.41452,"lon":100.34187,"sequence":42},{"stopId":"12002058","stopName":"Pejabat Pos Besar P.Pinang","stopCode":"IKI2058","lat":5.41721,"lon":100.34428,"sequence":43},{"stopId":"12002971","stopName":"Pejabat Pos Besar P.Pinang 1","stopCode":"IIR1926","lat":5.41802,"lon":100.34369,"sequence":44},{"stopId":"12001943","stopName":"Balai Polis","stopCode":"IIZ1943","lat":5.41865,"lon":100.34356,"sequence":45},{"stopId":"12002972","stopName":"Swettenham Pier Cruise Terminal","stopCode":"IIR1927","lat":5.4185,"lon":100.34508,"sequence":46},{"stopId":"12002057","stopName":"Church Street Pier","stopCode":"IKI2057","lat":5.41664,"lon":100.34413,"sequence":47},{"stopId":"12002114","stopName":"(M1) JETTY B","stopCode":"IKI2053","lat":5.41379,"lon":100.34178,"sequence":48}],"shape":[[5.40421,100.28053],[5.40372,100.27964],[5.40323,100.27867],[5.40309,100.27854],[5.40276,100.27847],[5.4014,100.27828],[5.40042,100.27813],[5.40018,100.27809],[5.39981,100.27799],[5.39917,100.27779],[5.39846,100.27753],[5.39809,100.27739],[5.39755,100.27706],[5.39737,100.27692],[5.39714,100.27687],[5.39679,100.27678],[5.39647,100.27678],[5.39604,100.27683],[5.39558,100.27681],[5.39503,100.27672],[5.39472,100.27666],[5.39359,100.27627],[5.39277,100.276],[5.39211,100.27576],[5.39197,100.2757],[5.39122,100.27545],[5.39054,100.27527],[5.39031,100.27527],[5.39011,100.2752],[5.38922,100.27483],[5.38808,100.27461],[5.38742,100.27452],[5.38671,100.27448],[5.38641,100.27453],[5.38607,100.27468],[5.38532,100.27492],[5.38497,100.27507],[5.38467,100.2752],[5.38471,100.27529],[5.38482,100.27536],[5.38499,100.27543],[5.38542,100.27561],[5.38594,100.27593],[5.38616,100.27609],[5.38666,100.27652],[5.38696,100.27678],[5.38713,100.277],[5.38722,100.27709],[5.38757,100.2776],[5.38758,100.27771],[5.38771,100.27783],[5.38826,100.27876],[5.38979,100.28119],[5.38987,100.2813],[5.38991,100.28136],[5.3898,100.28144],[5.38886,100.28206],[5.38818,100.28263],[5.38795,100.28284],[5.38744,100.28342],[5.38734,100.28347],[5.38741,100.28353],[5.38804,100.28396],[5.38815,100.28406],[5.38808,100.2842],[5.38789,100.28443],[5.38782,100.28444],[5.38722,100.28403],[5.38655,100.28354],[5.38634,100.28336],[5.38616,100.2832],[5.386,100.28302],[5.38582,100.28284],[5.38574,100.28272],[5.38574,100.28271],[5.38574,100.28267],[5.38601,100.28248],[5.38615,100.28241],[5.38656,100.28289],[5.38734,100.28347],[5.38741,100.28353],[5.38804,100.28396],[5.38815,100.28406],[5.38832,100.28414],[5.38913,100.28467],[5.38959,100.28498],[5.39034,100.28547],[5.39052,100.2855],[5.3912,100.28545],[5.39194,100.28538],[5.39201,100.2854],[5.39211,100.28536],[5.39226,100.28534],[5.39229,100.28536],[5.39232,100.28534],[5.3924,100.28533],[5.39242,100.28535],[5.3925,100.28531],[5.39265,100.2853],[5.3927,100.28531],[5.3928,100.28528],[5.39356,100.2852],[5.39387,100.28519],[5.3941,100.28524],[5.39428,100.28534],[5.39443,100.28544],[5.39461,100.28558],[5.39537,100.28628],[5.39583,100.28666],[5.39641,100.28712],[5.39679,100.28748],[5.39726,100.28802],[5.39784,100.28853],[5.39856,100.28909],[5.39868,100.28918],[5.39929,100.2897],[5.39995,100.29022],[5.40023,100.29036],[5.40071,100.29061],[5.40216,100.29102],[5.40316,100.29131],[5.4039,100.29153],[5.4041,100.29153],[5.40455,100.29144],[5.4047,100.29142],[5.40474,100.29145],[5.40479,100.29141],[5.40482,100.29141],[5.40484,100.29144],[5.40501,100.29214],[5.40513,100.29263],[5.40525,100.29373],[5.40536,100.29524],[5.40555,100.29565],[5.40621,100.29662],[5.40646,100.29687],[5.40654,100.29692],[5.40669,100.29704],[5.40694,100.29726],[5.40763,100.29796],[5.40787,100.29835],[5.40796,100.29867],[5.40797,100.29878],[5.40797,100.29889],[5.40795,100.29918],[5.40788,100.29951],[5.40766,100.30032],[5.40752,100.30089],[5.40749,100.30118],[5.40749,100.30137],[5.40754,100.30155],[5.40782,100.30231],[5.40788,100.30253],[5.408,100.30279],[5.40809,100.3031],[5.40848,100.30424],[5.40893,100.30561],[5.40914,100.30613],[5.40941,100.30646],[5.40995,100.30696],[5.41062,100.30748],[5.41126,100.30813],[5.4116,100.30847],[5.4116,100.30858],[5.41205,100.30903],[5.41266,100.30969],[5.41312,100.31022],[5.41338,100.31052],[5.4135,100.31073],[5.41356,100.31101],[5.41364,100.31134],[5.41366,100.3119],[5.41363,100.31285],[5.41358,100.31372],[5.41353,100.31418],[5.4134,100.31463],[5.41302,100.31565],[5.41291,100.31613],[5.41289,100.31666],[5.41286,100.31747],[5.41288,100.31862],[5.41285,100.3191],[5.41279,100.3194],[5.4125,100.32056],[5.41231,100.32144],[5.41221,100.3221],[5.41214,100.32277],[5.41209,100.32317],[5.41215,100.32352],[5.4123,100.32371],[5.41262,100.32409],[5.41284,100.32459],[5.41314,100.32538],[5.41333,100.32624],[5.41361,100.3273],[5.41391,100.32795],[5.41409,100.32849],[5.41414,100.32854],[5.41431,100.32877],[5.41446,100.32886],[5.41545,100.32919],[5.41564,100.32928],[5.4162,100.32945],[5.41667,100.32989],[5.41683,100.32992],[5.41696,100.32986],[5.41698,100.32976],[5.41745,100.32922],[5.41766,100.32902],[5.41795,100.32931],[5.41822,100.32947],[5.41866,100.32968],[5.41941,100.33002],[5.42004,100.33027],[5.42151,100.33089],[5.42196,100.3311],[5.42182,100.33131],[5.42168,100.33156],[5.42129,100.33197],[5.42076,100.33267],[5.42064,100.33285],[5.42054,100.33287],[5.42049,100.33292],[5.42025,100.33269],[5.42004,100.33276],[5.41989,100.33285],[5.41982,100.33306],[5.41958,100.33359],[5.41939,100.33399],[5.41927,100.33431],[5.41911,100.33463],[5.41882,100.33537],[5.41847,100.33611],[5.41828,100.33649],[5.41798,100.33694],[5.41764,100.33731],[5.41709,100.33794],[5.41685,100.33817],[5.41666,100.33837],[5.4163,100.33872],[5.4158,100.3392],[5.41547,100.33953],[5.41543,100.33962],[5.41537,100.33961],[5.41489,100.33998],[5.41444,100.3403],[5.41382,100.34073],[5.41372,100.34077],[5.41386,100.34108],[5.41435,100.3417],[5.41512,100.34262],[5.41584,100.34353],[5.41618,100.34377],[5.41719,100.34428],[5.41745,100.34441],[5.4178,100.34401],[5.41794,100.34387],[5.41818,100.34363],[5.41832,100.34349],[5.41842,100.34338],[5.41845,100.34338],[5.41869,100.34363],[5.41876,100.34371],[5.41886,100.34375],[5.41897,100.34385],[5.41912,100.34393],[5.41929,100.34391],[5.41937,100.344],[5.41937,100.34414],[5.41924,100.34422],[5.41918,100.34424],[5.41877,100.34486],[5.41856,100.34502],[5.41835,100.345],[5.41753,100.34456],[5.41666,100.34413],[5.41604,100.34382],[5.41578,100.34359],[5.41541,100.34312],[5.41484,100.34243],[5.41472,100.34232],[5.41428,100.34176],[5.41421,100.34167],[5.41415,100.34166],[5.4139,100.34182],[5.4138,100.34169],[5.41373,100.3416],[5.41386,100.34147],[5.41393,100.34137],[5.41391,100.34129]],"tripIds":["260327010072S12","260327020072S6","260327030072S4","260327030072S10","260327030073S6","260327010073S2","260327010073S10","260327020072S10","260327020073S12","260327030073S8","260327010072S8","260327020073S2","260327020073S10","260327030073S2","260327010072S4","260327010073S4","260327020072S4","260327010073S8","260327010073S12","260327020073S4","260327020073S8","260327030072S2","260327010072S6","260327010072S10","260327020072S12","260327020073S6","260327030072S6","260327010072S2","260327010073S6","260327020072S2","260327020072S8","260327030072S8","260327030073S4","260327030073S10","260327030073S12"],"oppositeTripIds":["260327010073S13","260327020072S3","260327020073S9","260327020073S13","260327030073S5","260327030073S9","260327010072S9","260327030072S7","260327010073S3","260327010073S7","260327010073S9","260327020073S3","260327010072S3","260327010072S7","260327010073S5","260327010073S11","260327020073S7","260327030072S5","260327030072S9","260327010072S5","260327020072S11","260327020073S11","260327030072S3","260327020073S5","260327030072S11","260327030073S7","260327020072S5","260327020072S7","260327020072S9","260327030073S3","260327030073S11","260327010072S11","260327030073S13"],"firstDeparture":"05:30","lastDeparture":"21:10","tripCount":35}