{"routeId":"30000008","shortName":"204","directionId":0,"headsign":"JETI- BKT.BENDERA","stops":[{"stopId":"12002114","stopName":"(M1) JETTY B","stopCode":"IKI2053","lat":5.41379,"lon":100.34178,"sequence":1},{"stopId":"12000007","stopName":"Container Hotel","stopCode":"I0D0007","lat":5.41415,"lon":100.34042,"sequence":2},{"stopId":"12002058","stopName":"Pejabat Pos Besar P.Pinang","stopCode":"IKI2058","lat":5.41721,"lon":100.34428,"sequence":3},{"stopId":"12002971","stopName":"Pejabat Pos Besar P.Pinang 1","stopCode":"IIR1926","lat":5.41802,"lon":100.34369,"sequence":4},{"stopId":"12001943","stopName":"Balai Polis","stopCode":"IIZ1943","lat":5.41865,"lon":100.34356,"sequence":5},{"stopId":"12001935","stopName":"Bank Negara Malaysia","stopCode":"IIU1935","lat":5.42049,"lon":100.34087,"sequence":6},{"stopId":"12001926","stopName":"Muzium Pulau Pinang","stopCode":"IIS1926","lat":5.42045,"lon":100.3391,"sequence":7},{"stopId":"12001928","stopName":"SMK ST. Xavier","stopCode":"IIS1928","lat":5.42126,"lon":100.33701,"sequence":8},{"stopId":"12001066","stopName":"Hotel Cititel","stopCode":"IEV1066","lat":5.42143,"lon":100.3337,"sequence":9},{"stopId":"12001064","stopName":"Penang Road","stopCode":"IEV1064","lat":5.41925,"lon":100.33199,"sequence":10},{"stopId":"12001061","stopName":"Pasar Chowrasta","stopCode":"IEV1061","lat":5.41813,"lon":100.33125,"sequence":11},{"stopId":"12002116","stopName":"Terminal Komtar","stopCode":"IFW1356","lat":5.41418,"lon":100.33031,"sequence":12},{"stopId":"12000461","stopName":"Pasaraya Gama","stopCode":"IBF0461","lat":5.41382,"lon":100.3281,"sequence":13},{"stopId":"12000456","stopName":"Penang Times Square","stopCode":"IBF0456","lat":5.41315,"lon":100.32621,"sequence":14},{"stopId":"12000443","stopName":"Pasar Jalan Kuantan","stopCode":"IBF0443","lat":5.41218,"lon":100.32367,"sequence":15},{"stopId":"12002112","stopName":"Kampung Makam","stopCode":"IBF0446","lat":5.41227,"lon":100.32089,"sequence":16},{"stopId":"12000449","stopName":"SMK/SK Convent Dato Keramat","stopCode":"IBF0449","lat":5.4127,"lon":100.31805,"sequence":17},{"stopId":"12000458","stopName":"Stadium Bandaraya","stopCode":"IBF0458","lat":5.41324,"lon":100.31458,"sequence":18},{"stopId":"12000077","stopName":"Masjid Jamek Sheikh Yusof(Hospital)","stopCode":"I0Q0077","lat":5.41355,"lon":100.31131,"sequence":19},{"stopId":"12000076","stopName":"Dhoby Ghaut","stopCode":"I0Q0076","lat":5.41246,"lon":100.30957,"sequence":20},{"stopId":"12000075","stopName":"SMK Sri Mutiara","stopCode":"I0Q0075","lat":5.41031,"lon":100.30745,"sequence":21},{"stopId":"12000072","stopName":"Han Chiang College","stopCode":"I0Q0072","lat":5.40803,"lon":100.30364,"sequence":22},{"stopId":"12000070","stopName":"Masjid Negeri P.Pinang(Hentian Transit)","stopCode":"I0Q0070","lat":5.40765,"lon":100.29972,"sequence":23},{"stopId":"12000069","stopName":"Pasar Kampung Baru","stopCode":"I0Q0069","lat":5.40612,"lon":100.29637,"sequence":24},{"stopId":"12000962","stopName":"Apartmen Rifle Court","stopCode":"IEJ0962","lat":5.40678,"lon":100.29602,"sequence":25},{"stopId":"12000964","stopName":"Villa Sri Melati Apartment","stopCode":"IEJ0964","lat":5.4073,"lon":100.29462,"sequence":26},{"stopId":"12000966","stopName":"PBA","stopCode":"IEJ0966","lat":5.40882,"lon":100.29327,"sequence":27},{"stopId":"12000968","stopName":"SK Padang Tembak","stopCode":"IEJ0968","lat":5.41019,"lon":100.29205,"sequence":28},{"stopId":"12001378","stopName":"Flat Padang Tembak","stopCode":"IGE1378","lat":5.41046,"lon":100.29009,"sequence":29},{"stopId":"12001376","stopName":"Jalan Sempadan","stopCode":"IGE1376","lat":5.40766,"lon":100.28867,"sequence":30},{"stopId":"12001375","stopName":"Pejabat Pos Padang Tembak","stopCode":"IGE1375","lat":5.40694,"lon":100.2884,"sequence":31},{"stopId":"12001374","stopName":"Nasi Kandar Salam","stopCode":"IGE1374","lat":5.40519,"lon":100.28876,"sequence":32},{"stopId":"12000627","stopName":"Jalan Kampung Melayu","stopCode":"ICH0627","lat":5.40359,"lon":100.28847,"sequence":33},{"stopId":"12000625","stopName":"SK Sri Aman","stopCode":"ICH0625","lat":5.39993,"lon":100.28603,"sequence":34},{"stopId":"12000623","stopName":"Medan Niaga Kampung Melayu","stopCode":"ICH0623","lat":5.39941,"lon":100.28599,"sequence":35},{"stopId":"12001323","stopName":"Jalan Pisang Embun","stopCode":"IFR1323","lat":5.39853,"lon":100.28353,"sequence":36},{"stopId":"12000635","stopName":"Kampung Pisang","stopCode":"ICJ0635","lat":5.39829,"lon":100.28194,"sequence":37},{"stopId":"12000637","stopName":"Kampung Pisang II","stopCode":"ICJ0637","lat":5.39923,"lon":100.27958,"sequence":38},{"stopId":"12001037","stopName":"Ambank Paya Terubong","stopCode":"IER1037","lat":5.39975,"lon":100.27792,"sequence":39},{"stopId":"12000151","stopName":"Kek Lok Si Temple","stopCode":"I0Z0151","lat":5.40238,"lon":100.27728,"sequence":40},{"stopId":"12000059","stopName":"Pejabat Pos Ayer Itam","stopCode":"I0Q0059","lat":5.4041,"lon":100.28008,"sequence":41},{"stopId":"12000065","stopName":"Tadika St. Paul","stopCode":"I0Q0065","lat":5.40507,"lon":100.28191,"sequence":42},{"stopId":"12000290","stopName":"Klinik Kesihatan Air Hitam","stopCode":"IAQ0290","lat":5.40581,"lon":100.2826,"sequence":43},{"stopId":"12000291","stopName":"Jalan Bukit Bendera","stopCode":"IAQ0291","lat":5.40637,"lon":100.28088,"sequence":44},{"stopId":"12000293","stopName":"Stesen Bukit Bendera","stopCode":"IAQ0293","lat":5.40786,"lon":100.27749,"sequence":45}],"shape":[[5.41421,100.34167],[5.41415,100.34166],[5.4139,100.34182],[5.4138,100.34169],[5.41373,100.3416],[5.41386,100.34147],[5.41393,100.34137],[5.41391,100.34129],[5.41376,100.34106],[5.41364,100.34085],[5.41372,100.34077],[5.41457,100.34019],[5.41459,100.34022],[5.41519,100.34106],[5.41585,100.34192],[5.4159,100.34194],[5.41512,100.34262],[5.41584,100.34353],[5.41618,100.34377],[5.41719,100.34428],[5.41745,100.34441],[5.4178,100.34401],[5.41794,100.34387],[5.41818,100.34363],[5.41832,100.34349],[5.41842,100.34338],[5.41845,100.34338],[5.41869,100.34363],[5.41876,100.34371],[5.41886,100.34375],[5.41897,100.34385],[5.41912,100.34393],[5.41929,100.34391],[5.4194,100.34368],[5.41947,100.34361],[5.41953,100.3434],[5.41981,100.34262],[5.42004,100.34203],[5.42033,100.34134],[5.42045,100.34104],[5.42065,100.34055],[5.42074,100.34046],[5.4207,100.34034],[5.42062,100.34023],[5.42023,100.33999],[5.42016,100.33985],[5.42013,100.33973],[5.42047,100.33911],[5.42074,100.33847],[5.4209,100.33804],[5.42107,100.33759],[5.42127,100.3371],[5.42141,100.33607],[5.42149,100.33584],[5.42155,100.33564],[5.42165,100.33543],[5.42179,100.33518],[5.42207,100.33485],[5.42222,100.33471],[5.42219,100.33439],[5.4219,100.33412],[5.42153,100.33378],[5.42049,100.33292],[5.42025,100.33269],[5.42,100.33245],[5.41984,100.3324],[5.41945,100.33214],[5.41909,100.33185],[5.41897,100.33175],[5.41863,100.33155],[5.41847,100.33146],[5.41836,100.33139],[5.41805,100.33118],[5.41763,100.3309],[5.41725,100.33061],[5.4171,100.33044],[5.41693,100.3304],[5.41677,100.33044],[5.41656,100.33063],[5.41609,100.331],[5.4155,100.33155],[5.41459,100.33046],[5.41445,100.33059],[5.41427,100.33058],[5.41383,100.33016],[5.41384,100.3297],[5.41371,100.32948],[5.41396,100.32902],[5.41406,100.32874],[5.4139,100.32825],[5.41359,100.32745],[5.41335,100.32671],[5.41313,100.3258],[5.41291,100.32503],[5.41267,100.32447],[5.41254,100.3241],[5.41232,100.32385],[5.41209,100.32357],[5.41201,100.32326],[5.41202,100.32274],[5.41215,100.32183],[5.4123,100.32095],[5.41252,100.31997],[5.41274,100.31909],[5.41274,100.31892],[5.41278,100.31808],[5.41275,100.31749],[5.4128,100.31611],[5.4129,100.3158],[5.41297,100.31564],[5.41325,100.3149],[5.41347,100.3142],[5.41355,100.31323],[5.41361,100.3122],[5.41359,100.31133],[5.41352,100.31099],[5.41343,100.31071],[5.4132,100.31041],[5.41268,100.30976],[5.41163,100.30865],[5.4116,100.30858],[5.41147,100.30852],[5.41116,100.30818],[5.41053,100.30753],[5.40978,100.3069],[5.40935,100.3066],[5.40906,100.30624],[5.40895,100.30599],[5.40832,100.30408],[5.40797,100.30311],[5.40787,100.30283],[5.40778,100.30256],[5.40769,100.30231],[5.40743,100.30156],[5.40738,100.30131],[5.40742,100.30103],[5.40758,100.30029],[5.4078,100.29947],[5.40788,100.29904],[5.40788,100.29885],[5.40787,100.29869],[5.40777,100.29834],[5.40764,100.29808],[5.40737,100.29781],[5.40671,100.29715],[5.40632,100.29693],[5.40588,100.29674],[5.40567,100.29669],[5.4055,100.29653],[5.40539,100.29639],[5.40536,100.29617],[5.40532,100.2958],[5.4054,100.29567],[5.4055,100.29564],[5.40555,100.29565],[5.40621,100.29662],[5.40646,100.29687],[5.40671,100.29631],[5.40693,100.2957],[5.40707,100.29514],[5.40719,100.29485],[5.40738,100.29447],[5.40779,100.29385],[5.4079,100.29374],[5.40909,100.29325],[5.40975,100.29343],[5.40994,100.29339],[5.41004,100.29325],[5.41042,100.29231],[5.41076,100.2915],[5.41104,100.29068],[5.41106,100.29047],[5.41102,100.29043],[5.41089,100.29033],[5.40996,100.28975],[5.40937,100.28937],[5.40905,100.28917],[5.4084,100.28889],[5.40746,100.28848],[5.40722,100.28838],[5.40697,100.28834],[5.40658,100.28833],[5.40622,100.28835],[5.40606,100.28843],[5.40567,100.28868],[5.4055,100.28872],[5.4048,100.28866],[5.40451,100.28854],[5.40449,100.28848],[5.40413,100.28845],[5.40374,100.28841],[5.40265,100.28833],[5.40252,100.28832],[5.4024,100.28829],[5.40234,100.28824],[5.40229,100.28817],[5.40215,100.28786],[5.40208,100.28778],[5.40125,100.28738],[5.40048,100.28699],[5.40008,100.28679],[5.40003,100.2867],[5.40001,100.28651],[5.40003,100.28629],[5.39998,100.28622],[5.39974,100.28615],[5.39908,100.28581],[5.39845,100.28555],[5.39777,100.28528],[5.39812,100.28443],[5.39869,100.28313],[5.39794,100.28277],[5.39837,100.28185],[5.39871,100.28108],[5.39916,100.28002],[5.39918,100.27985],[5.39924,100.27949],[5.39904,100.27829],[5.39915,100.2777],[5.39936,100.27777],[5.3999,100.27795],[5.4003,100.27805],[5.40136,100.2782],[5.40146,100.27752],[5.40154,100.27707],[5.40171,100.27671],[5.40186,100.2766],[5.4021,100.27692],[5.40258,100.27761],[5.40274,100.27792],[5.4028,100.27809],[5.40283,100.27823],[5.4029,100.27836],[5.40301,100.27847],[5.40309,100.27854],[5.40326,100.27861],[5.40349,100.27902],[5.40396,100.27993],[5.40431,100.28053],[5.40549,100.28265],[5.4055,100.28274],[5.40558,100.2828],[5.40563,100.28294],[5.40568,100.28295],[5.40577,100.28278],[5.40582,100.28275],[5.40584,100.28264],[5.40598,100.2822],[5.40632,100.28113],[5.40658,100.28042],[5.4068,100.27983],[5.40697,100.27931],[5.40732,100.27843],[5.40756,100.27794],[5.40767,100.27777],[5.40785,100.27755],[5.408,100.27744]]}