{"routeId":"30000100","shortName":"CT13","directionId":0,"headsign":"CAT BRIDGE - FIZ 1.2.3","stops":[{"stopId":"12002530","stopName":"Hotel Blanket","stopCode":"ICT0303","lat":5.39485,"lon":100.40001,"sequence":1},{"stopId":"12001809","stopName":"Pasar Awam","stopCode":"MHV1809","lat":5.39298,"lon":100.4016,"sequence":2},{"stopId":"12001388","stopName":"SP Arena","stopCode":"MGJ1388","lat":5.38636,"lon":100.40236,"sequence":3},{"stopId":"12002994","stopName":"Taman Tun Hussein Onn","stopCode":"MJY2027","lat":5.38615,"lon":100.40574,"sequence":4},{"stopId":"12001067","stopName":"(M2) Megamall - Pacific","stopCode":"MEW1067","lat":5.37879,"lon":100.39794,"sequence":5},{"stopId":"12002108","stopName":"Jambatan Pulau Pinang","stopCode":"M002108","lat":5.3558,"lon":100.39232,"sequence":6},{"stopId":"12001981","stopName":"Batu Uban Highway","stopCode":"IJJ1981","lat":5.35125,"lon":100.30986,"sequence":7},{"stopId":"12002068","stopName":"Jeti Pulau Jerejak","stopCode":"IKJ2068","lat":5.34299,"lon":100.31141,"sequence":8},{"stopId":"12002064","stopName":"Gold Coast Kondominium","stopCode":"IKJ2064","lat":5.33974,"lon":100.30965,"sequence":9},{"stopId":"12002303","stopName":"KWSP Queensbay","stopCode":"ICT0031","lat":5.33692,"lon":100.30844,"sequence":10},{"stopId":"12002060","stopName":"Hadapan Queensbay Mall","stopCode":"IKJ2060","lat":5.33233,"lon":100.30773,"sequence":11},{"stopId":"12002059","stopName":"Queensbay Mall","stopCode":"IKJ2059","lat":5.33195,"lon":100.30791,"sequence":12},{"stopId":"12002483","stopName":"Krystal Point Corporate Park","stopCode":"ICT0500","lat":5.33108,"lon":100.29709,"sequence":13},{"stopId":"12001843","stopName":"Kompleks Bukit Jambul II","stopCode":"IID1843","lat":5.33242,"lon":100.29099,"sequence":14},{"stopId":"12001844","stopName":"Masjid Al- Ittifaq","stopCode":"IID1844","lat":5.33245,"lon":100.28696,"sequence":15},{"stopId":"12001841","stopName":"Sungai Nibong Kecil","stopCode":"IID1841","lat":5.33193,"lon":100.28465,"sequence":16},{"stopId":"12000851","stopName":"(M2) Spice","stopCode":"IDN0851","lat":5.32736,"lon":100.28051,"sequence":17},{"stopId":"12000882","stopName":"Masjid Bayan Baru","stopCode":"IDT0882","lat":5.32367,"lon":100.28688,"sequence":18},{"stopId":"12000885","stopName":"Sunshine Square","stopCode":"IDT0885","lat":5.3255,"lon":100.2875,"sequence":19},{"stopId":"12000849","stopName":"Jalan Mahsuri","stopCode":"IDN0849","lat":5.32695,"lon":100.28878,"sequence":20},{"stopId":"12001933","stopName":"Mapa Glove","stopCode":"IIT1933","lat":5.32757,"lon":100.29807,"sequence":21},{"stopId":"12000014","stopName":"GUH Holdings","stopCode":"I0F0014","lat":5.32858,"lon":100.30004,"sequence":22},{"stopId":"12000013","stopName":"Intel PG12","stopCode":"I0F0013","lat":5.32847,"lon":100.30004,"sequence":23},{"stopId":"12001931","stopName":"Intel","stopCode":"IIT1931","lat":5.32726,"lon":100.29819,"sequence":24},{"stopId":"12001930","stopName":"ISO Tech","stopCode":"IIT1930","lat":5.32387,"lon":100.29717,"sequence":25},{"stopId":"12002094","stopName":"AMD","stopCode":"IKT2094","lat":5.32274,"lon":100.29578,"sequence":26},{"stopId":"12002011","stopName":"Western Digital","stopCode":"IJR2011","lat":5.32235,"lon":100.29368,"sequence":27},{"stopId":"12002095","stopName":"TPC (M) Sdn. Bhd.","stopCode":"IKT2095","lat":5.32103,"lon":100.29422,"sequence":28},{"stopId":"12001961","stopName":"Knowles Electronics","stopCode":"IJH1961","lat":5.31289,"lon":100.29862,"sequence":29},{"stopId":"12001963","stopName":"Cincaria Sdn. Bhd","stopCode":"IJH1963","lat":5.31434,"lon":100.29616,"sequence":30},{"stopId":"12001965","stopName":"Plexus Riverside","stopCode":"IJH1965","lat":5.3169,"lon":100.2962,"sequence":31},{"stopId":"12001967","stopName":"UTIC Service","stopCode":"IJH1967","lat":5.31892,"lon":100.29341,"sequence":32},{"stopId":"12001968","stopName":"PSDC","stopCode":"IJH1968","lat":5.32003,"lon":100.29091,"sequence":33},{"stopId":"12001426","stopName":"Snake Temple","stopCode":"IGR1426","lat":5.31388,"lon":100.28609,"sequence":34},{"stopId":"12001424","stopName":"Kilang Clarion","stopCode":"IGR1424","lat":5.30821,"lon":100.28236,"sequence":35},{"stopId":"12000874","stopName":"Dynacraft Industries","stopCode":"IDT0874","lat":5.30508,"lon":100.27721,"sequence":36},{"stopId":"12000875","stopName":"Towa (M) Sdn. Bhd.","stopCode":"IDT0875","lat":5.3065,"lon":100.27693,"sequence":37},{"stopId":"12001952","stopName":"B. Braun","stopCode":"IJC1952","lat":5.31256,"lon":100.28348,"sequence":38},{"stopId":"12001950","stopName":"Renesas","stopCode":"IJC1950","lat":5.31128,"lon":100.28414,"sequence":39},{"stopId":"12001949","stopName":"B. Braun 2","stopCode":"IJC1949","lat":5.30919,"lon":100.28263,"sequence":40},{"stopId":"12002043","stopName":"B. Braun Medical","stopCode":"IKD2043","lat":5.30988,"lon":100.28114,"sequence":41},{"stopId":"12002044","stopName":"Plexus Hillside","stopCode":"IKD2044","lat":5.31235,"lon":100.2828,"sequence":42},{"stopId":"12000876","stopName":"Astaka Bukit Gedung","stopCode":"IDT0876","lat":5.31614,"lon":100.28407,"sequence":43},{"stopId":"12002317","stopName":"Pangsapuri Mayang","stopCode":"ICT0050","lat":5.31838,"lon":100.28491,"sequence":44},{"stopId":"12001803","stopName":"SMK Raja Tun uda","stopCode":"IHU1803","lat":5.32036,"lon":100.28318,"sequence":45},{"stopId":"12002974","stopName":"Terminal Bas Bayan Baru","stopCode":"IDN2000","lat":5.32696,"lon":100.28032,"sequence":46}],"shape":[[5.39506,100.39932],[5.39493,100.39938],[5.39485,100.39961],[5.39469,100.40092],[5.39463,100.40172],[5.39461,100.40176],[5.39456,100.40176],[5.39454,100.40172],[5.39448,100.40172],[5.39399,100.40169],[5.3939,100.40167],[5.39207,100.40147],[5.38957,100.40122],[5.38726,100.40098],[5.38707,100.40104],[5.38689,100.40105],[5.38671,100.40114],[5.38657,100.40127],[5.38646,100.40145],[5.3864,100.40159],[5.38629,100.40209],[5.38624,100.40252],[5.38613,100.40317],[5.38596,100.40483],[5.38583,100.4062],[5.38575,100.407],[5.38577,100.40713],[5.38571,100.40774],[5.3867,100.40782],[5.3868,100.40776],[5.38701,100.40649],[5.38695,100.40639],[5.38665,100.40616],[5.3865,100.40602],[5.38635,100.40598],[5.38612,100.40594],[5.38607,100.40588],[5.38608,100.40562],[5.3861,100.40542],[5.38578,100.40533],[5.38555,100.40526],[5.38533,100.40511],[5.3835,100.40489],[5.38204,100.40461],[5.38014,100.40419],[5.37819,100.40363],[5.37628,100.40293],[5.37569,100.40267],[5.37547,100.40272],[5.37522,100.40267],[5.3749,100.40272],[5.3747,100.40282],[5.37454,100.403],[5.37445,100.40325],[5.37446,100.40355],[5.37457,100.4038],[5.3748,100.404],[5.37501,100.4041],[5.37522,100.40409],[5.37546,100.40404],[5.37572,100.40388],[5.37586,100.40367],[5.37601,100.4036],[5.37655,100.40251],[5.37716,100.40146],[5.3774,100.40098],[5.37786,100.40012],[5.37876,100.3985],[5.37939,100.39728],[5.37937,100.39705],[5.37931,100.39686],[5.37863,100.39648],[5.3785,100.39646],[5.37842,100.3965],[5.3783,100.39673],[5.3783,100.39681],[5.37836,100.39693],[5.37907,100.39728],[5.3786,100.39821],[5.37828,100.39809],[5.37773,100.39776],[5.37781,100.39751],[5.37796,100.39719],[5.37811,100.39688],[5.37841,100.39632],[5.37854,100.39633],[5.37871,100.39639],[5.3796,100.39687],[5.37974,100.39695],[5.37969,100.39704],[5.37912,100.39811],[5.37866,100.39897],[5.3784,100.39941],[5.37783,100.40054],[5.37739,100.40134],[5.37689,100.4023],[5.37585,100.40426],[5.37567,100.40458],[5.3754,100.40469],[5.37513,100.40468],[5.37488,100.40453],[5.37467,100.40431],[5.37456,100.40413],[5.37414,100.40288],[5.3739,100.4022],[5.37363,100.40188],[5.37337,100.4017],[5.37327,100.40155],[5.37125,100.4005],[5.36998,100.39978],[5.36985,100.3998],[5.3694,100.39962],[5.36899,100.39953],[5.36875,100.39949],[5.36837,100.39948],[5.36809,100.39949],[5.36791,100.39951],[5.36767,100.39955],[5.36701,100.39975],[5.36673,100.39983],[5.36629,100.40002],[5.36583,100.40019],[5.36554,100.40024],[5.36522,100.40025],[5.36489,100.40019],[5.36472,100.40016],[5.36455,100.40008],[5.36437,100.39996],[5.36422,100.39987],[5.36416,100.3998],[5.36395,100.39959],[5.36383,100.3994],[5.36374,100.39922],[5.36364,100.39905],[5.36359,100.39881],[5.36358,100.3987],[5.36358,100.39865],[5.36356,100.39825],[5.36355,100.39771],[5.36352,100.39719],[5.36343,100.39685],[5.36331,100.39663],[5.36313,100.39636],[5.36292,100.39611],[5.36276,100.39592],[5.36132,100.39521],[5.36008,100.39465],[5.35826,100.39366],[5.35769,100.39332],[5.3565,100.39267],[5.35571,100.39209],[5.35504,100.39147],[5.35425,100.39053],[5.35372,100.38959],[5.35338,100.38871],[5.35322,100.3882],[5.35309,100.38742],[5.35296,100.38594],[5.35277,100.38415],[5.35251,100.38159],[5.35231,100.37959],[5.35204,100.37673],[5.35185,100.37475],[5.35154,100.37142],[5.35123,100.36833],[5.35116,100.36634],[5.35118,100.36541],[5.35128,100.36394],[5.35179,100.36036],[5.35216,100.35799],[5.35251,100.35561],[5.3527,100.35422],[5.35323,100.35068],[5.35366,100.34773],[5.35409,100.34482],[5.35413,100.34463],[5.35535,100.33713],[5.35597,100.3332],[5.35635,100.3307],[5.3568,100.32781],[5.3581,100.31936],[5.3582,100.31881],[5.35817,100.3187],[5.35824,100.31804],[5.35827,100.3176],[5.3583,100.31723],[5.35829,100.31695],[5.35823,100.31668],[5.35815,100.31643],[5.35793,100.31603],[5.35772,100.31575],[5.35745,100.31542],[5.35737,100.31526],[5.35694,100.31467],[5.35678,100.31449],[5.35611,100.3136],[5.3557,100.31308],[5.3553,100.31253],[5.35485,100.31205],[5.35466,100.31176],[5.35336,100.3107],[5.35293,100.31041],[5.35248,100.31019],[5.35121,100.30977],[5.35067,100.30968],[5.35007,100.30963],[5.34976,100.30964],[5.3486,100.30963],[5.34805,100.30954],[5.34736,100.30935],[5.34601,100.30884],[5.34584,100.30887],[5.34572,100.30885],[5.34557,100.30886],[5.34539,100.30896],[5.34526,100.30904],[5.3451,100.30922],[5.345,100.30945],[5.34463,100.31047],[5.34432,100.31128],[5.34422,100.31157],[5.34418,100.31168],[5.34339,100.31149],[5.34287,100.31134],[5.34144,100.31086],[5.34069,100.31054],[5.34042,100.31033],[5.33996,100.30979],[5.33973,100.30952],[5.33964,100.30943],[5.33916,100.3091],[5.33844,100.30887],[5.33807,100.30886],[5.33798,100.30894],[5.33786,100.30896],[5.33773,100.30893],[5.33764,100.30883],[5.3376,100.30865],[5.33705,100.30842],[5.33651,100.30815],[5.33602,100.30777],[5.33533,100.30725],[5.3352,100.30719],[5.33504,100.30711],[5.3349,100.30707],[5.33458,100.30699],[5.33444,100.30696],[5.33391,100.307],[5.33363,100.30706],[5.33315,100.30723],[5.33243,100.30762],[5.3322,100.30782],[5.3319,100.30818],[5.33182,100.30827],[5.33177,100.30838],[5.33182,100.3085],[5.33179,100.30864],[5.33164,100.30874],[5.33149,100.30869],[5.3314,100.3086],[5.33139,100.30849],[5.33141,100.3084],[5.3315,100.30833],[5.33157,100.30831],[5.33171,100.30821],[5.33194,100.30795],[5.33221,100.30767],[5.33238,100.30753],[5.33264,100.30736],[5.33319,100.30709],[5.3336,100.30695],[5.33395,100.30688],[5.33438,100.30686],[5.33485,100.30693],[5.33509,100.307],[5.33536,100.30627],[5.33546,100.30603],[5.33531,100.3059],[5.33475,100.30592],[5.33415,100.30593],[5.33357,100.30589],[5.333,100.30578],[5.33264,100.30566],[5.332,100.30529],[5.33137,100.30484],[5.33102,100.30438],[5.33072,100.30388],[5.33051,100.30343],[5.33037,100.30308],[5.33022,100.30251],[5.33011,100.30203],[5.33002,100.30107],[5.33017,100.30021],[5.33025,100.29986],[5.33048,100.29908],[5.33054,100.2989],[5.33134,100.29629],[5.33143,100.29603],[5.33139,100.29588],[5.33136,100.29577],[5.33116,100.29559],[5.33105,100.29531],[5.33102,100.29515],[5.33108,100.29493],[5.3312,100.29478],[5.33143,100.29463],[5.33154,100.2946],[5.33165,100.29447],[5.33183,100.29429],[5.3319,100.29413],[5.33193,100.29398],[5.33211,100.29323],[5.3324,100.29168],[5.33252,100.29095],[5.33268,100.28998],[5.33272,100.28948],[5.33278,100.28886],[5.33277,100.28871],[5.33269,100.28796],[5.33262,100.28768],[5.33235,100.28639],[5.33226,100.28583],[5.3318,100.28416],[5.33153,100.2832],[5.33148,100.28306],[5.33126,100.28226],[5.33109,100.28164],[5.33102,100.28169],[5.33072,100.28176],[5.33039,100.28184],[5.33027,100.28186],[5.33001,100.28193],[5.32983,100.28196],[5.32966,100.282],[5.3296,100.28206],[5.32955,100.28215],[5.32947,100.2822],[5.32939,100.28221],[5.32933,100.28218],[5.32928,100.28212],[5.32917,100.28205],[5.32908,100.28201],[5.32888,100.28196],[5.32865,100.28192],[5.32842,100.28191],[5.32798,100.28189],[5.32765,100.28188],[5.32752,100.28189],[5.32743,100.28192],[5.32733,100.28196],[5.32721,100.28199],[5.32724,100.28176],[5.32727,100.28151],[5.32741,100.28049],[5.32745,100.28018],[5.32735,100.28006],[5.32722,100.28001],[5.3271,100.28003],[5.32697,100.28009],[5.32675,100.28005],[5.32648,100.28],[5.32594,100.27982],[5.32577,100.27981],[5.32552,100.27978],[5.32532,100.27974],[5.3251,100.2797],[5.32491,100.27967],[5.32484,100.27967],[5.32469,100.27965],[5.32461,100.27963],[5.32446,100.27958],[5.32427,100.27953],[5.32425,100.27961],[5.32412,100.28025],[5.32394,100.28111],[5.32391,100.28121],[5.32391,100.28133],[5.3239,100.28145],[5.32389,100.28153],[5.32387,100.28168],[5.32383,100.28184],[5.32384,100.28184],[5.32375,100.28211],[5.32377,100.28251],[5.32376,100.28284],[5.32373,100.28344],[5.32372,100.28396],[5.32371,100.28435],[5.32365,100.28462],[5.32363,100.28471],[5.32344,100.28549],[5.3232,100.28636],[5.32308,100.28669],[5.32406,100.28703],[5.32488,100.28729],[5.32523,100.28744],[5.32562,100.28756],[5.3259,100.28761],[5.32659,100.28769],[5.32686,100.28771],[5.32697,100.28772],[5.32697,100.28782],[5.32695,100.28811],[5.3269,100.28909],[5.32682,100.28984],[5.32675,100.29029],[5.32664,100.29079],[5.32654,100.29118],[5.32646,100.2915],[5.32639,100.29175],[5.32632,100.29216],[5.32624,100.2924],[5.32612,100.29279],[5.32579,100.29387],[5.3257,100.294],[5.32541,100.29505],[5.3249,100.29674],[5.32482,100.29697],[5.32502,100.29733],[5.32567,100.29751],[5.32622,100.29768],[5.32659,100.29779],[5.32672,100.29784],[5.32727,100.298],[5.32813,100.29824],[5.329,100.29852],[5.32887,100.29889],[5.3287,100.29953],[5.32838,100.30066],[5.32813,100.30144],[5.32796,100.30204],[5.32782,100.30288],[5.32777,100.3029],[5.32778,100.30284],[5.32793,100.30203],[5.32806,100.30154],[5.3284,100.30045],[5.32884,100.2989],[5.32895,100.29855],[5.328,100.29823],[5.32667,100.29786],[5.32642,100.29778],[5.3256,100.29752],[5.32502,100.29733],[5.32489,100.29731],[5.32474,100.29725],[5.32457,100.29721],[5.3244,100.29716],[5.32406,100.29707],[5.3235,100.2969],[5.32299,100.29674],[5.32237,100.29646],[5.32265,100.2958],[5.32304,100.29496],[5.32338,100.2942],[5.32347,100.29402],[5.32296,100.29378],[5.32184,100.29328],[5.32159,100.29313],[5.32121,100.29384],[5.32078,100.29458],[5.32038,100.29529],[5.32027,100.29544],[5.3206,100.29564],[5.32109,100.29591],[5.32165,100.29616],[5.32237,100.29646],[5.32303,100.29673],[5.3235,100.2969],[5.32417,100.29708],[5.3244,100.29716],[5.32461,100.29721],[5.32474,100.29725],[5.32473,100.29736],[5.32469,100.2975],[5.32466,100.29759],[5.32437,100.29853],[5.32425,100.29896],[5.3239,100.30015],[5.32367,100.30093],[5.32334,100.30209],[5.32312,100.30272],[5.32305,100.30299],[5.32299,100.30308],[5.32299,100.30317],[5.32296,100.30327],[5.32292,100.30335],[5.3222,100.30297],[5.32077,100.30223],[5.31982,100.3018],[5.31801,100.30098],[5.31678,100.3004],[5.31621,100.30015],[5.31556,100.29986],[5.31524,100.29979],[5.31358,100.29953],[5.31265,100.29935],[5.31272,100.29917],[5.31274,100.29912],[5.31285,100.29888],[5.31329,100.29816],[5.31396,100.297],[5.31462,100.29586],[5.31488,100.29542],[5.31503,100.29535],[5.31527,100.29538],[5.31552,100.29552],[5.31572,100.29559],[5.31714,100.29624],[5.31771,100.29547],[5.31858,100.29421],[5.31887,100.29373],[5.3189,100.2936],[5.31918,100.29289],[5.31953,100.29194],[5.32019,100.29082],[5.32077,100.28983],[5.32075,100.28965],[5.32014,100.28926],[5.31873,100.28848],[5.31847,100.28836],[5.31827,100.28826],[5.31737,100.28772],[5.31649,100.28723],[5.31602,100.28705],[5.31535,100.28673],[5.31447,100.28627],[5.31375,100.28586],[5.31236,100.285],[5.31115,100.28419],[5.31029,100.28363],[5.30938,100.28301],[5.30901,100.28277],[5.30815,100.28223],[5.30742,100.28178],[5.30667,100.28121],[5.30571,100.28029],[5.305,100.27955],[5.3043,100.27883],[5.30385,100.27836],[5.30393,100.27827],[5.30399,100.27818],[5.30415,100.27805],[5.3048,100.27754],[5.30519,100.27725],[5.30545,100.27712],[5.30561,100.27705],[5.3064,100.27695],[5.30715,100.2768],[5.30729,100.27677],[5.30739,100.27679],[5.30743,100.27682],[5.3075,100.27719],[5.30758,100.27781],[5.30767,100.27805],[5.30783,100.27831],[5.30799,100.27847],[5.30832,100.27866],[5.3087,100.2789],[5.30931,100.27925],[5.30991,100.2796],[5.31022,100.27982],[5.31024,100.27983],[5.31077,100.28022],[5.31117,100.28055],[5.31186,100.281],[5.31205,100.28115],[5.31216,100.28126],[5.31221,100.28133],[5.31232,100.28157],[5.31248,100.28229],[5.31255,100.28251],[5.31265,100.28266],[5.31294,100.28292],[5.3129,100.28299],[5.31285,100.28307],[5.31279,100.28311],[5.3125,100.28359],[5.31214,100.28408],[5.31198,100.28432],[5.31189,100.28437],[5.31172,100.28432],[5.31091,100.28381],[5.3102,100.28332],[5.30957,100.28291],[5.30953,100.28285],[5.30918,100.28267],[5.30873,100.28239],[5.30846,100.28219],[5.30844,100.28214],[5.30853,100.28199],[5.30896,100.28135],[5.30935,100.28081],[5.31036,100.28149],[5.31125,100.28207],[5.31177,100.28239],[5.31279,100.28311],[5.31285,100.28303],[5.31291,100.28295],[5.31294,100.28292],[5.31358,100.28336],[5.31383,100.28346],[5.315,100.2838],[5.31556,100.28395],[5.31564,100.28395],[5.31624,100.28413],[5.31653,100.28421],[5.3169,100.28431],[5.31696,100.28436],[5.31796,100.28476],[5.31861,100.28501],[5.31918,100.28521],[5.31961,100.28541],[5.31972,100.2854],[5.31981,100.28541],[5.32004,100.28491],[5.3201,100.28472],[5.32018,100.28456],[5.32025,100.28409],[5.3205,100.28278],[5.32057,100.28216],[5.32056,100.28146],[5.32068,100.28146],[5.32086,100.28146],[5.32191,100.28152],[5.32247,100.28148],[5.32303,100.2815],[5.32375,100.28153],[5.32389,100.28153],[5.32414,100.28155],[5.32496,100.28157],[5.32579,100.28161],[5.32692,100.28171],[5.32704,100.28171],[5.32717,100.28161],[5.32727,100.28151],[5.32741,100.28049],[5.32745,100.28018],[5.32735,100.28006],[5.32722,100.28001],[5.3271,100.28003],[5.32697,100.28009],[5.32693,100.28023],[5.32691,100.28039],[5.32696,100.28051],[5.32704,100.28059],[5.32715,100.28063],[5.32725,100.28063],[5.3273,100.2806],[5.32731,100.28054]],"tripIds":["260327022012S3","260327022007S2","260327032005S2","260327032000S4","260327012000S4","260327012007S2","260327012000S2","260327032015S5","260327032000S6","260327022013S3","260327022004S4","260327012006S4","260327032016S3","260327032012S5","260327032006S2","260327032004S2","260327032002S2","260327032000S2","260327022006S4","260327022004S2","260327012011S2","260327012006S2","260327032006S4","260327032001S4","260327032001S2","260327022007S4","260327012013S3","260327022000S2","260327032005S4","260327032003S4","260327032003S2","260327032002S4","260327012014S3","260327012004S4","260327012012S3","260327012004S2","260327022006S2","260327032004S4","260327022014S3","260327022011S4","260327032015S3","260327022000S4","260327012011S4","260327012007S4","260327012002S4","260327022011S2","260327032016S5","260327032012S3","260327022002S4"],"oppositeTripIds":["260327032006S5","260327032005S5","260327032002S3","260327022011S3","260327012011S3","260327022014S4","260327012014S4","260327032004S5","260327032003S5","260327032001S3","260327032000S3","260327022014S2","260327012012S2","260327012007S3","260327012006S3","260327012004S3","260327012000S3","260327012004S5","260327022013S4","260327032006S3","260327032004S3","260327032000S5","260327022012S2","260327022006S3","260327022004S3","260327012014S2","260327022000S5","260327012000S5","260327032002S5","260327032001S5","260327022011S5","260327022007S5","260327022004S5","260327012012S4","260327032016S4","260327032015S2","260327032012S4","260327032003S3","260327032000S7","260327022013S2","260327022000S3","260327012011S5","260327012007S5","260327012006S5","260327032016S2","260327032015S4","260327022012S4","260327012013S4","260327032012S2","260327032005S3","260327022007S3","260327012013S2","260327022006S5"],"firstDeparture":"06:00","lastDeparture":"20:20","tripCount":49}