{"routeId":"30000020","shortName":"401E","directionId":0,"headsign":"JETI - BLK.PULAU (EKS)","stops":[{"stopId":"12002113","stopName":"(M1) JETTY A","stopCode":"IKI2054","lat":5.41417,"lon":100.34223,"sequence":1},{"stopId":"12000003","stopName":"Flat Lebuh Noordin","stopCode":"I0B0003","lat":5.41115,"lon":100.33395,"sequence":2},{"stopId":"12002116","stopName":"Terminal Komtar","stopCode":"IFW1356","lat":5.41418,"lon":100.33031,"sequence":3},{"stopId":"12000474","stopName":"Komtar Timur","stopCode":"IBH0474","lat":5.41458,"lon":100.33229,"sequence":4},{"stopId":"12001987","stopName":"Flat Macallum","stopCode":"IJJ1987","lat":5.40704,"lon":100.33189,"sequence":5},{"stopId":"12001986","stopName":"Mutiara Height","stopCode":"IJJ1986","lat":5.38826,"lon":100.31889,"sequence":6},{"stopId":"12001984","stopName":"Jabatan Laut Wilayah Utara","stopCode":"IJJ1984","lat":5.37344,"lon":100.31519,"sequence":7},{"stopId":"12001981","stopName":"Batu Uban Highway","stopCode":"IJJ1981","lat":5.35125,"lon":100.30986,"sequence":8},{"stopId":"12002068","stopName":"Jeti Pulau Jerejak","stopCode":"IKJ2068","lat":5.34299,"lon":100.31141,"sequence":9},{"stopId":"12002064","stopName":"Gold Coast Kondominium","stopCode":"IKJ2064","lat":5.33974,"lon":100.30965,"sequence":10},{"stopId":"12002303","stopName":"KWSP Queensbay","stopCode":"ICT0031","lat":5.33692,"lon":100.30844,"sequence":11},{"stopId":"12002059","stopName":"Queensbay Mall","stopCode":"IKJ2059","lat":5.33195,"lon":100.30791,"sequence":12},{"stopId":"12002483","stopName":"Krystal Point Corporate Park","stopCode":"ICT0500","lat":5.33108,"lon":100.29709,"sequence":13},{"stopId":"12001843","stopName":"Kompleks Bukit Jambul II","stopCode":"IID1843","lat":5.33242,"lon":100.29099,"sequence":14},{"stopId":"12001844","stopName":"Masjid Al- Ittifaq","stopCode":"IID1844","lat":5.33245,"lon":100.28696,"sequence":15},{"stopId":"12001841","stopName":"Sungai Nibong Kecil","stopCode":"IID1841","lat":5.33193,"lon":100.28465,"sequence":16},{"stopId":"12001838","stopName":"SPICE","stopCode":"IID1838","lat":5.33071,"lon":100.28059,"sequence":17},{"stopId":"12000852","stopName":"SPICE Canopy","stopCode":"IDN0852","lat":5.32785,"lon":100.27905,"sequence":18},{"stopId":"12000850","stopName":"I Avenue","stopCode":"IDN0850","lat":5.32716,"lon":100.28524,"sequence":19},{"stopId":"12000887","stopName":"Sunshine Square","stopCode":"IDT0887","lat":5.32553,"lon":100.28769,"sequence":20},{"stopId":"12000880","stopName":"Pasaraya Giant","stopCode":"IDT0880","lat":5.32101,"lon":100.28599,"sequence":21},{"stopId":"12001801","stopName":"Jalan Tengah","stopCode":"IHU1801","lat":5.31906,"lon":100.28724,"sequence":22},{"stopId":"12001426","stopName":"Snake Temple","stopCode":"IGR1426","lat":5.31388,"lon":100.28609,"sequence":23},{"stopId":"12001424","stopName":"Kilang Clarion","stopCode":"IGR1424","lat":5.30821,"lon":100.28236,"sequence":24},{"stopId":"12001420","stopName":"Sungai Tiram","stopCode":"IGR1420","lat":5.30216,"lon":100.2761,"sequence":25},{"stopId":"12001419","stopName":"Chung Shan Chinese School","stopCode":"IGR1419","lat":5.29816,"lon":100.27025,"sequence":26},{"stopId":"12002211","stopName":"(M1) Lapangan Terbang Antarabangsa Pulau Pinang","stopCode":"IGR1417","lat":5.29261,"lon":100.26483,"sequence":27},{"stopId":"12002254","stopName":"Apartment Bayan Permai","stopCode":"IKY2515","lat":5.29525,"lon":100.26251,"sequence":28},{"stopId":"12002255","stopName":"Pekan Bayan Lepas","stopCode":"IKY2516","lat":5.29411,"lon":100.25772,"sequence":29},{"stopId":"12002305","stopName":"Saujana Height","stopCode":"ICT0035","lat":5.29158,"lon":100.25035,"sequence":30},{"stopId":"12002306","stopName":"Teluk Kumbar Height","stopCode":"ICT0036","lat":5.28865,"lon":100.2473,"sequence":31},{"stopId":"12001771","stopName":"Masjid Sungai Batu","stopCode":"IHQ1771","lat":5.28632,"lon":100.241,"sequence":32},{"stopId":"12001772","stopName":"Flat Taman Emas Sungai Batu","stopCode":"IHQ1772","lat":5.2864,"lon":100.23682,"sequence":33},{"stopId":"12002307","stopName":"Pekan Teluk Kumbar","stopCode":"ICT0037","lat":5.28745,"lon":100.23263,"sequence":34},{"stopId":"12001782","stopName":"SK Teluk Kumbar","stopCode":"IHQ1782","lat":5.29114,"lon":100.23249,"sequence":35},{"stopId":"12002553","stopName":"Bandar Baru Perda","stopCode":"ICT8000","lat":5.29323,"lon":100.23228,"sequence":36},{"stopId":"12001784","stopName":"Hentian Kampung Bukit","stopCode":"IHQ1784","lat":5.29606,"lon":100.23228,"sequence":37},{"stopId":"12001787","stopName":"PUSPAKOM","stopCode":"IHQ1787","lat":5.30122,"lon":100.23174,"sequence":38},{"stopId":"12002635","stopName":"Bukit Genting","stopCode":"ICT8881","lat":5.31561,"lon":100.2259,"sequence":39},{"stopId":"12000141","stopName":"Hub Pekan Genting","stopCode":"I0Z0141","lat":5.33336,"lon":100.21667,"sequence":40},{"stopId":"12000143","stopName":"SMK Pondok Upeh Balik Pulau","stopCode":"I0Z0143","lat":5.33659,"lon":100.22011,"sequence":41},{"stopId":"12000145","stopName":"Masjid Daerah Balik Pulau","stopCode":"I0Z0145","lat":5.33861,"lon":100.2222,"sequence":42},{"stopId":"12000146","stopName":"IPD Barat Daya","stopCode":"I0Z0146","lat":5.34166,"lon":100.2254,"sequence":43},{"stopId":"12000148","stopName":"Taman Seri Indah","stopCode":"I0Z0148","lat":5.34345,"lon":100.22733,"sequence":44},{"stopId":"12002280","stopName":"SK Kongsi","stopCode":"ICT0001","lat":5.34657,"lon":100.2305,"sequence":45},{"stopId":"12000138","stopName":"Masjid Kongsi","stopCode":"I0Z0138","lat":5.34812,"lon":100.2321,"sequence":46},{"stopId":"12000150","stopName":"Pejabat Pos Balik Pulau","stopCode":"I0Z0150","lat":5.34925,"lon":100.23331,"sequence":47},{"stopId":"12002281","stopName":"AADK Pekan Kongsi","stopCode":"ICT0002","lat":5.35041,"lon":100.23451,"sequence":48},{"stopId":"12001886","stopName":"SRJK Chong Teik","stopCode":"IIG1886","lat":5.35127,"lon":100.23708,"sequence":49},{"stopId":"12002115","stopName":"Terminal Bas Balik Pulau","stopCode":"IIG1885","lat":5.35145,"lon":100.23982,"sequence":50}],"shape":[[5.41472,100.34232],[5.41433,100.34233],[5.41419,100.34216],[5.41423,100.34205],[5.41429,100.34185],[5.41429,100.34182],[5.41428,100.34176],[5.41421,100.34167],[5.41391,100.34129],[5.41376,100.34106],[5.41364,100.34085],[5.41359,100.34066],[5.41344,100.34045],[5.41307,100.33974],[5.41296,100.33954],[5.41277,100.33918],[5.41261,100.33887],[5.41245,100.33859],[5.41197,100.33772],[5.41137,100.33663],[5.41087,100.33569],[5.4108,100.33549],[5.41065,100.33533],[5.41039,100.33497],[5.4102,100.33466],[5.4103,100.33459],[5.41044,100.33448],[5.41135,100.33392],[5.4116,100.33372],[5.41169,100.33357],[5.41201,100.33292],[5.41241,100.33212],[5.41258,100.33176],[5.41286,100.33122],[5.41315,100.33067],[5.41357,100.33088],[5.41382,100.331],[5.41396,100.33116],[5.41467,100.33194],[5.41486,100.33198],[5.41543,100.33156],[5.4155,100.33155],[5.41459,100.33046],[5.41445,100.33059],[5.41427,100.33058],[5.41383,100.33016],[5.41384,100.3297],[5.41371,100.32948],[5.41396,100.32902],[5.41412,100.32888],[5.41431,100.32885],[5.41446,100.32886],[5.41545,100.32919],[5.41564,100.32928],[5.4162,100.32945],[5.41667,100.32989],[5.41676,100.3302],[5.41667,100.33046],[5.41656,100.33063],[5.41609,100.331],[5.4155,100.33155],[5.41488,100.33204],[5.41456,100.33227],[5.41409,100.33263],[5.41397,100.33271],[5.41383,100.33279],[5.41363,100.33293],[5.41281,100.33354],[5.41199,100.33408],[5.41123,100.33455],[5.4109,100.33471],[5.41066,100.33482],[5.41049,100.3349],[5.41039,100.33497],[5.4102,100.33466],[5.4098,100.33407],[5.40927,100.33353],[5.40871,100.33305],[5.40821,100.33269],[5.408,100.33256],[5.40783,100.33244],[5.40775,100.33238],[5.40762,100.33228],[5.40638,100.33141],[5.4056,100.33084],[5.40491,100.33043],[5.40377,100.32982],[5.4028,100.32929],[5.40123,100.32816],[5.40027,100.32744],[5.39911,100.32642],[5.39902,100.32633],[5.39776,100.32519],[5.39688,100.32438],[5.39471,100.32261],[5.39449,100.32242],[5.39195,100.32038],[5.3912,100.31989],[5.38866,100.3188],[5.38853,100.31874],[5.38702,100.3181],[5.38601,100.31756],[5.38483,100.31696],[5.38419,100.31675],[5.38393,100.31672],[5.38337,100.3167],[5.38291,100.31675],[5.38102,100.31716],[5.38065,100.31722],[5.38007,100.31728],[5.37961,100.31723],[5.37843,100.3169],[5.37645,100.31629],[5.3754,100.3159],[5.37346,100.31508],[5.3725,100.31474],[5.37193,100.31459],[5.37162,100.31453],[5.37134,100.31445],[5.37114,100.31441],[5.37002,100.31421],[5.36931,100.31419],[5.36869,100.31418],[5.36782,100.31422],[5.36663,100.3143],[5.36502,100.31438],[5.36443,100.31453],[5.36351,100.31463],[5.36202,100.3151],[5.36091,100.31542],[5.36039,100.31548],[5.35961,100.31542],[5.3589,100.3152],[5.35841,100.31478],[5.35743,100.31398],[5.35522,100.31217],[5.35466,100.31176],[5.35336,100.3107],[5.35293,100.31041],[5.35248,100.31019],[5.35121,100.30977],[5.35067,100.30968],[5.35007,100.30963],[5.34976,100.30964],[5.3486,100.30963],[5.34805,100.30954],[5.34736,100.30935],[5.34601,100.30884],[5.34584,100.30887],[5.34572,100.30885],[5.34557,100.30886],[5.34539,100.30896],[5.34526,100.30904],[5.3451,100.30922],[5.345,100.30945],[5.34463,100.31047],[5.34432,100.31128],[5.34422,100.31157],[5.34418,100.31168],[5.34339,100.31149],[5.34287,100.31134],[5.34144,100.31086],[5.34069,100.31054],[5.34042,100.31033],[5.33996,100.30979],[5.33973,100.30952],[5.33964,100.30943],[5.33916,100.3091],[5.33844,100.30887],[5.33807,100.30886],[5.33798,100.30894],[5.33786,100.30896],[5.33773,100.30893],[5.33764,100.30883],[5.3376,100.30865],[5.33705,100.30842],[5.33651,100.30815],[5.33602,100.30777],[5.33533,100.30725],[5.3352,100.30719],[5.33504,100.30711],[5.3349,100.30707],[5.33458,100.30699],[5.33444,100.30696],[5.33391,100.307],[5.33363,100.30706],[5.33315,100.30723],[5.33243,100.30762],[5.3322,100.30782],[5.3319,100.30818],[5.33182,100.30827],[5.33177,100.30838],[5.33182,100.3085],[5.33179,100.30864],[5.33164,100.30874],[5.33149,100.30869],[5.3314,100.3086],[5.33139,100.30849],[5.33141,100.3084],[5.3315,100.30833],[5.33157,100.30831],[5.33171,100.30821],[5.33194,100.30795],[5.33221,100.30767],[5.33238,100.30753],[5.33264,100.30736],[5.33319,100.30709],[5.3336,100.30695],[5.33395,100.30688],[5.33438,100.30686],[5.33485,100.30693],[5.33509,100.307],[5.33536,100.30627],[5.33546,100.30603],[5.33531,100.3059],[5.33475,100.30592],[5.33415,100.30593],[5.33357,100.30589],[5.333,100.30578],[5.33264,100.30566],[5.332,100.30529],[5.33137,100.30484],[5.33102,100.30438],[5.33072,100.30388],[5.33051,100.30343],[5.33037,100.30308],[5.33022,100.30251],[5.33011,100.30203],[5.33002,100.30107],[5.33017,100.30021],[5.33025,100.29986],[5.33048,100.29908],[5.33054,100.2989],[5.33134,100.29629],[5.33143,100.29603],[5.33139,100.29588],[5.33136,100.29577],[5.33116,100.29559],[5.33105,100.29531],[5.33102,100.29515],[5.33108,100.29493],[5.3312,100.29478],[5.33143,100.29463],[5.33154,100.2946],[5.33165,100.29447],[5.33183,100.29429],[5.3319,100.29413],[5.33193,100.29398],[5.33211,100.29323],[5.3324,100.29168],[5.33252,100.29095],[5.33268,100.28998],[5.33272,100.28948],[5.33278,100.28886],[5.33277,100.28871],[5.33269,100.28796],[5.33262,100.28768],[5.33235,100.28639],[5.33226,100.28583],[5.3318,100.28416],[5.33153,100.2832],[5.33148,100.28306],[5.33126,100.28226],[5.33109,100.28164],[5.33087,100.28096],[5.33074,100.2805],[5.33068,100.28037],[5.33055,100.28009],[5.33031,100.27972],[5.3301,100.27946],[5.32972,100.27902],[5.32936,100.27879],[5.32898,100.27859],[5.3287,100.27849],[5.3284,100.2784],[5.32815,100.27836],[5.32804,100.27845],[5.32792,100.2785],[5.32754,100.28043],[5.32741,100.28156],[5.32735,100.28177],[5.32733,100.28196],[5.32722,100.28256],[5.32717,100.2831],[5.32714,100.28394],[5.32713,100.28419],[5.32711,100.28502],[5.32709,100.28552],[5.32704,100.28647],[5.32698,100.28749],[5.32697,100.28772],[5.32697,100.28782],[5.32686,100.28781],[5.32665,100.28779],[5.32588,100.28769],[5.32554,100.28763],[5.32483,100.28741],[5.32402,100.28715],[5.32304,100.28679],[5.32193,100.28634],[5.32124,100.28607],[5.32048,100.28577],[5.32035,100.28573],[5.3202,100.28571],[5.31991,100.28557],[5.31981,100.28579],[5.31909,100.28712],[5.31865,100.28792],[5.31855,100.28821],[5.31847,100.28836],[5.31827,100.28826],[5.31737,100.28772],[5.31649,100.28723],[5.31602,100.28705],[5.31535,100.28673],[5.31447,100.28627],[5.31375,100.28586],[5.31236,100.285],[5.31115,100.28419],[5.31029,100.28363],[5.30938,100.28301],[5.30901,100.28277],[5.30815,100.28223],[5.30742,100.28178],[5.30667,100.28121],[5.30571,100.28029],[5.30497,100.2795],[5.30415,100.27864],[5.30332,100.27769],[5.30247,100.27639],[5.30186,100.27548],[5.30106,100.27432],[5.30036,100.2733],[5.29988,100.27253],[5.29891,100.27112],[5.29814,100.27006],[5.29744,100.26918],[5.29735,100.26915],[5.29715,100.26887],[5.29695,100.26851],[5.2968,100.26807],[5.29667,100.26741],[5.29661,100.26713],[5.29647,100.26696],[5.29629,100.26683],[5.29591,100.2668],[5.29584,100.2668],[5.29518,100.26677],[5.29468,100.26671],[5.29354,100.26566],[5.29246,100.26469],[5.29206,100.26428],[5.29213,100.26414],[5.29234,100.26401],[5.29268,100.26389],[5.293,100.26412],[5.29412,100.26518],[5.29531,100.26642],[5.29558,100.26664],[5.29588,100.26674],[5.29629,100.26672],[5.29636,100.26662],[5.29648,100.26648],[5.29648,100.26638],[5.29644,100.26613],[5.29639,100.26588],[5.29635,100.26574],[5.29625,100.26525],[5.29613,100.26478],[5.29602,100.26437],[5.29596,100.26414],[5.29596,100.26409],[5.296,100.26403],[5.29572,100.26316],[5.29563,100.26276],[5.29563,100.26259],[5.2955,100.26229],[5.29538,100.26189],[5.29519,100.26119],[5.29512,100.26094],[5.29499,100.2604],[5.29481,100.2595],[5.29468,100.25867],[5.29459,100.2585],[5.29459,100.25808],[5.29438,100.25674],[5.29432,100.25594],[5.29427,100.25557],[5.29401,100.25482],[5.29396,100.25468],[5.29394,100.25453],[5.29396,100.25437],[5.29412,100.25334],[5.29411,100.25308],[5.29395,100.2528],[5.29388,100.2526],[5.29376,100.25203],[5.2937,100.25183],[5.29337,100.25124],[5.29314,100.25111],[5.29271,100.25102],[5.29254,100.25094],[5.29205,100.25062],[5.29172,100.25038],[5.29106,100.24982],[5.2908,100.24966],[5.29015,100.24942],[5.28972,100.2492],[5.2895,100.24901],[5.28927,100.24877],[5.2891,100.24855],[5.28899,100.24834],[5.28885,100.24802],[5.28878,100.24778],[5.28863,100.24726],[5.2884,100.24657],[5.28797,100.24554],[5.28767,100.24487],[5.28758,100.24456],[5.28754,100.24437],[5.28749,100.24353],[5.28741,100.24333],[5.2873,100.24288],[5.28716,100.24262],[5.28698,100.24228],[5.28675,100.24173],[5.28658,100.24139],[5.28613,100.24075],[5.28605,100.24062],[5.28596,100.24045],[5.28589,100.24024],[5.28581,100.23976],[5.28577,100.23954],[5.28578,100.23918],[5.28582,100.2388],[5.28589,100.23863],[5.28599,100.23814],[5.28623,100.23727],[5.28661,100.23627],[5.28665,100.23602],[5.28659,100.23575],[5.2865,100.23558],[5.28647,100.23529],[5.28648,100.23506],[5.28668,100.23446],[5.28683,100.23401],[5.28709,100.23337],[5.28738,100.23278],[5.28756,100.2325],[5.28777,100.23225],[5.28799,100.23205],[5.2881,100.23197],[5.28823,100.23193],[5.2884,100.23196],[5.28877,100.23217],[5.28888,100.23223],[5.28928,100.23245],[5.28975,100.23261],[5.29013,100.23258],[5.29068,100.23255],[5.2917,100.23252],[5.29204,100.23249],[5.29223,100.23246],[5.29353,100.23228],[5.29451,100.23224],[5.29542,100.23223],[5.29574,100.23225],[5.29604,100.23229],[5.29648,100.23232],[5.29707,100.23239],[5.29785,100.23246],[5.29795,100.23245],[5.2984,100.23239],[5.29888,100.23228],[5.29932,100.23202],[5.2999,100.23178],[5.29996,100.23176],[5.30022,100.23168],[5.30034,100.23168],[5.30096,100.23175],[5.30128,100.23182],[5.30146,100.23184],[5.30172,100.2319],[5.3019,100.23199],[5.30199,100.2321],[5.3021,100.23217],[5.30226,100.23217],[5.30243,100.23212],[5.30257,100.23205],[5.3027,100.23202],[5.30284,100.23203],[5.30296,100.23209],[5.30309,100.23219],[5.30333,100.23235],[5.30349,100.23235],[5.30367,100.23234],[5.30382,100.2324],[5.30394,100.23253],[5.30403,100.23267],[5.30435,100.23294],[5.30461,100.23313],[5.30472,100.23317],[5.30487,100.23321],[5.30513,100.23324],[5.30532,100.23317],[5.30556,100.23304],[5.30615,100.23269],[5.30633,100.23261],[5.30654,100.23256],[5.30672,100.23256],[5.30701,100.23266],[5.30723,100.23277],[5.30765,100.23299],[5.30794,100.23309],[5.30812,100.23306],[5.30832,100.23299],[5.30856,100.23283],[5.30867,100.23266],[5.30877,100.23245],[5.30879,100.23223],[5.30876,100.23202],[5.30864,100.23185],[5.30847,100.2316],[5.30817,100.23108],[5.30811,100.23091],[5.30807,100.23078],[5.30804,100.23065],[5.30801,100.23044],[5.30797,100.23002],[5.30792,100.22939],[5.30794,100.22919],[5.308,100.22901],[5.30814,100.22883],[5.30834,100.22868],[5.3085,100.22862],[5.30873,100.2286],[5.30899,100.22862],[5.30945,100.2287],[5.30965,100.22872],[5.30974,100.22871],[5.3101,100.22861],[5.31032,100.22846],[5.31059,100.22819],[5.31088,100.22792],[5.31122,100.22769],[5.31148,100.22757],[5.31177,100.2275],[5.31198,100.22745],[5.31242,100.22738],[5.31315,100.22714],[5.31362,100.22695],[5.31424,100.22661],[5.31435,100.22656],[5.3145,100.22643],[5.31509,100.22613],[5.31542,100.22607],[5.31591,100.22609],[5.31604,100.2261],[5.31663,100.22612],[5.31741,100.22598],[5.3176,100.22605],[5.31784,100.22609],[5.31865,100.2265],[5.31924,100.22678],[5.3195,100.22687],[5.31973,100.22685],[5.3199,100.22677],[5.32,100.22668],[5.32017,100.22651],[5.32025,100.22628],[5.32025,100.22601],[5.32019,100.22577],[5.32009,100.22553],[5.32003,100.2253],[5.32004,100.22508],[5.32012,100.22486],[5.32024,100.22468],[5.32044,100.22451],[5.32074,100.22441],[5.32125,100.22431],[5.32134,100.22426],[5.3217,100.22405],[5.32196,100.22379],[5.32227,100.22352],[5.32247,100.22336],[5.32284,100.2232],[5.32363,100.22293],[5.32415,100.22274],[5.32513,100.22244],[5.32535,100.22237],[5.32557,100.22231],[5.32603,100.22201],[5.32619,100.22195],[5.32641,100.22184],[5.3265,100.22167],[5.32648,100.22139],[5.32633,100.22095],[5.32629,100.22088],[5.32617,100.2208],[5.32608,100.22066],[5.32602,100.22029],[5.32604,100.22019],[5.3261,100.22005],[5.32622,100.21992],[5.32631,100.21985],[5.32648,100.2196],[5.32698,100.21818],[5.32718,100.21779],[5.32742,100.21745],[5.32807,100.21722],[5.32825,100.21717],[5.32865,100.21711],[5.32905,100.21709],[5.3295,100.21708],[5.32965,100.21703],[5.33003,100.21684],[5.33018,100.21671],[5.33037,100.21656],[5.33051,100.21652],[5.33067,100.21654],[5.33089,100.21656],[5.33102,100.21661],[5.33132,100.21678],[5.33147,100.21683],[5.33178,100.21687],[5.33201,100.21687],[5.33201,100.21663],[5.33222,100.21653],[5.33282,100.21605],[5.33325,100.21654],[5.33353,100.21681],[5.33355,100.21688],[5.33356,100.21695],[5.33366,100.21715],[5.33382,100.21723],[5.33398,100.21733],[5.33415,100.21744],[5.33434,100.21768],[5.33481,100.21821],[5.33504,100.21847],[5.33549,100.21893],[5.33603,100.21953],[5.33618,100.21968],[5.33689,100.22043],[5.33821,100.22172],[5.33853,100.22206],[5.33905,100.22263],[5.33954,100.22314],[5.33996,100.22355],[5.3411,100.22477],[5.34191,100.22564],[5.34297,100.2268],[5.3438,100.22767],[5.3443,100.22823],[5.34465,100.22868],[5.34485,100.22889],[5.3453,100.22937],[5.34552,100.22959],[5.34591,100.22995],[5.34617,100.2302],[5.34661,100.23054],[5.34722,100.2312],[5.3474,100.23136],[5.34807,100.23205],[5.34843,100.23243],[5.34894,100.23297],[5.34938,100.23342],[5.35034,100.23445],[5.35067,100.23476],[5.35082,100.23496],[5.35128,100.23541],[5.3519,100.23585],[5.35183,100.23596],[5.35156,100.23621],[5.35144,100.23639],[5.35135,100.23668],[5.35129,100.2369],[5.35115,100.23754],[5.3511,100.2379],[5.35113,100.23803],[5.35118,100.23915],[5.35126,100.23914],[5.35128,100.23917],[5.35139,100.2392],[5.35143,100.23926],[5.35137,100.23981],[5.35138,100.24004],[5.35146,100.24012],[5.3516,100.24013],[5.35167,100.24005],[5.35168,100.23991],[5.3517,100.23953],[5.35166,100.23945],[5.35152,100.2393],[5.35143,100.23926]]}