{"routeId":"30000008","shortName":"204","directionId":1,"headsign":"BUKIT BENDERA -JETI","stops":[{"stopId":"12000293","stopName":"Stesen Bukit Bendera","stopCode":"IAQ0293","lat":5.40786,"lon":100.27749,"sequence":1},{"stopId":"12000292","stopName":"Pasukan Bomba & Penyelamat","stopCode":"IAQ0292","lat":5.40674,"lon":100.28011,"sequence":2},{"stopId":"12002300","stopName":"Klinik Kesihatan  Air Itam","stopCode":"ICT2024","lat":5.40604,"lon":100.28224,"sequence":3},{"stopId":"12000062","stopName":"SRJK Kong Min Pusat","stopCode":"I0Q0062","lat":5.40454,"lon":100.28109,"sequence":4},{"stopId":"12000058","stopName":"Pejabat Pos Ayer Itam","stopCode":"I0Q0058","lat":5.4038,"lon":100.27982,"sequence":5},{"stopId":"12000057","stopName":"Pekan Air Itam","stopCode":"I0Q0057","lat":5.40182,"lon":100.27837,"sequence":6},{"stopId":"12000638","stopName":"Kampung Pisang","stopCode":"ICJ0638","lat":5.39927,"lon":100.27979,"sequence":7},{"stopId":"12000636","stopName":"Kampung Pisang II","stopCode":"ICJ0636","lat":5.39888,"lon":100.28087,"sequence":8},{"stopId":"12001324","stopName":"Jalan Pisang Embun","stopCode":"IFR1324","lat":5.39858,"lon":100.2836,"sequence":9},{"stopId":"12000624","stopName":"Flat Kampung Melayu","stopCode":"ICH0624","lat":5.39972,"lon":100.28604,"sequence":10},{"stopId":"12000626","stopName":"Makam Shaikh Omar","stopCode":"ICH0626","lat":5.40091,"lon":100.28718,"sequence":11},{"stopId":"12000628","stopName":"Lorong Kampung Melayu","stopCode":"ICH0628","lat":5.40372,"lon":100.28837,"sequence":12},{"stopId":"12001373","stopName":"Restoran Nasi Kandar Salam","stopCode":"IGE1373","lat":5.40502,"lon":100.28869,"sequence":13},{"stopId":"12001377","stopName":"Pejabat Pos Padang Tembak","stopCode":"IGE1377","lat":5.40776,"lon":100.28855,"sequence":14},{"stopId":"12001379","stopName":"Flat Padang Tembak","stopCode":"IGE1379","lat":5.41063,"lon":100.29005,"sequence":15},{"stopId":"12000967","stopName":"Kuartes PBA","stopCode":"IEJ0967","lat":5.40959,"lon":100.29346,"sequence":16},{"stopId":"12002299","stopName":"PBA Padang Tembak","stopCode":"ICT2023","lat":5.40821,"lon":100.29369,"sequence":17},{"stopId":"12000963","stopName":"Lorong Padang Tembak","stopCode":"IEJ0963","lat":5.40683,"lon":100.29616,"sequence":18},{"stopId":"12000071","stopName":"Masjid Negeri P.Pinang","stopCode":"I0Q0071","lat":5.40777,"lon":100.29997,"sequence":19},{"stopId":"12000073","stopName":"(M2) SMKA Al-Mashoor(Hentian Transit)","stopCode":"I0Q0073","lat":5.40832,"lon":100.3037,"sequence":20},{"stopId":"12000074","stopName":"SMK (L) Methodist","stopCode":"I0Q0074","lat":5.41018,"lon":100.30699,"sequence":21},{"stopId":"12000448","stopName":"Dhoby Ghaut","stopCode":"IBF0448","lat":5.41269,"lon":100.30969,"sequence":22},{"stopId":"12000460","stopName":"Penjara P.Pinang(Hospital)","stopCode":"IBF0460","lat":5.41364,"lon":100.31312,"sequence":23},{"stopId":"12000455","stopName":"Padang Brown","stopCode":"IBF0455","lat":5.41289,"lon":100.31799,"sequence":24},{"stopId":"12000445","stopName":"Kampung Makam","stopCode":"IBF0445","lat":5.41239,"lon":100.32112,"sequence":25},{"stopId":"12000453","stopName":"Pasar Jalan Kuantan","stopCode":"IBF0453","lat":5.41278,"lon":100.32437,"sequence":26},{"stopId":"12000459","stopName":"Penang Times Square","stopCode":"IBF0459","lat":5.41332,"lon":100.3262,"sequence":27},{"stopId":"12000462","stopName":"Pasaraya Gama","stopCode":"IBF0462","lat":5.41384,"lon":100.32789,"sequence":28},{"stopId":"12001060","stopName":"Komtar Utara","stopCode":"IEV1060","lat":5.41513,"lon":100.32899,"sequence":29},{"stopId":"12001832","stopName":"Wisma MCA","stopCode":"IIC1832","lat":5.41841,"lon":100.32954,"sequence":30},{"stopId":"12001835","stopName":"Transfer Road","stopCode":"IIC1835","lat":5.42088,"lon":100.33061,"sequence":31},{"stopId":"12001399","stopName":"Pejabat Maritim","stopCode":"IGN1399","lat":5.42175,"lon":100.33142,"sequence":32},{"stopId":"12001397","stopName":"Sri Bahari","stopCode":"IGN1397","lat":5.42089,"lon":100.33248,"sequence":33},{"stopId":"12002287","stopName":"Hotel Cititel","stopCode":"ICT0008","lat":5.42168,"lon":100.33383,"sequence":34},{"stopId":"12001929","stopName":"Protestant Cemetry","stopCode":"IIS1929","lat":5.4228,"lon":100.33394,"sequence":35},{"stopId":"12001927","stopName":"Padang SMK Convent","stopCode":"IIS1927","lat":5.42121,"lon":100.33756,"sequence":36},{"stopId":"12001936","stopName":"Dewan Sri Pinang","stopCode":"IIU1936","lat":5.42067,"lon":100.34076,"sequence":37},{"stopId":"12001934","stopName":"Padang Kota Lama","stopCode":"IIU1934","lat":5.41994,"lon":100.34257,"sequence":38},{"stopId":"12002972","stopName":"Swettenham Pier Cruise Terminal","stopCode":"IIR1927","lat":5.4185,"lon":100.34508,"sequence":39},{"stopId":"12002057","stopName":"Church Street Pier","stopCode":"IKI2057","lat":5.41664,"lon":100.34413,"sequence":40},{"stopId":"12002114","stopName":"(M1) JETTY B","stopCode":"IKI2053","lat":5.41379,"lon":100.34178,"sequence":41}],"shape":[[5.40658,100.28042],[5.4068,100.27983],[5.40697,100.27931],[5.40732,100.27843],[5.40756,100.27794],[5.40767,100.27777],[5.40785,100.27755],[5.408,100.27744],[5.40814,100.27736],[5.40818,100.27734],[5.4082,100.27736],[5.4082,100.27739],[5.40806,100.27746],[5.40788,100.2776],[5.4076,100.27798],[5.40737,100.27846],[5.40709,100.27916],[5.40698,100.27943],[5.40681,100.27996],[5.40665,100.2804],[5.40638,100.28116],[5.40587,100.28269],[5.40582,100.28275],[5.40581,100.28284],[5.40575,100.28298],[5.40575,100.28305],[5.40574,100.28311],[5.40567,100.28317],[5.40561,100.28314],[5.40557,100.28309],[5.4055,100.28283],[5.4055,100.28274],[5.40544,100.28269],[5.40469,100.28136],[5.40421,100.28053],[5.40372,100.27964],[5.40323,100.27867],[5.40309,100.27854],[5.40276,100.27847],[5.4014,100.27828],[5.40042,100.27813],[5.40018,100.27809],[5.39981,100.27799],[5.39917,100.27779],[5.39909,100.27835],[5.39929,100.27948],[5.39921,100.28007],[5.39905,100.28044],[5.39801,100.28275],[5.39871,100.28307],[5.39876,100.28316],[5.39854,100.28366],[5.39813,100.28453],[5.39784,100.28524],[5.39823,100.28541],[5.39917,100.2858],[5.39978,100.28611],[5.39996,100.28616],[5.40004,100.28621],[5.40007,100.28631],[5.40006,100.2865],[5.40006,100.28663],[5.40008,100.28672],[5.40014,100.28678],[5.40058,100.28698],[5.40209,100.28775],[5.40219,100.28783],[5.40231,100.28811],[5.40239,100.28823],[5.40253,100.28828],[5.40348,100.28835],[5.40387,100.28837],[5.40416,100.28841],[5.40454,100.28843],[5.40456,100.28852],[5.40477,100.28859],[5.40494,100.28864],[5.40556,100.28867],[5.40568,100.28863],[5.40614,100.28834],[5.40625,100.2883],[5.40668,100.28828],[5.40702,100.2883],[5.40732,100.28837],[5.4074,100.28841],[5.40914,100.28916],[5.41096,100.29033],[5.41105,100.29039],[5.4111,100.29049],[5.41109,100.29065],[5.411,100.29096],[5.41085,100.29137],[5.4106,100.29201],[5.41009,100.29325],[5.41,100.2934],[5.40992,100.29346],[5.40972,100.29347],[5.40916,100.29329],[5.40906,100.2933],[5.4083,100.29362],[5.4079,100.29379],[5.4078,100.29392],[5.40747,100.29442],[5.40721,100.29489],[5.4071,100.29517],[5.40693,100.29581],[5.40676,100.29632],[5.40654,100.29692],[5.40669,100.29704],[5.40694,100.29726],[5.40763,100.29796],[5.40787,100.29835],[5.40796,100.29867],[5.40797,100.29878],[5.40797,100.29889],[5.40795,100.29918],[5.40788,100.29951],[5.40766,100.30032],[5.40752,100.30089],[5.40749,100.30118],[5.40749,100.30137],[5.40754,100.30155],[5.40782,100.30231],[5.40788,100.30253],[5.408,100.30279],[5.40809,100.3031],[5.40848,100.30424],[5.40893,100.30561],[5.40914,100.30613],[5.40941,100.30646],[5.40995,100.30696],[5.41062,100.30748],[5.41126,100.30813],[5.4116,100.30847],[5.4116,100.30858],[5.41205,100.30903],[5.41266,100.30969],[5.41312,100.31022],[5.41338,100.31052],[5.4135,100.31073],[5.41356,100.31101],[5.41364,100.31134],[5.41366,100.3119],[5.41363,100.31285],[5.41358,100.31372],[5.41353,100.31418],[5.4134,100.31463],[5.41302,100.31565],[5.41291,100.31613],[5.41289,100.31666],[5.41286,100.31747],[5.41288,100.31862],[5.41285,100.3191],[5.41279,100.3194],[5.4125,100.32056],[5.41231,100.32144],[5.41221,100.3221],[5.41214,100.32277],[5.41209,100.32317],[5.41215,100.32352],[5.4123,100.32371],[5.41262,100.32409],[5.41284,100.32459],[5.41314,100.32538],[5.41333,100.32624],[5.41361,100.3273],[5.41391,100.32795],[5.41409,100.32849],[5.41414,100.32854],[5.41431,100.32877],[5.41446,100.32886],[5.41545,100.32919],[5.41564,100.32928],[5.4162,100.32945],[5.41667,100.32989],[5.41683,100.32992],[5.41696,100.32986],[5.41698,100.32976],[5.41745,100.32922],[5.41766,100.32902],[5.41795,100.32931],[5.41822,100.32947],[5.41866,100.32968],[5.41941,100.33002],[5.42004,100.33027],[5.42151,100.33089],[5.42196,100.3311],[5.42182,100.33131],[5.42168,100.33156],[5.42129,100.33197],[5.42076,100.33267],[5.42064,100.33285],[5.42066,100.33298],[5.42107,100.33334],[5.42137,100.33359],[5.4217,100.33386],[5.42193,100.33406],[5.42218,100.33432],[5.42219,100.33439],[5.42243,100.3345],[5.42292,100.33386],[5.4232,100.33328],[5.42335,100.33326],[5.42349,100.33326],[5.42358,100.33345],[5.4236,100.3336],[5.42325,100.33501],[5.42304,100.33588],[5.42279,100.33618],[5.42248,100.33638],[5.42203,100.33662],[5.42167,100.33691],[5.42148,100.3371],[5.42131,100.33736],[5.42099,100.33812],[5.42104,100.33835],[5.42112,100.3385],[5.42129,100.33869],[5.42135,100.33887],[5.42093,100.33996],[5.42083,100.34025],[5.42074,100.34046],[5.4207,100.34061],[5.42047,100.34116],[5.42004,100.34222],[5.41976,100.34298],[5.41962,100.34337],[5.41947,100.34361],[5.41948,100.34372],[5.41937,100.344],[5.41937,100.34414],[5.41924,100.34422],[5.41918,100.34424],[5.41877,100.34486],[5.41856,100.34502],[5.41835,100.345],[5.41753,100.34456],[5.41666,100.34413],[5.41604,100.34382],[5.41578,100.34359],[5.41541,100.34312],[5.41484,100.34243],[5.41472,100.34232],[5.41428,100.34176],[5.41421,100.34167],[5.41415,100.34166],[5.4139,100.34182],[5.4138,100.34169],[5.41373,100.3416],[5.41386,100.34147],[5.41393,100.34137],[5.41391,100.34129]],"tripIds":["260327030288S7","260327030083S10","260327030083S6","260327030082S14","260327030082S12","260327030082S4","260327020288S3","260327020085S11","260327020083S8","260327020082S6","260327010288S5","260327010085S9","260327010082S4","260327030085S13","260327030083S4","260327030082S8","260327020082S14","260327020082S12","260327020082S4","260327010288S7","260327010085S13","260327010085S11","260327010083S2","260327010082S8","260327030085S7","260327020085S13","260327010083S6","260327010083S4","260327010082S10","260327010082S2","260327030288S3","260327030085S9","260327030083S8","260327030082S2","260327020288S13","260327020288S11","260327020288S9","260327020085S5","260327020082S2","260327010083S14","260327010083S8","260327010082S6","260327030085S11","260327020085S3","260327020083S6","260327010085S3","260327010083S12","260327010082S12","260327030288S13","260327030288S5","260327030085S15","260327030083S12","260327030083S2","260327020288S5","260327020083S12","260327020082S8","260327010083S10","260327030085S5","260327030082S6","260327020288S7","260327020083S14","260327020083S4","260327020082S10","260327010288S11","260327010288S3","260327030288S11","260327030288S9","260327030085S3","260327030082S10","260327020085S9","260327020085S7","260327020083S10","260327020083S2","260327010288S13","260327010288S9","260327010085S7","260327010085S5","260327010082S14"],"oppositeTripIds":["260327030288S4","260327030085S14","260327030082S3","260327020288S14","260327020288S8","260327020288S2","260327010288S2","260327010082S11","260327010082S9","260327030083S7","260327030082S13","260327020288S6","260327020082S11","260327020082S7","260327010288S12","260327010082S7","260327030288S2","260327030085S4","260327030083S11","260327030083S5","260327020085S2","260327020083S9","260327020082S9","260327010288S14","260327010083S3","260327010082S13","260327030085S12","260327030085S10","260327030085S8","260327030085S2","260327030083S13","260327020288S12","260327020085S12","260327020085S8","260327020085S6","260327020085S4","260327010288S6","260327010085S6","260327010082S3","260327030288S14","260327030085S6","260327030083S9","260327030082S9","260327030082S7","260327030082S5","260327020288S10","260327020085S14","260327020085S10","260327020083S5","260327020082S13","260327010288S10","260327010085S2","260327010083S9","260327030288S6","260327030082S11","260327020083S11","260327020082S5","260327010288S8","260327010288S4","260327010085S8","260327030288S12","260327030288S10","260327030082S15","260327020083S13","260327020083S3","260327020082S3","260327010085S10","260327010083S13","260327010083S5","260327030288S8","260327030083S3","260327020288S4","260327020083S7","260327010085S14","260327010085S12","260327010085S4","260327010083S11","260327010083S7","260327010082S5"],"firstDeparture":"05:30","lastDeparture":"22:35","tripCount":78}