{"routeId":"30000043","shortName":"802","directionId":0,"headsign":"BM - NIBONG TEBAL","stops":[{"stopId":"12002201","stopName":"(M1) The Summit","stopCode":"MOO0056","lat":5.3658,"lon":100.46262,"sequence":1},{"stopId":"12000954","stopName":"Masjid Sungai Rambai","stopCode":"MEI0954","lat":5.3643,"lon":100.45313,"sequence":2},{"stopId":"12000955","stopName":"Padang Lalang","stopCode":"MEI0955","lat":5.36473,"lon":100.44968,"sequence":3},{"stopId":"12000956","stopName":"Masjid Padang Lalang","stopCode":"MEI0956","lat":5.36508,"lon":100.44823,"sequence":4},{"stopId":"12000957","stopName":"Pusat Perniagaan Padang Lalang","stopCode":"MEI0957","lat":5.3652,"lon":100.4464,"sequence":5},{"stopId":"12000958","stopName":"Taman Desa Damai","stopCode":"MEI0958","lat":5.36532,"lon":100.44327,"sequence":6},{"stopId":"12000703","stopName":"Masjid Permatang Kebun Sireh","stopCode":"MCP0703","lat":5.36085,"lon":100.43733,"sequence":7},{"stopId":"12000702","stopName":"SK Kebun Sireh","stopCode":"MCP0702","lat":5.35775,"lon":100.43631,"sequence":8},{"stopId":"12002323","stopName":"Taman Limau Manis","stopCode":"ICT0060","lat":5.35246,"lon":100.43416,"sequence":9},{"stopId":"12000352","stopName":"Petronas Bukit Tengah","stopCode":"MAW0352","lat":5.34982,"lon":100.43389,"sequence":10},{"stopId":"12000351","stopName":"Balai Polis Bukit Tengah","stopCode":"MAW0351","lat":5.34661,"lon":100.43484,"sequence":11},{"stopId":"12000350","stopName":"(M3) Kilang Leader Steel","stopCode":"MAW0350","lat":5.34033,"lon":100.43884,"sequence":12},{"stopId":"12000349","stopName":"DB Schenker","stopCode":"MAW0349","lat":5.33688,"lon":100.44261,"sequence":13},{"stopId":"12002324","stopName":"Petron Bukit Minyak","stopCode":"ICT0061","lat":5.33021,"lon":100.4477,"sequence":14},{"stopId":"12000337","stopName":"Klinik Kesihatan Bukit Minyak","stopCode":"MAU0337","lat":5.32642,"lon":100.44798,"sequence":15},{"stopId":"12000336","stopName":"Taman Pulasan Bukit Minyak","stopCode":"MAU0336","lat":5.32445,"lon":100.44852,"sequence":16},{"stopId":"12002325","stopName":"Leeden Hercules","stopCode":"ICT0062","lat":5.32153,"lon":100.45292,"sequence":17},{"stopId":"12000331","stopName":"Kampung Permatang Tok Subuh","stopCode":"MAU0331","lat":5.31906,"lon":100.45774,"sequence":18},{"stopId":"12000329","stopName":"Taman Markisah","stopCode":"MAU0329","lat":5.31616,"lon":100.46169,"sequence":19},{"stopId":"12000327","stopName":"Taman Sukun Indah","stopCode":"MAU0327","lat":5.31311,"lon":100.46412,"sequence":20},{"stopId":"12001279","stopName":"Taman Sukun","stopCode":"MFK1279","lat":5.31038,"lon":100.4664,"sequence":21},{"stopId":"12001276","stopName":"Taman Industri Ringan","stopCode":"MFK1276","lat":5.30628,"lon":100.47027,"sequence":22},{"stopId":"12002326","stopName":"Essex","stopCode":"ICT0063","lat":5.30432,"lon":100.47229,"sequence":23},{"stopId":"12001273","stopName":"SRJK Permatang Tinggi","stopCode":"MFK1273","lat":5.30021,"lon":100.47737,"sequence":24},{"stopId":"12002327","stopName":"Taman Permatang Tinggi Indah","stopCode":"ICT0064","lat":5.29515,"lon":100.47923,"sequence":25},{"stopId":"12002328","stopName":"Shell Simpang Empat","stopCode":"ICT0065","lat":5.28901,"lon":100.47824,"sequence":26},{"stopId":"12002329","stopName":"Masjid Simpang Empat","stopCode":"ICT0066","lat":5.28295,"lon":100.47667,"sequence":27},{"stopId":"12001264","stopName":"SMK Simpang Empat","stopCode":"MFK1264","lat":5.2792,"lon":100.47689,"sequence":28},{"stopId":"12001262","stopName":"Taman Tiong Mas","stopCode":"MFK1262","lat":5.27587,"lon":100.47706,"sequence":29},{"stopId":"12001260","stopName":"Taman Tempua","stopCode":"MFK1260","lat":5.27178,"lon":100.47683,"sequence":30},{"stopId":"12001259","stopName":"Taman Belibis","stopCode":"MFK1259","lat":5.26949,"lon":100.47668,"sequence":31},{"stopId":"12001258","stopName":"Taman Tangling","stopCode":"MFK1258","lat":5.26822,"lon":100.476,"sequence":32},{"stopId":"12001256","stopName":"Menara Kerjaya Simpang Empat","stopCode":"MFK1256","lat":5.26493,"lon":100.47425,"sequence":33},{"stopId":"12002330","stopName":"Balai Bomba Sungai Bakap","stopCode":"ICT0067","lat":5.26162,"lon":100.4729,"sequence":34},{"stopId":"12000284","stopName":"Kilang Silitech","stopCode":"MAM0284","lat":5.25639,"lon":100.4724,"sequence":35},{"stopId":"12002331","stopName":"Premium Outlet","stopCode":"ICT0068","lat":5.25056,"lon":100.47525,"sequence":36},{"stopId":"12000281","stopName":"SJK Tamil Valdor","stopCode":"MAM0281","lat":5.24596,"lon":100.48027,"sequence":37},{"stopId":"12000279","stopName":"Taman Rebana","stopCode":"MAM0279","lat":5.24192,"lon":100.4844,"sequence":38},{"stopId":"12001484","stopName":"Lean Teik Trading","stopCode":"MGV1484","lat":5.23714,"lon":100.4893,"sequence":39},{"stopId":"12001487","stopName":"Taman Sri Aman","stopCode":"MGV1487","lat":5.23365,"lon":100.49107,"sequence":40},{"stopId":"12001485","stopName":"Taman Gamelan","stopCode":"MGV1485","lat":5.23077,"lon":100.49233,"sequence":41},{"stopId":"12000277","stopName":"Taman Jelatik","stopCode":"MAL0277","lat":5.22485,"lon":100.49545,"sequence":42},{"stopId":"12000276","stopName":"Masjid Lama Sungai Bakap","stopCode":"MAL0276","lat":5.22183,"lon":100.49725,"sequence":43},{"stopId":"12000275","stopName":"Hospital Sungai Bakap","stopCode":"MAL0275","lat":5.21959,"lon":100.49815,"sequence":44},{"stopId":"12000274","stopName":"Kinik Kesihatan Sungai Bakap","stopCode":"MAL0274","lat":5.21714,"lon":100.49754,"sequence":45},{"stopId":"12001483","stopName":"Perkampungan Jawi","stopCode":"MGV1483","lat":5.21248,"lon":100.49722,"sequence":46},{"stopId":"12002332","stopName":"JKR Jawi","stopCode":"ICT0069","lat":5.20781,"lon":100.49773,"sequence":47},{"stopId":"12000925","stopName":"Taman Jawi Jaya","stopCode":"MEB0925","lat":5.20034,"lon":100.49492,"sequence":48},{"stopId":"12000924","stopName":"SK Jawi","stopCode":"MEB0924","lat":5.19728,"lon":100.49322,"sequence":49},{"stopId":"12000921","stopName":"Taman Jawi Ria","stopCode":"MEB0921","lat":5.19303,"lon":100.49092,"sequence":50},{"stopId":"12000920","stopName":"Taman Sintar","stopCode":"MEB0920","lat":5.18508,"lon":100.48657,"sequence":51},{"stopId":"12002333","stopName":"Teck Land Motors","stopCode":"ICT0070","lat":5.18064,"lon":100.48414,"sequence":52},{"stopId":"12000917","stopName":"Balai Polis Lama Bukit Panchor","stopCode":"MEB0917","lat":5.17723,"lon":100.48228,"sequence":53},{"stopId":"12002107","stopName":"Hub Nibong Tebal","stopCode":"M002107","lat":5.16784,"lon":100.4783,"sequence":54}],"shape":[[5.36539,100.46266],[5.36535,100.46272],[5.36537,100.46281],[5.36545,100.46284],[5.36568,100.46286],[5.36591,100.46292],[5.36618,100.46302],[5.3663,100.46298],[5.36636,100.46286],[5.36637,100.46271],[5.3666,100.46253],[5.36678,100.46236],[5.36685,100.46222],[5.36598,100.46126],[5.36594,100.46122],[5.36551,100.46056],[5.36478,100.45938],[5.36451,100.45904],[5.36442,100.45885],[5.36434,100.45866],[5.36429,100.45844],[5.36424,100.45772],[5.36421,100.45736],[5.36407,100.45681],[5.36387,100.4561],[5.36379,100.45561],[5.36381,100.4554],[5.36385,100.45518],[5.36389,100.45498],[5.3639,100.45494],[5.36395,100.45471],[5.36405,100.45418],[5.36412,100.45408],[5.36418,100.45366],[5.36436,100.4528],[5.36444,100.45235],[5.36453,100.45094],[5.36458,100.45053],[5.36462,100.45032],[5.3649,100.44955],[5.36502,100.44902],[5.36504,100.44884],[5.36515,100.44808],[5.36517,100.44764],[5.36524,100.44681],[5.36529,100.44656],[5.36522,100.44629],[5.36524,100.44515],[5.36527,100.44484],[5.36533,100.44354],[5.36535,100.44308],[5.36542,100.44214],[5.36545,100.44188],[5.36557,100.44115],[5.36563,100.44076],[5.36563,100.44035],[5.36563,100.4401],[5.36537,100.43985],[5.36452,100.43932],[5.36353,100.43866],[5.36282,100.43822],[5.36203,100.43775],[5.36179,100.43767],[5.3605,100.43716],[5.35848,100.43649],[5.35674,100.43597],[5.35635,100.43585],[5.35584,100.43578],[5.35441,100.43545],[5.35369,100.43497],[5.35362,100.43493],[5.35355,100.43486],[5.3535,100.43484],[5.35343,100.4348],[5.35337,100.43475],[5.35329,100.43469],[5.35228,100.43401],[5.35161,100.43354],[5.35138,100.43336],[5.35127,100.43315],[5.3502,100.43365],[5.3498,100.4339],[5.34942,100.4342],[5.34908,100.43443],[5.3486,100.43469],[5.34816,100.43479],[5.34785,100.43482],[5.34726,100.43481],[5.34649,100.43484],[5.34588,100.43492],[5.34584,100.435],[5.34532,100.43521],[5.3447,100.43557],[5.34359,100.4362],[5.34333,100.4364],[5.34313,100.43651],[5.34304,100.43656],[5.34286,100.4367],[5.34217,100.43723],[5.34132,100.43794],[5.34108,100.43813],[5.34057,100.43861],[5.34023,100.43896],[5.34009,100.43899],[5.33922,100.43988],[5.33745,100.44194],[5.33548,100.44423],[5.33412,100.4457],[5.33369,100.44613],[5.33342,100.44633],[5.3322,100.4469],[5.33201,100.44691],[5.33094,100.44743],[5.33058,100.44753],[5.32985,100.4477],[5.32939,100.44771],[5.32836,100.44774],[5.32823,100.44774],[5.32809,100.44774],[5.32775,100.4478],[5.32756,100.4478],[5.32714,100.44786],[5.32616,100.44805],[5.32536,100.44818],[5.32479,100.44834],[5.32462,100.44846],[5.32419,100.44863],[5.32376,100.44888],[5.32348,100.44908],[5.32312,100.44941],[5.32271,100.45003],[5.32246,100.45043],[5.32238,100.45062],[5.32216,100.45106],[5.32142,100.4531],[5.32104,100.45416],[5.32091,100.45442],[5.32086,100.45452],[5.32078,100.45469],[5.32041,100.45561],[5.32025,100.45585],[5.32014,100.45592],[5.31979,100.45653],[5.31915,100.45757],[5.3188,100.45813],[5.31834,100.45887],[5.31797,100.45944],[5.31739,100.46022],[5.31663,100.46109],[5.31625,100.46153],[5.31585,100.4619],[5.31538,100.46229],[5.31416,100.46325],[5.31292,100.46422],[5.31196,100.46504],[5.31158,100.46534],[5.31045,100.46627],[5.30978,100.46685],[5.30928,100.46728],[5.30855,100.46798],[5.30781,100.46869],[5.30689,100.46966],[5.30625,100.47026],[5.30522,100.47129],[5.30452,100.47207],[5.30414,100.47243],[5.30357,100.47308],[5.30317,100.47361],[5.30313,100.47377],[5.30284,100.47424],[5.30272,100.47442],[5.30266,100.4745],[5.30258,100.47466],[5.30204,100.4756],[5.30193,100.47574],[5.30137,100.47655],[5.30112,100.4768],[5.3009,100.47697],[5.29862,100.4782],[5.29795,100.4785],[5.29689,100.47877],[5.29556,100.47906],[5.29481,100.47923],[5.29433,100.47931],[5.29392,100.47929],[5.29283,100.47918],[5.29192,100.47898],[5.29107,100.47876],[5.28983,100.47843],[5.28858,100.47806],[5.28735,100.47765],[5.28613,100.47725],[5.28559,100.47707],[5.2855,100.47705],[5.28535,100.47701],[5.28484,100.47689],[5.28448,100.47681],[5.28399,100.47671],[5.28382,100.47676],[5.28259,100.47662],[5.28232,100.4766],[5.28175,100.47665],[5.2816,100.47666],[5.28094,100.47671],[5.27923,100.47688],[5.27796,100.47701],[5.27749,100.47704],[5.2767,100.47708],[5.27531,100.47702],[5.27414,100.47697],[5.27266,100.47691],[5.27118,100.47683],[5.271,100.47681],[5.27081,100.47676],[5.26976,100.47671],[5.26934,100.47661],[5.2692,100.47656],[5.26879,100.47634],[5.26752,100.47555],[5.26605,100.47472],[5.26561,100.47447],[5.26534,100.47434],[5.26493,100.47416],[5.26483,100.4742],[5.26362,100.47369],[5.26251,100.47321],[5.26237,100.47314],[5.26226,100.47303],[5.26194,100.4729],[5.26077,100.47236],[5.26022,100.4722],[5.25963,100.4721],[5.25933,100.47219],[5.25711,100.47232],[5.25613,100.47244],[5.25573,100.4725],[5.25555,100.47246],[5.25486,100.47256],[5.25341,100.47288],[5.25287,100.47307],[5.25253,100.47328],[5.25198,100.47376],[5.25096,100.47479],[5.2502,100.47561],[5.2498,100.4761],[5.24848,100.47754],[5.24773,100.47835],[5.24662,100.47953],[5.24542,100.48086],[5.24456,100.48173],[5.24406,100.48228],[5.24294,100.48341],[5.24253,100.4838],[5.24174,100.48444],[5.24162,100.4846],[5.24102,100.48503],[5.24042,100.48554],[5.23915,100.48709],[5.23776,100.4887],[5.23741,100.48902],[5.23728,100.48912],[5.23683,100.48944],[5.23659,100.48957],[5.23652,100.48964],[5.23632,100.48976],[5.23517,100.4904],[5.23504,100.49042],[5.23454,100.49069],[5.2328,100.49145],[5.23247,100.49157],[5.23163,100.49194],[5.2301,100.4926],[5.22945,100.49285],[5.22928,100.49293],[5.22894,100.49303],[5.2288,100.49317],[5.22882,100.49323],[5.22882,100.49329],[5.22772,100.49376],[5.22664,100.49436],[5.225,100.49532],[5.22421,100.49581],[5.22345,100.49624],[5.22237,100.49689],[5.22133,100.4976],[5.22069,100.49795],[5.22035,100.49812],[5.21999,100.4982],[5.2197,100.49819],[5.21932,100.49813],[5.21896,100.49803],[5.2167,100.49752],[5.21581,100.4973],[5.2148,100.4971],[5.21446,100.49708],[5.21426,100.497],[5.2142,100.49691],[5.21414,100.49679],[5.213,100.49706],[5.21281,100.49706],[5.21178,100.49731],[5.21058,100.49747],[5.20886,100.49763],[5.20739,100.49774],[5.20631,100.49786],[5.20599,100.49785],[5.20569,100.49775],[5.20483,100.49731],[5.20389,100.49694],[5.2031,100.49654],[5.20288,100.49646],[5.20271,100.49635],[5.20252,100.49623],[5.20237,100.49613],[5.2015,100.49558],[5.20062,100.49509],[5.20052,100.49497],[5.20006,100.49472],[5.19877,100.49398],[5.1981,100.49364],[5.19544,100.49218],[5.19317,100.49093],[5.19108,100.48981],[5.18994,100.48916],[5.1897,100.48914],[5.18804,100.48823],[5.18736,100.48786],[5.18713,100.48772],[5.187,100.48765],[5.18378,100.48588],[5.18133,100.48451],[5.18044,100.484],[5.17897,100.48315],[5.17856,100.48292],[5.1762,100.48174],[5.175,100.48117],[5.17147,100.47953],[5.17142,100.47954],[5.17036,100.47903],[5.16993,100.47897],[5.16952,100.47896],[5.16946,100.47901],[5.16947,100.47907],[5.16952,100.47916],[5.16966,100.4791],[5.16996,100.47904],[5.17018,100.47905],[5.17048,100.47915],[5.17076,100.47927],[5.17083,100.47928],[5.1709,100.47923],[5.17092,100.47917],[5.1709,100.47909],[5.17081,100.47899],[5.17041,100.4788],[5.17035,100.47871],[5.17029,100.47873],[5.16999,100.47866],[5.16969,100.47859],[5.16963,100.47852],[5.16957,100.47852],[5.16947,100.47849],[5.16944,100.47844],[5.1694,100.47845],[5.16903,100.47826],[5.16867,100.47816],[5.16863,100.47812],[5.16858,100.47812],[5.16816,100.47796],[5.1681,100.47792],[5.16804,100.47796],[5.16796,100.47798],[5.16795,100.47803],[5.16792,100.47807],[5.16779,100.47844],[5.16779,100.47876]],"tripIds":["260327030267S5","260327030264S6","260327030263S4","260327010267S3","260327030264S2","260327020264S2","260327020263S2","260327010264S6","260327010264S4","260327032199S7","260327032199S3","260327030267S7","260327030266S5","260327030266S3","260327020264S6","260327020263S4","260327010263S8","260327030263S8","260327030263S6","260327020266S9","260327010267S5","260327010266S9","260327010263S2","260327030264S4","260327030263S2","260327020267S7","260327020266S7","260327020266S5","260327010267S9","260327010267S7","260327010266S7","260327010264S2","260327030267S9","260327030267S3","260327030266S9","260327030266S7","260327030264S8","260327020267S9","260327020267S3","260327020264S8","260327020263S8","260327032199S5","260327020267S5","260327020266S3","260327020264S4","260327010266S3","260327010264S8","260327010263S4","260327020263S6","260327010266S5","260327010263S6"],"oppositeTripIds":["260327032199S6","260327030263S9","260327020266S6","260327020266S2","260327020264S3","260327010263S9","260327010263S7","260327010263S3","260327030264S9","260327030264S5","260327020266S8","260327020263S7","260327020263S5","260327020263S3","260327010266S2","260327032199S8","260327030266S2","260327030264S3","260327030263S7","260327030263S5","260327020264S5","260327030266S4","260327030263S3","260327020266S4","260327020264S9","260327020264S7","260327020263S9","260327010266S6","260327010264S9","260327010264S7","260327032199S4","260327030267S8","260327030267S2","260327030266S8","260327020267S8","260327010267S8","260327010266S4","260327010264S5","260327010264S3","260327032199S2","260327020267S4","260327020267S2","260327010267S4","260327030264S7","260327020267S6","260327010267S6","260327010267S2","260327010266S8","260327010263S5","260327030267S6","260327030267S4","260327030266S6"],"firstDeparture":"06:00","lastDeparture":"22:00","tripCount":51}