{"routeId":"30000037","shortName":"702","directionId":0,"headsign":"P.SENTRAL - BM","stops":[{"stopId":"12002322","stopName":"(M1) Penang Sentral","stopCode":"MEM0973","lat":5.39486,"lon":100.36535,"sequence":1},{"stopId":"12000120","stopName":"Taman Selat","stopCode":"M0X0120","lat":5.40005,"lon":100.36809,"sequence":2},{"stopId":"12000123","stopName":"Pejabat Kesihatan SPU","stopCode":"M0X0123","lat":5.40636,"lon":100.36949,"sequence":3},{"stopId":"12000125","stopName":"Public Mutual Bagan Luar","stopCode":"M0X0125","lat":5.41006,"lon":100.37083,"sequence":4},{"stopId":"12001701","stopName":"Maktab Wan Jah","stopCode":"MHN1701","lat":5.41322,"lon":100.37374,"sequence":5},{"stopId":"12001702","stopName":"Pangsapuri Telaga Emas","stopCode":"MHN1702","lat":5.41344,"lon":100.37468,"sequence":6},{"stopId":"12001705","stopName":"SJKC Chung Hwa 1","stopCode":"MHN1705","lat":5.4138,"lon":100.37743,"sequence":7},{"stopId":"12001195","stopName":"Taman Cantik","stopCode":"MFH1195","lat":5.41463,"lon":100.38273,"sequence":8},{"stopId":"12001196","stopName":"Taman Bagan","stopCode":"MFH1196","lat":5.41467,"lon":100.38437,"sequence":9},{"stopId":"12002372","stopName":"Shell Mak Mandin","stopCode":"ICT0116","lat":5.41432,"lon":100.38833,"sequence":10},{"stopId":"12001212","stopName":"Kawasan Industri Mak Mandin","stopCode":"MFH1212","lat":5.41344,"lon":100.39491,"sequence":11},{"stopId":"12001211","stopName":"Taman Ampang Jajar","stopCode":"MFH1211","lat":5.41259,"lon":100.39809,"sequence":12},{"stopId":"12001213","stopName":"PPR Ampang Jajar","stopCode":"MFH1213","lat":5.41352,"lon":100.40059,"sequence":13},{"stopId":"12001214","stopName":"Taman Bandar Ampang Jajar","stopCode":"MFH1214","lat":5.41415,"lon":100.40546,"sequence":14},{"stopId":"12002373","stopName":"Pasar Malam Arowana","stopCode":"ICT0117","lat":5.41167,"lon":100.40967,"sequence":15},{"stopId":"12001210","stopName":"Taman Arowana","stopCode":"MFH1210","lat":5.41048,"lon":100.41197,"sequence":16},{"stopId":"12001209","stopName":"Kompleks Fareeda","stopCode":"MFH1209","lat":5.40604,"lon":100.41534,"sequence":17},{"stopId":"12001208","stopName":"Permatang Janggus","stopCode":"MFH1208","lat":5.40447,"lon":100.41627,"sequence":18},{"stopId":"12001207","stopName":"Masjid Permatang Janggus","stopCode":"MFH1207","lat":5.4019,"lon":100.41704,"sequence":19},{"stopId":"12001206","stopName":"Permatang Janggus 2","stopCode":"MFH1206","lat":5.39933,"lon":100.41722,"sequence":20},{"stopId":"12001184","stopName":"Shell Permatang To' Kandu","stopCode":"MFH1184","lat":5.39384,"lon":100.41791,"sequence":21},{"stopId":"12001183","stopName":"Klinik Desa Kampung Pertama","stopCode":"MFH1183","lat":5.39215,"lon":100.41782,"sequence":22},{"stopId":"12001182","stopName":"Kampung Pertama Baru","stopCode":"MFH1182","lat":5.39013,"lon":100.41805,"sequence":23},{"stopId":"12001181","stopName":"Masjid Papan","stopCode":"MFH1181","lat":5.38863,"lon":100.41821,"sequence":24},{"stopId":"12001180","stopName":"UITM","stopCode":"MFH1180","lat":5.38391,"lon":100.41908,"sequence":25},{"stopId":"12002374","stopName":"(M3) Pusat Komersial Permatang Pauh","stopCode":"ICT0118","lat":5.38135,"lon":100.41976,"sequence":26},{"stopId":"12001179","stopName":"Taman Pauh Indah","stopCode":"MFH1179","lat":5.37576,"lon":100.42125,"sequence":27},{"stopId":"12001178","stopName":"Politeknik Seberang Perai","stopCode":"MFH1178","lat":5.37299,"lon":100.42214,"sequence":28},{"stopId":"12001177","stopName":"SIRIM","stopCode":"MFH1177","lat":5.37009,"lon":100.42318,"sequence":29},{"stopId":"12001093","stopName":"Astaka Perda","stopCode":"MFA1093","lat":5.36815,"lon":100.4277,"sequence":30},{"stopId":"12002375","stopName":"Masjid Perda","stopCode":"ICT0119","lat":5.36879,"lon":100.43033,"sequence":31},{"stopId":"12001094","stopName":"Pejabat MPSP","stopCode":"MFA1094","lat":5.36985,"lon":100.43394,"sequence":32},{"stopId":"12001095","stopName":"Perda Timur","stopCode":"MFA1095","lat":5.37144,"lon":100.43858,"sequence":33},{"stopId":"12001091","stopName":"Perda Utama","stopCode":"MEZ1091","lat":5.36954,"lon":100.44121,"sequence":34},{"stopId":"12001216","stopName":"Pusat Perniagaan Permatang Rawa","stopCode":"MFI1216","lat":5.36862,"lon":100.44489,"sequence":35},{"stopId":"12001218","stopName":"SMK Permatang Rawa","stopCode":"MFI1218","lat":5.36891,"lon":100.44688,"sequence":36},{"stopId":"12001219","stopName":"Petronas Permatang Rawa","stopCode":"MFI1219","lat":5.36903,"lon":100.4496,"sequence":37},{"stopId":"12001217","stopName":"Permatang Rawa","stopCode":"MFI1217","lat":5.36889,"lon":100.45274,"sequence":38},{"stopId":"12001215","stopName":"Sunway Wellesley","stopCode":"MFI1215","lat":5.36853,"lon":100.45774,"sequence":39},{"stopId":"12002343","stopName":"PBA Bukit Mertajam","stopCode":"ICT0080","lat":5.36668,"lon":100.46,"sequence":40},{"stopId":"12002201","stopName":"(M1) The Summit","stopCode":"MOO0056","lat":5.3658,"lon":100.46262,"sequence":41}],"shape":[[5.39569,100.36642],[5.39563,100.36637],[5.39559,100.36625],[5.39557,100.36601],[5.39559,100.36581],[5.39571,100.36564],[5.39573,100.36557],[5.39573,100.36546],[5.39564,100.36534],[5.39552,100.36526],[5.3954,100.36521],[5.39529,100.36513],[5.39534,100.365],[5.3954,100.36483],[5.39538,100.36472],[5.39534,100.36458],[5.39523,100.36448],[5.39508,100.36459],[5.39491,100.36474],[5.39482,100.36484],[5.39474,100.36496],[5.39462,100.36509],[5.39452,100.36526],[5.3944,100.36546],[5.39426,100.36573],[5.39428,100.36594],[5.39435,100.36607],[5.39439,100.36613],[5.39452,100.36586],[5.39465,100.36561],[5.39481,100.36533],[5.39499,100.36507],[5.39516,100.36493],[5.39528,100.36491],[5.3954,100.36495],[5.39548,100.36503],[5.39559,100.36515],[5.39572,100.36525],[5.39585,100.3654],[5.39596,100.36553],[5.39596,100.36565],[5.39614,100.36562],[5.39649,100.36559],[5.39691,100.3656],[5.39748,100.36562],[5.39798,100.36569],[5.39847,100.36579],[5.39858,100.36581],[5.39969,100.36619],[5.40018,100.36638],[5.40082,100.3661],[5.40098,100.36605],[5.40164,100.36583],[5.4022,100.36577],[5.40312,100.36583],[5.40378,100.36588],[5.4042,100.36599],[5.40492,100.36629],[5.40504,100.36638],[5.40545,100.36648],[5.40619,100.36685],[5.40736,100.36742],[5.40748,100.36749],[5.40748,100.36761],[5.40744,100.36772],[5.40736,100.36776],[5.40722,100.36772],[5.40677,100.36749],[5.40655,100.36739],[5.40593,100.36706],[5.40546,100.36682],[5.40513,100.36666],[5.40498,100.36658],[5.40497,100.36649],[5.40462,100.36633],[5.4042,100.36614],[5.40395,100.36608],[5.40348,100.36603],[5.40312,100.36607],[5.40279,100.36611],[5.40246,100.36621],[5.40203,100.36635],[5.4018,100.36642],[5.40131,100.36647],[5.40047,100.36656],[5.40007,100.36662],[5.3999,100.36664],[5.39932,100.36665],[5.39913,100.36663],[5.39895,100.36661],[5.39886,100.36664],[5.39876,100.36664],[5.39826,100.36656],[5.39745,100.36641],[5.39698,100.36636],[5.39661,100.36639],[5.39635,100.36646],[5.39609,100.36659],[5.39593,100.36673],[5.39602,100.36709],[5.39625,100.36731],[5.39638,100.36735],[5.39662,100.36742],[5.39674,100.36744],[5.397,100.3675],[5.39757,100.36764],[5.39785,100.36769],[5.39796,100.36775],[5.39821,100.36777],[5.39946,100.36806],[5.39986,100.36814],[5.40168,100.3685],[5.40188,100.36854],[5.4048,100.36915],[5.40535,100.36933],[5.40553,100.36932],[5.40653,100.36959],[5.40689,100.36966],[5.4071,100.36974],[5.40724,100.36979],[5.40749,100.36989],[5.40844,100.37022],[5.40901,100.37044],[5.40917,100.37051],[5.40926,100.37057],[5.40958,100.37065],[5.41034,100.3709],[5.41167,100.37136],[5.41291,100.37179],[5.41311,100.37294],[5.41323,100.37359],[5.41331,100.37413],[5.4134,100.37461],[5.41367,100.37632],[5.41371,100.37664],[5.41378,100.37734],[5.41384,100.37764],[5.41396,100.37793],[5.41425,100.37849],[5.41435,100.37884],[5.41435,100.37893],[5.41442,100.37901],[5.41444,100.37908],[5.41452,100.37938],[5.41454,100.38052],[5.4146,100.38173],[5.4146,100.38189],[5.41461,100.38257],[5.41466,100.38383],[5.41465,100.38475],[5.41465,100.38501],[5.41465,100.38516],[5.41459,100.3858],[5.41449,100.38671],[5.41432,100.38813],[5.41428,100.38863],[5.414,100.39062],[5.41391,100.39153],[5.41387,100.39212],[5.41398,100.39303],[5.41387,100.39354],[5.41374,100.39407],[5.41346,100.3948],[5.41318,100.39533],[5.41277,100.39603],[5.41249,100.39679],[5.41244,100.397],[5.41245,100.39741],[5.41251,100.39793],[5.41264,100.39837],[5.41298,100.39922],[5.41413,100.40232],[5.41427,100.40269],[5.41445,100.40396],[5.41446,100.40437],[5.41441,100.40469],[5.41429,100.40505],[5.414,100.40552],[5.41398,100.40568],[5.41392,100.4058],[5.41333,100.40688],[5.41321,100.40712],[5.41245,100.4083],[5.41178,100.40944],[5.41164,100.40959],[5.41119,100.41033],[5.41072,100.41115],[5.41063,100.41136],[5.4105,100.41171],[5.41037,100.4123],[5.41024,100.41281],[5.4104,100.41333],[5.40998,100.41349],[5.40872,100.41385],[5.40788,100.41415],[5.40711,100.41462],[5.40616,100.41525],[5.40556,100.41564],[5.40502,100.41598],[5.40412,100.41646],[5.40381,100.41659],[5.40304,100.41687],[5.40268,100.41693],[5.40163,100.41708],[5.40126,100.41712],[5.39991,100.41723],[5.39875,100.41727],[5.39843,100.41732],[5.39793,100.41739],[5.39779,100.41739],[5.39764,100.41749],[5.39718,100.41758],[5.39674,100.41769],[5.39645,100.41776],[5.39612,100.41787],[5.39596,100.41787],[5.39583,100.41782],[5.39501,100.41788],[5.39423,100.41791],[5.39344,100.41789],[5.39193,100.41783],[5.39161,100.41782],[5.39111,100.41787],[5.39043,100.41801],[5.38994,100.41809],[5.38939,100.41817],[5.38866,100.41822],[5.38809,100.41823],[5.38774,100.41821],[5.38742,100.4182],[5.38715,100.41823],[5.38609,100.41854],[5.38463,100.4189],[5.38367,100.41909],[5.38352,100.41919],[5.38296,100.41934],[5.38195,100.41957],[5.38177,100.41958],[5.38103,100.4198],[5.37903,100.42028],[5.37814,100.42057],[5.37777,100.42066],[5.37719,100.42082],[5.3768,100.4209],[5.37675,100.42093],[5.3766,100.42092],[5.37638,100.42103],[5.37547,100.42127],[5.37416,100.4217],[5.37396,100.42176],[5.37171,100.42251],[5.37078,100.42288],[5.36953,100.42335],[5.36769,100.42404],[5.36771,100.42443],[5.36747,100.42556],[5.36747,100.42577],[5.36756,100.42601],[5.36773,100.42645],[5.36789,100.42683],[5.36808,100.42725],[5.36814,100.42752],[5.36828,100.42862],[5.36838,100.42902],[5.36867,100.43005],[5.36919,100.43179],[5.36922,100.43192],[5.36962,100.43318],[5.36998,100.43443],[5.37032,100.43542],[5.37051,100.43591],[5.37063,100.43598],[5.37066,100.43605],[5.37063,100.4362],[5.37118,100.43767],[5.37137,100.43834],[5.37157,100.43931],[5.37157,100.44044],[5.37156,100.44106],[5.37156,100.44119],[5.37144,100.44118],[5.37095,100.44118],[5.37008,100.44121],[5.36972,100.4412],[5.36962,100.44125],[5.36928,100.44131],[5.36888,100.44143],[5.36805,100.44174],[5.36785,100.44182],[5.36772,100.44191],[5.36768,100.44201],[5.36765,100.44215],[5.36812,100.44341],[5.36821,100.4436],[5.36838,100.44442],[5.36858,100.44503],[5.3687,100.4455],[5.36886,100.44629],[5.36892,100.44698],[5.36898,100.44747],[5.36901,100.44783],[5.36902,100.44833],[5.36903,100.44907],[5.36906,100.44934],[5.36903,100.44956],[5.36897,100.45102],[5.36884,100.45395],[5.36871,100.45589],[5.36863,100.45667],[5.36857,100.45694],[5.3685,100.45742],[5.36852,100.45758],[5.36844,100.45781],[5.36837,100.45802],[5.368,100.45854],[5.3673,100.45944],[5.36705,100.45973],[5.36693,100.4598],[5.36602,100.46027],[5.36551,100.46056],[5.36603,100.4612],[5.36594,100.46122],[5.36567,100.46145],[5.36571,100.46156],[5.36582,100.46212],[5.36582,100.4622],[5.36558,100.46263],[5.36539,100.46266],[5.36535,100.46272],[5.36537,100.46281],[5.36545,100.46284],[5.36568,100.46286],[5.36591,100.46292],[5.36618,100.46302],[5.3663,100.46298]],"tripIds":["260327010223S10","260327010224S6","260327010226S3","260327020223S2","260327020223S10","260327020228S9","260327030226S5","260327030226S9","260327030227S3","260327010228S9","260327020224S10","260327020226S5","260327020228S7","260327010224S2","260327010226S9","260327010228S7","260327020224S6","260327020226S7","260327030223S4","260327030224S6","260327030226S3","260327030228S7","260327010224S8","260327010226S7","260327010227S3","260327020224S2","260327020226S3","260327020227S3","260327020227S7","260327030223S6","260327010223S6","260327010223S8","260327010224S4","260327010224S10","260327020224S4","260327020227S9","260327020228S3","260327030223S2","260327030223S8","260327030224S10","260327010223S4","260327010227S7","260327010228S3","260327010228S5","260327020223S4","260327020223S8","260327020226S9","260327020227S5","260327030224S4","260327030227S5","260327030228S9","260327010227S5","260327010227S9","260327020223S6","260327020224S8","260327020228S5","260327030223S10","260327030224S8","260327030227S7","260327030227S9","260327030228S3","260327010223S2","260327010226S5","260327030224S2","260327030226S7","260327030228S5"],"oppositeTripIds":["260327010226S2","260327010226S8","260327010226S10","260327020223S5","260327020224S9","260327020227S8","260327030224S7","260327030226S8","260327030227S2","260327020223S3","260327020224S7","260327020227S2","260327020228S2","260327030223S7","260327030226S2","260327010223S5","260327010223S7","260327010226S4","260327010227S4","260327010227S6","260327010227S10","260327020223S7","260327020228S6","260327020228S10","260327030223S3","260327030226S4","260327030227S6","260327030228S2","260327030228S4","260327030228S6","260327010223S3","260327010223S9","260327010227S8","260327010228S6","260327020224S3","260327020224S5","260327020226S8","260327020227S4","260327030223S5","260327010224S3","260327010224S9","260327010226S6","260327010228S2","260327010228S4","260327030224S3","260327030226S6","260327030226S10","260327030228S8","260327010224S5","260327020223S9","260327020226S4","260327030223S9","260327030224S9","260327010228S8","260327010228S10","260327020226S2","260327020226S10","260327030227S8","260327030227S10","260327030228S10","260327010224S7","260327010227S2","260327020226S6","260327020227S6","260327020227S10","260327020228S4","260327020228S8","260327030224S5","260327030227S4"],"firstDeparture":"06:00","lastDeparture":"22:30","tripCount":66}