{"routeId":"30000002","shortName":"102","directionId":0,"headsign":"AIRPORT-TELUK BAHANG","stops":[{"stopId":"12002211","stopName":"(M1) Lapangan Terbang Antarabangsa Pulau Pinang","stopCode":"IGR1417","lat":5.29261,"lon":100.26483,"sequence":1},{"stopId":"12001418","stopName":"The Star Publication","stopCode":"IGR1418","lat":5.29811,"lon":100.26985,"sequence":2},{"stopId":"12001422","stopName":"Sungai Tiram","stopCode":"IGR1422","lat":5.3027,"lon":100.27651,"sequence":3},{"stopId":"12001423","stopName":"Dynacraft Industries Sdn. Bhd.","stopCode":"IGR1423","lat":5.30481,"lon":100.27917,"sequence":4},{"stopId":"12001425","stopName":"B Braun","stopCode":"IGR1425","lat":5.30838,"lon":100.28226,"sequence":5},{"stopId":"12001427","stopName":"Snake Temple","stopCode":"IGR1427","lat":5.31424,"lon":100.28605,"sequence":6},{"stopId":"12001460","stopName":"Taman Sri Tunas","stopCode":"IGR1460","lat":5.32019,"lon":100.28914,"sequence":7},{"stopId":"12001432","stopName":"Taman Mahsuri","stopCode":"IGR1432","lat":5.32846,"lon":100.29336,"sequence":8},{"stopId":"12001435","stopName":"SRJK Kwang Hwa","stopCode":"IGR1435","lat":5.33615,"lon":100.29726,"sequence":9},{"stopId":"12001437","stopName":"Ayamas Sg. Nibong","stopCode":"IGR1437","lat":5.33806,"lon":100.29855,"sequence":10},{"stopId":"12001439","stopName":"Masjid Jamek Sg Nibong","stopCode":"IGR1439","lat":5.34011,"lon":100.29935,"sequence":11},{"stopId":"12002139","stopName":"Terminal Bas Ekspres Sg Nibong","stopCode":"IGR2127","lat":5.34284,"lon":100.30035,"sequence":12},{"stopId":"12001443","stopName":"Tapak Pesta Sg Nibong","stopCode":"IGR1443","lat":5.34478,"lon":100.30175,"sequence":13},{"stopId":"12001445","stopName":"Taman Century","stopCode":"IGR1445","lat":5.3477,"lon":100.30336,"sequence":14},{"stopId":"12001446","stopName":"JPJ Batu Uban","stopCode":"IGR1446","lat":5.35133,"lon":100.30429,"sequence":15},{"stopId":"12002207","stopName":"Sekolah Memandu Batu Uban","stopCode":"IGR1461","lat":5.35242,"lon":100.30505,"sequence":16},{"stopId":"12001448","stopName":"Jejantas Batu Uban","stopCode":"IGR1448","lat":5.35418,"lon":100.30793,"sequence":17},{"stopId":"12001450","stopName":"Padang Bola USM","stopCode":"IGR1450","lat":5.35994,"lon":100.31049,"sequence":18},{"stopId":"12001452","stopName":"SK Sg. Gelugor","stopCode":"IGR1452","lat":5.36497,"lon":100.31097,"sequence":19},{"stopId":"12001455","stopName":"Maybank Gelugor","stopCode":"IGR1455","lat":5.36971,"lon":100.31005,"sequence":20},{"stopId":"12001457","stopName":"KTM Motor","stopCode":"IGR1457","lat":5.37278,"lon":100.30903,"sequence":21},{"stopId":"12001459","stopName":"Recsam","stopCode":"IGR1459","lat":5.37671,"lon":100.30803,"sequence":22},{"stopId":"12000860","stopName":"Shell Green Lane","stopCode":"IDS0860","lat":5.38559,"lon":100.30514,"sequence":23},{"stopId":"12000864","stopName":"Persatuan Kanak-Kanak Sepastik","stopCode":"IDS0864","lat":5.3891,"lon":100.30325,"sequence":24},{"stopId":"12000866","stopName":"Hospital Lam Wah Ee","stopCode":"IDS0866","lat":5.39285,"lon":100.3026,"sequence":25},{"stopId":"12000868","stopName":"SMK Convent Green Lane","stopCode":"IDS0868","lat":5.39678,"lon":100.30341,"sequence":26},{"stopId":"12000871","stopName":"McDonald Green Lane","stopCode":"IDS0871","lat":5.40146,"lon":100.30395,"sequence":27},{"stopId":"12000873","stopName":"SMK Penang Free","stopCode":"IDS0873","lat":5.40349,"lon":100.3037,"sequence":28},{"stopId":"12000073","stopName":"(M2) SMKA Al-Mashoor(Hentian Transit)","stopCode":"I0Q0073","lat":5.40832,"lon":100.3037,"sequence":29},{"stopId":"12000074","stopName":"SMK (L) Methodist","stopCode":"I0Q0074","lat":5.41018,"lon":100.30699,"sequence":30},{"stopId":"12000448","stopName":"Dhoby Ghaut","stopCode":"IBF0448","lat":5.41269,"lon":100.30969,"sequence":31},{"stopId":"12000460","stopName":"Penjara P.Pinang(Hospital)","stopCode":"IBF0460","lat":5.41364,"lon":100.31312,"sequence":32},{"stopId":"12000455","stopName":"Padang Brown","stopCode":"IBF0455","lat":5.41289,"lon":100.31799,"sequence":33},{"stopId":"12000445","stopName":"Kampung Makam","stopCode":"IBF0445","lat":5.41239,"lon":100.32112,"sequence":34},{"stopId":"12000453","stopName":"Pasar Jalan Kuantan","stopCode":"IBF0453","lat":5.41278,"lon":100.32437,"sequence":35},{"stopId":"12000459","stopName":"Penang Times Square","stopCode":"IBF0459","lat":5.41332,"lon":100.3262,"sequence":36},{"stopId":"12000462","stopName":"Pasaraya Gama","stopCode":"IBF0462","lat":5.41384,"lon":100.32789,"sequence":37},{"stopId":"12001060","stopName":"Komtar Utara","stopCode":"IEV1060","lat":5.41513,"lon":100.32899,"sequence":38},{"stopId":"12002116","stopName":"Terminal Komtar","stopCode":"IFW1356","lat":5.41418,"lon":100.33031,"sequence":39},{"stopId":"12000827","stopName":"Masjid Simpang Enam","stopCode":"IDJ0827","lat":5.41438,"lon":100.32784,"sequence":40},{"stopId":"12000830","stopName":"Pusat Kegiatan Guru Kelawei","stopCode":"IDJ0830","lat":5.41622,"lon":100.32396,"sequence":41},{"stopId":"12002208","stopName":"Pasar Jalan Anson","stopCode":"I0M0054","lat":5.41613,"lon":100.32093,"sequence":42},{"stopId":"12000051","stopName":"Kolej MSU","stopCode":"I0M0051","lat":5.41477,"lon":100.31888,"sequence":43},{"stopId":"12001080","stopName":"Koperasi Melayu Pulau Pinang","stopCode":"IEX1080","lat":5.41742,"lon":100.31678,"sequence":44},{"stopId":"12002203","stopName":"YMCA","stopCode":"IEX1199","lat":5.42055,"lon":100.31556,"sequence":45},{"stopId":"12001086","stopName":"Wat Bhuparam","stopCode":"IEX1086","lat":5.4259,"lon":100.31669,"sequence":46},{"stopId":"12000361","stopName":"Kolej MSU","stopCode":"IAX0361","lat":5.42648,"lon":100.31749,"sequence":47},{"stopId":"12000970","stopName":"Gleneagles I","stopCode":"IEL0970","lat":5.42659,"lon":100.31886,"sequence":48},{"stopId":"12000972","stopName":"Gleneagles II","stopCode":"IEL0972","lat":5.42728,"lon":100.31952,"sequence":49},{"stopId":"12000718","stopName":"Sri Pangkor Kondominium","stopCode":"ICR0718","lat":5.42875,"lon":100.31974,"sequence":50},{"stopId":"12000719","stopName":"Gurney Hotel","stopCode":"ICR0719","lat":5.42947,"lon":100.31879,"sequence":51},{"stopId":"12000720","stopName":"Evergreen Hotel","stopCode":"ICR0720","lat":5.4303,"lon":100.31715,"sequence":52},{"stopId":"12000721","stopName":"Masjid Jamek Al Munawer","stopCode":"ICR0721","lat":5.43073,"lon":100.31622,"sequence":53},{"stopId":"12000722","stopName":"Flat Kelawei","stopCode":"ICR0722","lat":5.4313,"lon":100.31533,"sequence":54},{"stopId":"12000723","stopName":"Sleeping Buddha","stopCode":"ICR0723","lat":5.43209,"lon":100.31404,"sequence":55},{"stopId":"12000724","stopName":"Pangsapuri Festival","stopCode":"ICR0724","lat":5.43341,"lon":100.31219,"sequence":56},{"stopId":"12000726","stopName":"Gurney Paragon","stopCode":"ICR0726","lat":5.43463,"lon":100.31057,"sequence":57},{"stopId":"12000727","stopName":"Gurney Plaza","stopCode":"ICR0727","lat":5.43594,"lon":100.30881,"sequence":58},{"stopId":"12001644","stopName":"Balai Bomba Bagan Jermal","stopCode":"IHI1644","lat":5.44088,"lon":100.30719,"sequence":59},{"stopId":"12001646","stopName":"Masjid Bagan Jermal","stopCode":"IHI1646","lat":5.4436,"lon":100.30578,"sequence":60},{"stopId":"12001648","stopName":"Caltex","stopCode":"IHI1648","lat":5.44589,"lon":100.30502,"sequence":61},{"stopId":"12001650","stopName":"Wisma Binjul","stopCode":"IHI1650","lat":5.44843,"lon":100.30522,"sequence":62},{"stopId":"12001382","stopName":"Hadapan Medan Selera Downtown","stopCode":"IGH1382","lat":5.45005,"lon":100.3083,"sequence":63},{"stopId":"12001385","stopName":"Hadapan Straits Quay Marina Mall","stopCode":"IGH1385","lat":5.45791,"lon":100.31246,"sequence":64},{"stopId":"12001386","stopName":"Tesco Tanjung Pinang II","stopCode":"IGH1386","lat":5.45803,"lon":100.30851,"sequence":65},{"stopId":"12001658","stopName":"Tesco Tanjung Pinang","stopCode":"IHI1658","lat":5.4594,"lon":100.30772,"sequence":66},{"stopId":"12001659","stopName":"Flat UDA","stopCode":"IHI1659","lat":5.46192,"lon":100.30644,"sequence":67},{"stopId":"12001661","stopName":"Chinese Swimming Club","stopCode":"IHJ1661","lat":5.46261,"lon":100.30429,"sequence":68},{"stopId":"12001663","stopName":"Mercure Penang Beach Hotel","stopCode":"IHJ1663","lat":5.46354,"lon":100.30138,"sequence":69},{"stopId":"12001672","stopName":"Hotel Copthorne","stopCode":"IHJ1672","lat":5.46555,"lon":100.29173,"sequence":70},{"stopId":"12001675","stopName":"Hotel Flamingo","stopCode":"IHJ1675","lat":5.46612,"lon":100.2877,"sequence":71},{"stopId":"12001673","stopName":"Infinity","stopCode":"IHJ1673","lat":5.46576,"lon":100.28574,"sequence":72},{"stopId":"12001668","stopName":"Menara Asas","stopCode":"IHJ1668","lat":5.46519,"lon":100.28331,"sequence":73},{"stopId":"12001669","stopName":"Pejabat Pos Tg.Bungah","stopCode":"IHJ1669","lat":5.46527,"lon":100.28159,"sequence":74},{"stopId":"12001676","stopName":"Grand Ocean Condominium","stopCode":"IHJ1676","lat":5.46618,"lon":100.27969,"sequence":75},{"stopId":"12003014","stopName":"Masjid Terapung","stopCode":"IAD0299","lat":5.46764,"lon":100.27729,"sequence":76},{"stopId":"12000212","stopName":"Mar Vista","stopCode":"IAD0212","lat":5.47062,"lon":100.2772,"sequence":77},{"stopId":"12000222","stopName":"Pantai Shamrock","stopCode":"IAD0222","lat":5.47495,"lon":100.2763,"sequence":78},{"stopId":"12000227","stopName":"Mount Pleasure","stopCode":"IAD0227","lat":5.47754,"lon":100.27243,"sequence":79},{"stopId":"12000234","stopName":"Double Tree Resort","stopCode":"IAD0234","lat":5.47825,"lon":100.26897,"sequence":80},{"stopId":"12000229","stopName":"Pantai Miami","stopCode":"IAD0229","lat":5.47766,"lon":100.26751,"sequence":81},{"stopId":"12002250","stopName":"HILLTOP","stopCode":"IKY2511","lat":5.47794,"lon":100.26502,"sequence":82},{"stopId":"12000231","stopName":"Moon Light Café","stopCode":"IAD0231","lat":5.47801,"lon":100.26288,"sequence":83},{"stopId":"12002210","stopName":"Moon Light Bay","stopCode":"IAD0240","lat":5.4786,"lon":100.26136,"sequence":84},{"stopId":"12000238","stopName":"Basket Ball Court","stopCode":"IAD0238","lat":5.4803,"lon":100.2605,"sequence":85},{"stopId":"12000235","stopName":"Apartmen Sri Sayang","stopCode":"IAD0235","lat":5.47886,"lon":100.2552,"sequence":86},{"stopId":"12000225","stopName":"Feringghi Plaza","stopCode":"IAD0225","lat":5.47743,"lon":100.2538,"sequence":87},{"stopId":"12000223","stopName":"Golden Sands","stopCode":"IAD0223","lat":5.47592,"lon":100.25143,"sequence":88},{"stopId":"12000220","stopName":"Long Beach Food Court","stopCode":"IAD0220","lat":5.47488,"lon":100.25003,"sequence":89},{"stopId":"12000218","stopName":"Night Market","stopCode":"IAD0218","lat":5.47393,"lon":100.24842,"sequence":90},{"stopId":"12000216","stopName":"Hotel Holiday Inn","stopCode":"IAD0216","lat":5.47227,"lon":100.24691,"sequence":91},{"stopId":"12000214","stopName":"Balai Polis Batu Feringghi","stopCode":"IAD0214","lat":5.47115,"lon":100.24608,"sequence":92},{"stopId":"12000210","stopName":"By The Sea","stopCode":"IAD0210","lat":5.46956,"lon":100.24496,"sequence":93},{"stopId":"12000207","stopName":"Hotel Hard Rock","stopCode":"IAD0207","lat":5.46728,"lon":100.2423,"sequence":94},{"stopId":"12002251","stopName":"Feringghi Villa","stopCode":"IKY2512","lat":5.46523,"lon":100.24109,"sequence":95},{"stopId":"12000204","stopName":"Apartment Baiduri","stopCode":"IAD0204","lat":5.46443,"lon":100.23876,"sequence":96},{"stopId":"12000202","stopName":"Tropical Spice Garden","stopCode":"IAD0202","lat":5.46338,"lon":100.22887,"sequence":97},{"stopId":"12002975","stopName":"Hotel Angsana","stopCode":"IHP1900","lat":5.46157,"lon":100.21995,"sequence":98},{"stopId":"12001766","stopName":"Teluk Bahang","stopCode":"IHP1766","lat":5.45971,"lon":100.21782,"sequence":99},{"stopId":"12001763","stopName":"Hub Teluk Bahang","stopCode":"IHP1763","lat":5.45841,"lon":100.21576,"sequence":100},{"stopId":"12002223","stopName":"Dewan Teluk Bahang","stopCode":"IKY2111","lat":5.45714,"lon":100.2149,"sequence":101},{"stopId":"12002224","stopName":"Klinik Kesihatan Teluk Bahang","stopCode":"IKY2112","lat":5.45602,"lon":100.21482,"sequence":102},{"stopId":"12002200","stopName":"SK Teluk Bahang","stopCode":"IHP1755","lat":5.45298,"lon":100.21462,"sequence":103},{"stopId":"12001752","stopName":"SMK Teluk Bahang","stopCode":"IHP1752","lat":5.45054,"lon":100.21487,"sequence":104},{"stopId":"12001750","stopName":"Escape","stopCode":"IHP1750","lat":5.4494,"lon":100.21493,"sequence":105},{"stopId":"12001754","stopName":"SMK Teluk Bahang","stopCode":"IHP1754","lat":5.45075,"lon":100.21473,"sequence":106},{"stopId":"12001756","stopName":"Klinik Kesihatan Teluk Bahang","stopCode":"IHP1756","lat":5.45571,"lon":100.21466,"sequence":107},{"stopId":"12001760","stopName":"Pasar Teluk Bahang","stopCode":"IHP1760","lat":5.45754,"lon":100.21301,"sequence":108},{"stopId":"12001757","stopName":"Flat Hassan Abbas","stopCode":"IHP1757","lat":5.45737,"lon":100.20986,"sequence":109},{"stopId":"12002252","stopName":"Aseania Court","stopCode":"IKY2513","lat":5.45742,"lon":100.20826,"sequence":110},{"stopId":"12001765","stopName":"Taman Negara","stopCode":"IHP1765","lat":5.45899,"lon":100.20662,"sequence":111},{"stopId":"12001761","stopName":"Aseania Court","stopCode":"IHP1761","lat":5.45757,"lon":100.2078,"sequence":112},{"stopId":"12001758","stopName":"Flat Hassan Abbas","stopCode":"IHP1758","lat":5.45744,"lon":100.20961,"sequence":113},{"stopId":"12001759","stopName":"Jalan Hassan Abbas","stopCode":"IHP1759","lat":5.45747,"lon":100.21137,"sequence":114},{"stopId":"12001762","stopName":"Pasar Teluk Bahang","stopCode":"IHP1762","lat":5.45759,"lon":100.21274,"sequence":115},{"stopId":"12001764","stopName":"Hub Teluk Bahang","stopCode":"IHP1764","lat":5.45882,"lon":100.21611,"sequence":116}],"shape":[[5.29468,100.26671],[5.29354,100.26566],[5.29246,100.26469],[5.29206,100.26428],[5.29213,100.26414],[5.29234,100.26401],[5.29268,100.26389],[5.293,100.26412],[5.29412,100.26518],[5.29531,100.26642],[5.29558,100.26664],[5.29588,100.26674],[5.29629,100.26672],[5.2965,100.26652],[5.29683,100.26644],[5.29713,100.26665],[5.29753,100.26667],[5.2978,100.26651],[5.29786,100.26627],[5.2977,100.26602],[5.29745,100.26576],[5.29715,100.2656],[5.29693,100.26554],[5.2968,100.26557],[5.29667,100.26574],[5.29662,100.26603],[5.29688,100.26756],[5.29699,100.26805],[5.29722,100.26867],[5.29761,100.26917],[5.29814,100.26992],[5.29846,100.2703],[5.29916,100.27127],[5.2997,100.27207],[5.3008,100.27369],[5.30086,100.27382],[5.30187,100.27533],[5.3023,100.27599],[5.30276,100.27667],[5.30302,100.27705],[5.30347,100.27772],[5.30393,100.27827],[5.30488,100.27924],[5.30611,100.28048],[5.30705,100.28133],[5.30855,100.28236],[5.30948,100.28295],[5.31091,100.28389],[5.3124,100.28488],[5.31321,100.28538],[5.31404,100.28592],[5.3152,100.28649],[5.31611,100.28692],[5.31815,100.288],[5.31839,100.28811],[5.31855,100.28821],[5.31885,100.28839],[5.32091,100.28958],[5.32271,100.29057],[5.32342,100.29093],[5.32367,100.29095],[5.32522,100.29163],[5.32576,100.2919],[5.32599,100.29199],[5.32618,100.2921],[5.32632,100.29216],[5.32663,100.29229],[5.32734,100.29266],[5.32849,100.29342],[5.32927,100.29393],[5.33016,100.29446],[5.33068,100.29476],[5.33079,100.2948],[5.33122,100.29476],[5.33141,100.29462],[5.33154,100.2946],[5.33191,100.29461],[5.33207,100.29471],[5.33214,100.29481],[5.3323,100.29515],[5.33252,100.29536],[5.33267,100.29547],[5.33282,100.29551],[5.33319,100.29565],[5.33389,100.29587],[5.33401,100.29587],[5.33425,100.29593],[5.33462,100.29612],[5.33482,100.29621],[5.335,100.29633],[5.33528,100.29652],[5.33555,100.29674],[5.33572,100.29688],[5.33586,100.29701],[5.33593,100.29711],[5.33597,100.29716],[5.33623,100.29737],[5.33654,100.29763],[5.33707,100.29805],[5.3374,100.29825],[5.33774,100.29847],[5.3385,100.2988],[5.33866,100.2988],[5.3395,100.29916],[5.3408,100.29968],[5.34134,100.29994],[5.34171,100.30012],[5.34194,100.30024],[5.34209,100.3003],[5.3422,100.30037],[5.34231,100.30043],[5.34237,100.30046],[5.34249,100.30048],[5.34289,100.30067],[5.34315,100.30017],[5.34256,100.29981],[5.34252,100.29975],[5.34231,100.30012],[5.34233,100.30035],[5.34237,100.30046],[5.34355,100.30105],[5.34432,100.30152],[5.34519,100.302],[5.34536,100.30217],[5.34594,100.30252],[5.34674,100.30297],[5.3473,100.30323],[5.348,100.3035],[5.34898,100.30376],[5.35042,100.30406],[5.35115,100.30424],[5.35168,100.30449],[5.3523,100.30495],[5.35275,100.30549],[5.35312,100.30615],[5.3534,100.30671],[5.35366,100.30723],[5.35401,100.30778],[5.35476,100.3086],[5.35566,100.30923],[5.35654,100.30971],[5.35672,100.30979],[5.35735,100.31003],[5.35883,100.31038],[5.36017,100.3106],[5.36231,100.31096],[5.36358,100.31109],[5.36494,100.31102],[5.36621,100.31076],[5.36749,100.31033],[5.36818,100.31015],[5.3687,100.31009],[5.36981,100.31004],[5.37093,100.30996],[5.37161,100.30974],[5.37248,100.30926],[5.3736,100.30876],[5.37468,100.30852],[5.37626,100.30815],[5.37724,100.30794],[5.3781,100.3079],[5.37826,100.30784],[5.3796,100.30776],[5.37983,100.30776],[5.37998,100.30765],[5.38002,100.30755],[5.38019,100.30741],[5.38098,100.30693],[5.3813,100.30672],[5.38156,100.30666],[5.38226,100.30657],[5.38279,100.30646],[5.38336,100.30625],[5.38413,100.30585],[5.38436,100.30574],[5.38518,100.3054],[5.38624,100.30488],[5.38726,100.30437],[5.38811,100.30388],[5.38909,100.30337],[5.39005,100.30288],[5.39101,100.30253],[5.39131,100.30246],[5.39164,100.30243],[5.39183,100.30246],[5.39294,100.3027],[5.39411,100.30294],[5.39475,100.30307],[5.39543,100.30322],[5.39637,100.30349],[5.39712,100.30358],[5.39817,100.30368],[5.39851,100.30372],[5.39884,100.30376],[5.39929,100.30382],[5.40028,100.30395],[5.40131,100.30402],[5.40188,100.304],[5.40233,100.30391],[5.40295,100.30385],[5.40369,100.30377],[5.40433,100.30365],[5.40497,100.30357],[5.4053,100.30349],[5.40562,100.30339],[5.40622,100.30315],[5.40742,100.3027],[5.4076,100.30263],[5.40778,100.30256],[5.40788,100.30253],[5.408,100.30279],[5.40809,100.3031],[5.40848,100.30424],[5.40893,100.30561],[5.40914,100.30613],[5.40941,100.30646],[5.40995,100.30696],[5.41062,100.30748],[5.41126,100.30813],[5.4116,100.30847],[5.4116,100.30858],[5.41205,100.30903],[5.41266,100.30969],[5.41312,100.31022],[5.41338,100.31052],[5.4135,100.31073],[5.41356,100.31101],[5.41364,100.31134],[5.41366,100.3119],[5.41363,100.31285],[5.41358,100.31372],[5.41353,100.31418],[5.4134,100.31463],[5.41302,100.31565],[5.41291,100.31613],[5.41289,100.31666],[5.41286,100.31747],[5.41288,100.31862],[5.41285,100.3191],[5.41279,100.3194],[5.4125,100.32056],[5.41231,100.32144],[5.41221,100.3221],[5.41214,100.32277],[5.41209,100.32317],[5.41215,100.32352],[5.4123,100.32371],[5.41262,100.32409],[5.41284,100.32459],[5.41314,100.32538],[5.41333,100.32624],[5.41361,100.3273],[5.41391,100.32795],[5.41409,100.32849],[5.41414,100.32854],[5.41431,100.32877],[5.41446,100.32886],[5.41545,100.32919],[5.41564,100.32928],[5.4162,100.32945],[5.41667,100.32989],[5.41676,100.3302],[5.41667,100.33046],[5.41656,100.33063],[5.41609,100.331],[5.4155,100.33155],[5.41459,100.33046],[5.41445,100.33059],[5.41427,100.33058],[5.41383,100.33016],[5.41384,100.3297],[5.41371,100.32948],[5.41396,100.32902],[5.41406,100.32874],[5.41414,100.32854],[5.41451,100.32772],[5.41476,100.32719],[5.41503,100.32661],[5.41554,100.3256],[5.41578,100.32506],[5.41595,100.32466],[5.41663,100.32326],[5.41736,100.32167],[5.4168,100.32127],[5.41622,100.32093],[5.41588,100.32061],[5.41557,100.32026],[5.41524,100.31967],[5.41499,100.3192],[5.41487,100.31869],[5.41484,100.31822],[5.41476,100.31719],[5.41475,100.31671],[5.41487,100.31652],[5.41494,100.31648],[5.41589,100.31664],[5.41676,100.31671],[5.41811,100.31695],[5.41903,100.31709],[5.41939,100.31714],[5.41959,100.31704],[5.41992,100.31686],[5.4206,100.31564],[5.42146,100.31423],[5.42188,100.31358],[5.42193,100.31353],[5.42231,100.31344],[5.42254,100.31354],[5.423,100.31442],[5.42324,100.31486],[5.42368,100.31581],[5.42425,100.31669],[5.42437,100.31686],[5.42449,100.31686],[5.42675,100.31667],[5.42689,100.31686],[5.42665,100.31717],[5.42602,100.3181],[5.42599,100.31825],[5.42604,100.3184],[5.42678,100.3191],[5.42742,100.31968],[5.42765,100.31987],[5.4281,100.32026],[5.42828,100.32026],[5.42842,100.32012],[5.42905,100.3194],[5.42934,100.31902],[5.42974,100.31842],[5.43018,100.31745],[5.43041,100.31695],[5.43054,100.31665],[5.43095,100.3159],[5.43112,100.31561],[5.43151,100.31501],[5.43199,100.31423],[5.43239,100.31375],[5.43278,100.31332],[5.4328,100.31332],[5.43298,100.31299],[5.43319,100.31264],[5.43331,100.31248],[5.43379,100.31176],[5.43421,100.31114],[5.43433,100.31099],[5.43468,100.31044],[5.43496,100.31005],[5.43527,100.30956],[5.43556,100.30919],[5.43575,100.30899],[5.43629,100.30866],[5.43669,100.30853],[5.43709,100.30845],[5.4385,100.3081],[5.43978,100.30779],[5.44,100.30771],[5.44012,100.30765],[5.44034,100.30758],[5.44107,100.30713],[5.44161,100.30679],[5.44392,100.3057],[5.44531,100.30518],[5.44574,100.30515],[5.4463,100.30513],[5.44785,100.30532],[5.44865,100.3053],[5.44905,100.30528],[5.44999,100.30529],[5.45064,100.30543],[5.45102,100.30551],[5.45117,100.30554],[5.45129,100.30558],[5.45122,100.30573],[5.45114,100.30593],[5.45096,100.3063],[5.45051,100.30738],[5.45019,100.30802],[5.44984,100.30873],[5.44968,100.30911],[5.44964,100.30938],[5.44966,100.30965],[5.44972,100.30989],[5.44985,100.31024],[5.44999,100.31051],[5.45029,100.31084],[5.45063,100.31105],[5.45109,100.31122],[5.45192,100.3115],[5.45215,100.31156],[5.45427,100.31225],[5.45466,100.31237],[5.45497,100.31247],[5.45562,100.31252],[5.4564,100.31252],[5.45701,100.31251],[5.4577,100.31253],[5.45812,100.31247],[5.45838,100.31238],[5.45867,100.31213],[5.45885,100.31185],[5.45896,100.31154],[5.45898,100.31139],[5.45897,100.31123],[5.45888,100.31074],[5.45855,100.31005],[5.45835,100.30962],[5.45824,100.30932],[5.45814,100.30911],[5.45809,100.3086],[5.45808,100.30808],[5.45811,100.30784],[5.45813,100.30769],[5.45818,100.30759],[5.45828,100.30759],[5.45933,100.3078],[5.46037,100.30799],[5.46078,100.30789],[5.46107,100.30763],[5.46167,100.30695],[5.46203,100.30638],[5.46217,100.3059],[5.46227,100.30562],[5.46231,100.30543],[5.46245,100.30503],[5.46276,100.30389],[5.46311,100.30249],[5.46326,100.30202],[5.4644,100.29977],[5.46446,100.29951],[5.46446,100.29921],[5.46446,100.29906],[5.46446,100.2989],[5.46443,100.29853],[5.46456,100.29772],[5.46453,100.29726],[5.46478,100.29607],[5.46483,100.29462],[5.46489,100.29424],[5.46526,100.29295],[5.46548,100.2922],[5.46593,100.29046],[5.46615,100.28917],[5.46617,100.28874],[5.46618,100.28802],[5.46621,100.2869],[5.46537,100.28439],[5.46532,100.28406],[5.46531,100.28376],[5.4653,100.28301],[5.46527,100.2818],[5.46532,100.28142],[5.46538,100.28101],[5.46547,100.28072],[5.46569,100.28034],[5.466,100.27991],[5.46651,100.27923],[5.4673,100.27778],[5.46739,100.2777],[5.46763,100.27745],[5.46776,100.27734],[5.468,100.27724],[5.46823,100.2772],[5.46834,100.27719],[5.46866,100.27721],[5.46891,100.27727],[5.46912,100.27738],[5.46947,100.27748],[5.46979,100.27745],[5.47028,100.27729],[5.47095,100.27721],[5.47115,100.27723],[5.47134,100.27721],[5.4718,100.27695],[5.47209,100.27684],[5.47241,100.2768],[5.47268,100.27691],[5.47319,100.2772],[5.47345,100.27731],[5.47384,100.27724],[5.47457,100.27701],[5.47473,100.27679],[5.47489,100.27643],[5.47511,100.27609],[5.47578,100.27565],[5.47616,100.27545],[5.47674,100.27491],[5.47712,100.27476],[5.47737,100.2744],[5.47742,100.27406],[5.47739,100.27361],[5.47738,100.27336],[5.4775,100.27277],[5.47759,100.27249],[5.4777,100.27239],[5.47815,100.2723],[5.47849,100.27201],[5.47874,100.27132],[5.47873,100.27104],[5.47865,100.27077],[5.47885,100.27045],[5.47883,100.27026],[5.47827,100.26918],[5.47831,100.26913],[5.47825,100.26913],[5.47819,100.26905],[5.47787,100.26834],[5.47763,100.26731],[5.47753,100.26687],[5.47779,100.26561],[5.47774,100.26524],[5.47786,100.26506],[5.4785,100.26468],[5.47858,100.26443],[5.47851,100.26405],[5.47836,100.26365],[5.47841,100.26331],[5.47816,100.26283],[5.47781,100.26251],[5.47752,100.26233],[5.47733,100.26216],[5.47731,100.26191],[5.47739,100.26173],[5.47779,100.26171],[5.47798,100.26155],[5.47812,100.2614],[5.47857,100.26136],[5.47894,100.26139],[5.47925,100.2614],[5.47954,100.26132],[5.47977,100.2611],[5.47999,100.261],[5.48014,100.26086],[5.48024,100.26064],[5.48043,100.26024],[5.4805,100.25992],[5.48072,100.2598],[5.48107,100.25998],[5.48122,100.25989],[5.48154,100.25957],[5.48154,100.25899],[5.4811,100.25748],[5.48104,100.2569],[5.48096,100.25658],[5.48062,100.25614],[5.48033,100.25591],[5.47999,100.25588],[5.47963,100.25588],[5.47948,100.25578],[5.47924,100.25557],[5.47803,100.25436],[5.4771,100.25343],[5.47633,100.25224],[5.47619,100.25194],[5.47612,100.25182],[5.47603,100.25162],[5.47578,100.25104],[5.47557,100.25077],[5.47525,100.25057],[5.4751,100.25046],[5.47496,100.25025],[5.47486,100.2498],[5.47474,100.24947],[5.47428,100.24881],[5.47391,100.24835],[5.47343,100.24781],[5.47293,100.24738],[5.47206,100.24672],[5.47163,100.24644],[5.47073,100.24566],[5.47055,100.24552],[5.47004,100.24516],[5.46956,100.24491],[5.469,100.24444],[5.4688,100.2442],[5.46866,100.24388],[5.46868,100.243],[5.46858,100.24268],[5.46834,100.24243],[5.46771,100.24224],[5.46749,100.2422],[5.46721,100.24211],[5.46606,100.24178],[5.46569,100.24166],[5.46559,100.24157],[5.46502,100.24044],[5.46495,100.24011],[5.46488,100.23937],[5.46479,100.23914],[5.46455,100.23879],[5.46441,100.2384],[5.46445,100.23802],[5.46443,100.23781],[5.46423,100.23737],[5.46414,100.2369],[5.46415,100.23672],[5.46434,100.23642],[5.46502,100.23583],[5.46504,100.23558],[5.46488,100.23549],[5.4645,100.23528],[5.46406,100.23488],[5.46349,100.23416],[5.46322,100.23375],[5.46313,100.23351],[5.4631,100.23334],[5.46316,100.23303],[5.46326,100.23281],[5.46325,100.23249],[5.46299,100.2319],[5.46273,100.23137],[5.46265,100.23119],[5.46266,100.23098],[5.4628,100.23086],[5.46329,100.23069],[5.46345,100.23051],[5.46382,100.23011],[5.46422,100.22997],[5.46436,100.22984],[5.46443,100.22974],[5.46449,100.22959],[5.46443,100.22948],[5.46422,100.2294],[5.46402,100.22939],[5.46373,100.2293],[5.46335,100.22901],[5.46319,100.22872],[5.463,100.22821],[5.46298,100.22804],[5.46299,100.22778],[5.46321,100.22686],[5.46347,100.22618],[5.46383,100.22532],[5.46395,100.22508],[5.46418,100.22479],[5.46438,100.2244],[5.4651,100.22295],[5.46511,100.22276],[5.46498,100.22255],[5.46427,100.22203],[5.46404,100.22196],[5.46364,100.22193],[5.46336,100.22181],[5.46311,100.22162],[5.46288,100.22134],[5.462,100.22028],[5.4613,100.21944],[5.46062,100.21871],[5.45979,100.21785],[5.45936,100.21726],[5.45866,100.21613],[5.45814,100.21535],[5.45785,100.21487],[5.4577,100.21482],[5.45739,100.21489],[5.45705,100.21491],[5.45651,100.21485],[5.45576,100.2148],[5.45525,100.21475],[5.45463,100.21469],[5.45431,100.21465],[5.45357,100.21453],[5.45175,100.2148],[5.44961,100.2149],[5.44951,100.21505],[5.44935,100.21488],[5.44935,100.21481],[5.44976,100.21481],[5.45075,100.2148],[5.45132,100.21477],[5.45262,100.21462],[5.45345,100.21446],[5.45361,100.21446],[5.45422,100.21455],[5.45431,100.21456],[5.45483,100.21466],[5.4555,100.21469],[5.45613,100.21476],[5.45672,100.21481],[5.45713,100.21483],[5.45741,100.21482],[5.45772,100.21476],[5.45775,100.21465],[5.45767,100.21402],[5.45761,100.21354],[5.45758,100.21319],[5.45756,100.21286],[5.45751,100.21213],[5.45747,100.21166],[5.45743,100.21124],[5.4574,100.21068],[5.45739,100.21013],[5.45739,100.2096],[5.45745,100.20855],[5.45749,100.20813],[5.45754,100.20794],[5.45764,100.20761],[5.45779,100.20736],[5.45789,100.20722],[5.45809,100.20706],[5.45856,100.20684],[5.45895,100.20672],[5.45949,100.20649],[5.45944,100.20657],[5.45905,100.20671],[5.45879,100.20684],[5.45866,100.20685],[5.45831,100.20701],[5.4582,100.20705],[5.45792,100.20725],[5.45784,100.20738],[5.45768,100.20763],[5.45755,100.2081],[5.4575,100.20839],[5.45749,100.20864],[5.45746,100.2093],[5.45743,100.21008],[5.45742,100.21035],[5.4575,100.21139],[5.45757,100.21236],[5.45764,100.21314],[5.45764,100.21348],[5.45776,100.21435],[5.45778,100.21458],[5.45775,100.21465],[5.4579,100.21466],[5.45794,100.21476],[5.45785,100.21487],[5.45795,100.2149],[5.45827,100.21544],[5.45878,100.21617],[5.45938,100.21718],[5.45989,100.21785],[5.46063,100.21862],[5.46094,100.21896]],"tripIds":["260327030032S5","260327030031S9","260327030028S6","260327020031S3","260327010032S3","260327030032S3","260327030027S6","260327020031S5","260327020028S6","260327020027S6","260327010028S6","260327010028S4","260327030031S5","260327030028S2","260327010031S7","260327010031S5","260327010031S3","260327030027S4","260327020032S7","260327020032S5","260327020028S4","260327010031S9","260327010027S2","260327010032S7","260327020032S3","260327010027S6","260327030031S7","260327030031S3","260327030027S8","260327030027S2","260327020027S8","260327020027S4","260327010032S5","260327010028S2","260327010027S8","260327010027S4","260327030032S7","260327030028S4","260327020031S9","260327020031S7","260327020028S2","260327020027S2"],"oppositeTripIds":["260327030031S4","260327030028S7","260327030028S5","260327030027S5","260327010032S2","260327010027S5","260327030027S7","260327030027S3","260327020032S2","260327020031S8","260327020027S9","260327020027S7","260327010031S2","260327030032S4","260327030031S8","260327020031S6","260327020028S3","260327010031S6","260327030032S6","260327030031S2","260327020027S3","260327010031S4","260327010028S7","260327030028S3","260327020032S6","260327020031S2","260327010032S4","260327010028S5","260327010028S3","260327030032S2","260327020028S7","260327020028S5","260327010032S6","260327030027S9","260327020027S5","260327010031S8","260327010027S9","260327030031S6","260327020032S4","260327020031S4","260327010027S7","260327010027S3"],"firstDeparture":"06:00","lastDeparture":"23:35","tripCount":42}