{"routeId":"30000006","shortName":"202","directionId":1,"headsign":"PAYA TERUBONG - JETI","stops":[{"stopId":"12002102","stopName":"(M2) Tingkat Paya Terubong4","stopCode":"IKX2102","lat":5.36975,"lon":100.27547,"sequence":1},{"stopId":"12002099","stopName":"Tingkat Paya Terubong 2 - 1","stopCode":"IKX2099","lat":5.37092,"lon":100.2774,"sequence":2},{"stopId":"12002100","stopName":"Tingkat Paya Terubong 2 - 2","stopCode":"IKX2100","lat":5.37184,"lon":100.27757,"sequence":3},{"stopId":"12002101","stopName":"Tingkat Paya Terubong 2 - 3","stopCode":"IKX2101","lat":5.37357,"lon":100.27785,"sequence":4},{"stopId":"12001020","stopName":"Oriental Garden","stopCode":"IER1020","lat":5.37547,"lon":100.27576,"sequence":5},{"stopId":"12002286","stopName":"Pekan Paya Terubong","stopCode":"ICT0007","lat":5.37904,"lon":100.27483,"sequence":6},{"stopId":"12001023","stopName":"Paya Terubong Cemetery","stopCode":"IER1023","lat":5.38088,"lon":100.27495,"sequence":7},{"stopId":"12001969","stopName":"Apartment Lone Pine","stopCode":"IJI1969","lat":5.38657,"lon":100.27638,"sequence":8},{"stopId":"12001971","stopName":"Perumahan PDRM","stopCode":"IJI1971","lat":5.38794,"lon":100.27821,"sequence":9},{"stopId":"12001973","stopName":"Lebuhraya Thean Teik","stopCode":"IJI1973","lat":5.38875,"lon":100.27956,"sequence":10},{"stopId":"12000049","stopName":"Klinik Kesihatan Bandar Baru Air Itam","stopCode":"I0L0049","lat":5.38963,"lon":100.2851,"sequence":11},{"stopId":"12001372","stopName":"Flat 4E Farlim","stopCode":"IGD1372","lat":5.38613,"lon":100.28323,"sequence":12},{"stopId":"12000048","stopName":"Petronas Farlim","stopCode":"I0L0048","lat":5.38858,"lon":100.28429,"sequence":13},{"stopId":"12000050","stopName":"Klinik Kesihatan Bandar Baru Air Itam","stopCode":"I0L0050","lat":5.38964,"lon":100.28497,"sequence":14},{"stopId":"12001812","stopName":"Masjid Bandar Baru Air Itam","stopCode":"IHX1812","lat":5.39384,"lon":100.2852,"sequence":15},{"stopId":"12001814","stopName":"Pasaraya Sunshine Farlim","stopCode":"IHX1814","lat":5.39577,"lon":100.28657,"sequence":16},{"stopId":"12001815","stopName":"Fortune Court","stopCode":"IHX1815","lat":5.3978,"lon":100.28845,"sequence":17},{"stopId":"12001816","stopName":"Apartmen Desa Mawar","stopCode":"IHX1816","lat":5.40085,"lon":100.29066,"sequence":18},{"stopId":"12001817","stopName":"Wisma Yatim","stopCode":"IHX1817","lat":5.40347,"lon":100.29143,"sequence":19},{"stopId":"12002288","stopName":"BHP Kampung Baru","stopCode":"ICT0009","lat":5.40456,"lon":100.29046,"sequence":20},{"stopId":"12001373","stopName":"Restoran Nasi Kandar Salam","stopCode":"IGE1373","lat":5.40502,"lon":100.28869,"sequence":21},{"stopId":"12001377","stopName":"Pejabat Pos Padang Tembak","stopCode":"IGE1377","lat":5.40776,"lon":100.28855,"sequence":22},{"stopId":"12001379","stopName":"Flat Padang Tembak","stopCode":"IGE1379","lat":5.41063,"lon":100.29005,"sequence":23},{"stopId":"12000967","stopName":"Kuartes PBA","stopCode":"IEJ0967","lat":5.40959,"lon":100.29346,"sequence":24},{"stopId":"12002299","stopName":"PBA Padang Tembak","stopCode":"ICT2023","lat":5.40821,"lon":100.29369,"sequence":25},{"stopId":"12000963","stopName":"Lorong Padang Tembak","stopCode":"IEJ0963","lat":5.40683,"lon":100.29616,"sequence":26},{"stopId":"12000071","stopName":"Masjid Negeri P.Pinang","stopCode":"I0Q0071","lat":5.40777,"lon":100.29997,"sequence":27},{"stopId":"12000073","stopName":"(M2) SMKA Al-Mashoor(Hentian Transit)","stopCode":"I0Q0073","lat":5.40832,"lon":100.3037,"sequence":28},{"stopId":"12000074","stopName":"SMK (L) Methodist","stopCode":"I0Q0074","lat":5.41018,"lon":100.30699,"sequence":29},{"stopId":"12000448","stopName":"Dhoby Ghaut","stopCode":"IBF0448","lat":5.41269,"lon":100.30969,"sequence":30},{"stopId":"12000460","stopName":"Penjara P.Pinang(Hospital)","stopCode":"IBF0460","lat":5.41364,"lon":100.31312,"sequence":31},{"stopId":"12000455","stopName":"Padang Brown","stopCode":"IBF0455","lat":5.41289,"lon":100.31799,"sequence":32},{"stopId":"12000445","stopName":"Kampung Makam","stopCode":"IBF0445","lat":5.41239,"lon":100.32112,"sequence":33},{"stopId":"12000453","stopName":"Pasar Jalan Kuantan","stopCode":"IBF0453","lat":5.41278,"lon":100.32437,"sequence":34},{"stopId":"12000459","stopName":"Penang Times Square","stopCode":"IBF0459","lat":5.41332,"lon":100.3262,"sequence":35},{"stopId":"12000462","stopName":"Pasaraya Gama","stopCode":"IBF0462","lat":5.41384,"lon":100.32789,"sequence":36},{"stopId":"12001060","stopName":"Komtar Utara","stopCode":"IEV1060","lat":5.41513,"lon":100.32899,"sequence":37},{"stopId":"12001832","stopName":"Wisma MCA","stopCode":"IIC1832","lat":5.41841,"lon":100.32954,"sequence":38},{"stopId":"12001835","stopName":"Transfer Road","stopCode":"IIC1835","lat":5.42088,"lon":100.33061,"sequence":39},{"stopId":"12001399","stopName":"Pejabat Maritim","stopCode":"IGN1399","lat":5.42175,"lon":100.33142,"sequence":40},{"stopId":"12001397","stopName":"Sri Bahari","stopCode":"IGN1397","lat":5.42089,"lon":100.33248,"sequence":41},{"stopId":"12001921","stopName":"H.S. Sam Book Store","stopCode":"IIP1921","lat":5.41933,"lon":100.33411,"sequence":42},{"stopId":"12001919","stopName":"Love Lane","stopCode":"IIP1919","lat":5.41834,"lon":100.3364,"sequence":43},{"stopId":"12001917","stopName":"Little India","stopCode":"IIP1917","lat":5.41647,"lon":100.33854,"sequence":44},{"stopId":"12002318","stopName":"Container Hotel","stopCode":"ICT0052","lat":5.4142,"lon":100.34045,"sequence":45},{"stopId":"12002056","stopName":"Jejantas Terminal Feri","stopCode":"IKI2056","lat":5.41452,"lon":100.34187,"sequence":46},{"stopId":"12002058","stopName":"Pejabat Pos Besar P.Pinang","stopCode":"IKI2058","lat":5.41721,"lon":100.34428,"sequence":47},{"stopId":"12002971","stopName":"Pejabat Pos Besar P.Pinang 1","stopCode":"IIR1926","lat":5.41802,"lon":100.34369,"sequence":48},{"stopId":"12001943","stopName":"Balai Polis","stopCode":"IIZ1943","lat":5.41865,"lon":100.34356,"sequence":49},{"stopId":"12002972","stopName":"Swettenham Pier Cruise Terminal","stopCode":"IIR1927","lat":5.4185,"lon":100.34508,"sequence":50},{"stopId":"12002057","stopName":"Church Street Pier","stopCode":"IKI2057","lat":5.41664,"lon":100.34413,"sequence":51},{"stopId":"12002114","stopName":"(M1) JETTY B","stopCode":"IKI2053","lat":5.41379,"lon":100.34178,"sequence":52}],"shape":[[5.36971,100.27501],[5.36972,100.27513],[5.36971,100.27538],[5.36967,100.27558],[5.36953,100.27583],[5.36938,100.27596],[5.36908,100.27607],[5.36907,100.27638],[5.36911,100.27653],[5.36923,100.27672],[5.36945,100.27695],[5.36965,100.27711],[5.36986,100.27724],[5.37019,100.27735],[5.37095,100.27748],[5.37181,100.27766],[5.37264,100.27781],[5.37323,100.27789],[5.37363,100.27791],[5.3742,100.27784],[5.3741,100.27749],[5.37373,100.27697],[5.3736,100.27669],[5.37365,100.27636],[5.37381,100.27581],[5.37387,100.27575],[5.37408,100.27572],[5.37439,100.27576],[5.37495,100.2758],[5.37542,100.2758],[5.37578,100.27573],[5.37663,100.27521],[5.37731,100.27483],[5.37773,100.27472],[5.37947,100.27487],[5.37976,100.27489],[5.37982,100.27493],[5.38002,100.2749],[5.38013,100.2749],[5.38022,100.27492],[5.38105,100.27497],[5.3829,100.27524],[5.38377,100.27533],[5.38391,100.27537],[5.384,100.27531],[5.38434,100.27523],[5.38461,100.27514],[5.38467,100.2752],[5.38471,100.27529],[5.38482,100.27536],[5.38499,100.27543],[5.38542,100.27561],[5.38594,100.27593],[5.38616,100.27609],[5.38666,100.27652],[5.38696,100.27678],[5.38713,100.277],[5.38722,100.27709],[5.38757,100.2776],[5.38758,100.27771],[5.38771,100.27783],[5.38826,100.27876],[5.38979,100.28119],[5.38987,100.2813],[5.38991,100.28136],[5.39033,100.28175],[5.39101,100.28238],[5.3914,100.28267],[5.39152,100.28274],[5.39189,100.28312],[5.39213,100.2834],[5.39229,100.28374],[5.39239,100.28415],[5.39244,100.28491],[5.39246,100.28509],[5.39242,100.28535],[5.3924,100.28538],[5.39233,100.28538],[5.39229,100.28536],[5.39226,100.28539],[5.3921,100.28541],[5.39201,100.2854],[5.39194,100.28542],[5.39072,100.28554],[5.39048,100.28556],[5.39034,100.28552],[5.39021,100.28545],[5.38912,100.28474],[5.38827,100.28416],[5.38815,100.28406],[5.38808,100.2842],[5.38789,100.28443],[5.38782,100.28444],[5.38722,100.28403],[5.38655,100.28354],[5.38634,100.28336],[5.38616,100.2832],[5.386,100.28302],[5.38582,100.28284],[5.38574,100.28272],[5.38574,100.28271],[5.38574,100.28267],[5.38601,100.28248],[5.38615,100.28241],[5.38656,100.28289],[5.38734,100.28347],[5.38741,100.28353],[5.38804,100.28396],[5.38815,100.28406],[5.38832,100.28414],[5.38913,100.28467],[5.38959,100.28498],[5.39034,100.28547],[5.39052,100.2855],[5.3912,100.28545],[5.39194,100.28538],[5.39201,100.2854],[5.39211,100.28536],[5.39226,100.28534],[5.39229,100.28536],[5.39232,100.28534],[5.3924,100.28533],[5.39242,100.28535],[5.3925,100.28531],[5.39265,100.2853],[5.3927,100.28531],[5.3928,100.28528],[5.39356,100.2852],[5.39387,100.28519],[5.3941,100.28524],[5.39428,100.28534],[5.39443,100.28544],[5.39461,100.28558],[5.39537,100.28628],[5.39583,100.28666],[5.39641,100.28712],[5.39679,100.28748],[5.39726,100.28802],[5.39784,100.28853],[5.39856,100.28909],[5.39868,100.28918],[5.39929,100.2897],[5.39995,100.29022],[5.40023,100.29036],[5.40071,100.29061],[5.40216,100.29102],[5.40316,100.29131],[5.4039,100.29153],[5.4041,100.29153],[5.40455,100.29144],[5.4047,100.29142],[5.40474,100.29145],[5.40471,100.2913],[5.40465,100.29099],[5.40467,100.29089],[5.40463,100.29085],[5.40458,100.28979],[5.40452,100.28877],[5.4045,100.28853],[5.40477,100.28859],[5.40494,100.28864],[5.40556,100.28867],[5.40568,100.28863],[5.40614,100.28834],[5.40625,100.2883],[5.40668,100.28828],[5.40702,100.2883],[5.40732,100.28837],[5.4074,100.28841],[5.40914,100.28916],[5.41096,100.29033],[5.41105,100.29039],[5.4111,100.29049],[5.41109,100.29065],[5.411,100.29096],[5.41085,100.29137],[5.4106,100.29201],[5.41009,100.29325],[5.41,100.2934],[5.40992,100.29346],[5.40972,100.29347],[5.40916,100.29329],[5.40906,100.2933],[5.4083,100.29362],[5.4079,100.29379],[5.4078,100.29392],[5.40747,100.29442],[5.40721,100.29489],[5.4071,100.29517],[5.40693,100.29581],[5.40676,100.29632],[5.40654,100.29692],[5.40669,100.29704],[5.40694,100.29726],[5.40763,100.29796],[5.40787,100.29835],[5.40796,100.29867],[5.40797,100.29878],[5.40797,100.29889],[5.40795,100.29918],[5.40788,100.29951],[5.40766,100.30032],[5.40752,100.30089],[5.40749,100.30118],[5.40749,100.30137],[5.40754,100.30155],[5.40782,100.30231],[5.40788,100.30253],[5.408,100.30279],[5.40809,100.3031],[5.40848,100.30424],[5.40893,100.30561],[5.40914,100.30613],[5.40941,100.30646],[5.40995,100.30696],[5.41062,100.30748],[5.41126,100.30813],[5.4116,100.30847],[5.4116,100.30858],[5.41205,100.30903],[5.41266,100.30969],[5.41312,100.31022],[5.41338,100.31052],[5.4135,100.31073],[5.41356,100.31101],[5.41364,100.31134],[5.41366,100.3119],[5.41363,100.31285],[5.41358,100.31372],[5.41353,100.31418],[5.4134,100.31463],[5.41302,100.31565],[5.41291,100.31613],[5.41289,100.31666],[5.41286,100.31747],[5.41288,100.31862],[5.41285,100.3191],[5.41279,100.3194],[5.4125,100.32056],[5.41231,100.32144],[5.41221,100.3221],[5.41214,100.32277],[5.41209,100.32317],[5.41215,100.32352],[5.4123,100.32371],[5.41262,100.32409],[5.41284,100.32459],[5.41314,100.32538],[5.41333,100.32624],[5.41361,100.3273],[5.41391,100.32795],[5.41409,100.32849],[5.41414,100.32854],[5.41431,100.32877],[5.41446,100.32886],[5.41545,100.32919],[5.41564,100.32928],[5.4162,100.32945],[5.41667,100.32989],[5.41683,100.32992],[5.41696,100.32986],[5.41698,100.32976],[5.41745,100.32922],[5.41766,100.32902],[5.41795,100.32931],[5.41822,100.32947],[5.41866,100.32968],[5.41941,100.33002],[5.42004,100.33027],[5.42151,100.33089],[5.42196,100.3311],[5.42182,100.33131],[5.42168,100.33156],[5.42129,100.33197],[5.42076,100.33267],[5.42064,100.33285],[5.42054,100.33287],[5.42049,100.33292],[5.42025,100.33269],[5.42004,100.33276],[5.41989,100.33285],[5.41982,100.33306],[5.41958,100.33359],[5.41939,100.33399],[5.41927,100.33431],[5.41911,100.33463],[5.41882,100.33537],[5.41847,100.33611],[5.41828,100.33649],[5.41798,100.33694],[5.41764,100.33731],[5.41709,100.33794],[5.41685,100.33817],[5.41666,100.33837],[5.4163,100.33872],[5.4158,100.3392],[5.41547,100.33953],[5.41543,100.33962],[5.41537,100.33961],[5.41489,100.33998],[5.41444,100.3403],[5.41382,100.34073],[5.41372,100.34077],[5.41386,100.34108],[5.41435,100.3417],[5.41512,100.34262],[5.41584,100.34353],[5.41618,100.34377],[5.41719,100.34428],[5.41745,100.34441],[5.4178,100.34401],[5.41794,100.34387],[5.41818,100.34363],[5.41832,100.34349],[5.41842,100.34338],[5.41845,100.34338],[5.41869,100.34363],[5.41876,100.34371],[5.41886,100.34375],[5.41897,100.34385],[5.41912,100.34393],[5.41929,100.34391],[5.41937,100.344],[5.41937,100.34414],[5.41924,100.34422],[5.41918,100.34424],[5.41877,100.34486],[5.41856,100.34502],[5.41835,100.345],[5.41753,100.34456],[5.41666,100.34413],[5.41604,100.34382],[5.41578,100.34359],[5.41541,100.34312],[5.41484,100.34243],[5.41472,100.34232],[5.41428,100.34176],[5.41421,100.34167],[5.41415,100.34166],[5.4139,100.34182],[5.4138,100.34169],[5.41373,100.3416],[5.41386,100.34147],[5.41393,100.34137],[5.41391,100.34129]],"tripIds":["260327033103S3","260327033102S5","260327033101S7","260327033101S3","260327033100S11","260327031069S10","260327031068S10","260327031067S8","260327031067S4","260327031065S4","260327023107S9","260327023105S5","260327023102S5","260327023102S3","260327023101S11","260327023101S9","260327023101S5","260327021070S4","260327021068S8","260327021068S4","260327021067S10","260327021066S6","260327021064S10","260327021064S6","260327013107S11","260327013107S3","260327013106S11","260327013106S9","260327013106S7","260327013100S5","260327013100S3","260327011069S4","260327011068S6","260327011068S2","260327011067S2","260327011066S10","260327011066S6","260327011066S4","260327033104S9","260327033101S9","260327033101S5","260327033100S7","260327031070S4","260327031069S6","260327031068S4","260327031066S6","260327031066S2","260327031064S10","260327023106S11","260327023105S3","260327023103S7","260327023103S5","260327023102S9","260327023101S3","260327023100S9","260327021070S2","260327013107S7","260327013105S3","260327013104S7","260327013103S11","260327013102S11","260327013102S5","260327013102S3","260327013101S5","260327013100S9","260327011069S12","260327011069S6","260327011065S8","260327033105S5","260327033102S9","260327033102S3","260327033101S11","260327031070S10","260327031070S6","260327031069S8","260327031066S8","260327031066S4","260327031065S12","260327023107S11","260327023107S7","260327023104S11","260327021070S10","260327021070S6","260327021069S8","260327021069S6","260327021066S10","260327013107S5","260327013104S3","260327013101S11","260327011070S6","260327011068S10","260327011066S2","260327033103S9","260327033100S9","260327031069S2","260327031067S10","260327031065S6","260327031064S4","260327023105S7","260327023103S9","260327023100S7","260327021070S8","260327021069S4","260327013107S9","260327013106S5","260327013105S11","260327013102S7","260327011070S10","260327011070S4","260327011069S10","260327011066S8","260327011065S10","260327011065S6","260327011064S10","260327033105S7","260327033104S11","260327033102S11","260327031066S12","260327031066S10","260327031064S12","260327031064S8","260327031064S6","260327023107S3","260327023106S9","260327023104S5","260327023104S3","260327023103S3","260327023102S11","260327023102S7","260327021067S4","260327013105S5","260327013104S9","260327013103S9","260327013101S7","260327011068S8","260327011068S4","260327011067S8","260327011067S4","260327011064S8","260327011064S6","260327033105S9","260327033105S3","260327033104S5","260327033103S11","260327033103S7","260327033103S5","260327031070S2","260327031069S4","260327031067S6","260327031067S2","260327031065S2","260327023104S9","260327023103S11","260327021068S10","260327021066S4","260327021065S12","260327021065S6","260327021065S4","260327021064S12","260327021064S4","260327013105S9","260327013104S11","260327013104S5","260327013101S9","260327013100S7","260327011069S8","260327011066S12","260327011065S4","260327011065S2","260327011064S4","260327033105S11","260327033104S7","260327033100S5","260327031070S8","260327031068S8","260327031068S6","260327023106S7","260327023106S5","260327023106S3","260327023105S9","260327023100S11","260327021069S12","260327021068S6","260327021067S8","260327021067S6","260327021066S12","260327021066S8","260327021066S2","260327021065S8","260327021064S2","260327013106S3","260327013105S7","260327013103S7","260327013103S5","260327013100S11","260327011070S2","260327011069S2","260327011068S12","260327011067S6","260327011064S12","260327033104S3","260327033102S7","260327033100S3","260327031068S2","260327031065S10","260327031065S8","260327031064S2","260327023107S5","260327023105S11","260327023104S7","260327023101S7","260327023100S5","260327023100S3","260327021069S10","260327021069S2","260327021068S12","260327021068S2","260327021067S2","260327021065S10","260327021065S2","260327021064S8","260327013103S3","260327013102S9","260327013101S3","260327011070S8","260327011067S10","260327011065S12","260327011064S2"],"oppositeTripIds":["260327033105S10","260327033104S2","260327033103S6","260327033103S4","260327033101S10","260327033100S12","260327033100S8","260327031070S3","260327031067S11","260327023106S4","260327023105S6","260327023104S10","260327023103S4","260327023101S2","260327021069S7","260327021067S5","260327021064S9","260327013107S6","260327013106S10","260327013106S8","260327013104S4","260327013103S6","260327013102S4","260327011069S9","260327011067S9","260327011066S5","260327011064S5","260327033105S2","260327033104S8","260327033104S6","260327033102S6","260327033101S12","260327033101S4","260327033100S10","260327031068S5","260327031067S3","260327031066S11","260327031065S5","260327023105S4","260327023105S2","260327023103S2","260327023100S10","260327023100S8","260327021070S11","260327021068S3","260327021066S9","260327021065S11","260327021065S3","260327013107S10","260327013105S2","260327013104S6","260327013102S10","260327033104S10","260327033103S2","260327033102S4","260327033100S2","260327031069S11","260327031069S9","260327031069S5","260327031068S11","260327031067S9","260327031067S5","260327023107S6","260327023106S8","260327023102S8","260327023101S10","260327021070S3","260327021067S7","260327021066S3","260327021064S11","260327013105S10","260327013105S8","260327013105S6","260327013103S8","260327011069S7","260327011068S7","260327011065S7","260327033101S8","260327033100S6","260327031070S9","260327031070S5","260327031069S3","260327031067S7","260327031066S7","260327031066S3","260327031065S9","260327031064S5","260327031064S3","260327023107S4","260327023106S6","260327023105S10","260327023104S2","260327023102S12","260327023101S8","260327023100S6","260327021070S5","260327021069S11","260327021069S5","260327021068S7","260327021067S9","260327021066S11","260327021066S7","260327021064S5","260327013106S6","260327013104S8","260327013102S8","260327013101S10","260327013101S2","260327011070S9","260327011070S3","260327011068S11","260327011068S5","260327011067S11","260327011067S7","260327011066S9","260327011066S7","260327011065S9","260327033105S4","260327033102S2","260327031065S11","260327031064S9","260327023103S8","260327023102S4","260327023102S2","260327023101S6","260327023100S2","260327021069S3","260327021065S9","260327013104S2","260327013103S4","260327013101S8","260327011070S11","260327011069S5","260327011065S5","260327011065S3","260327011064S11","260327033105S6","260327033104S4","260327033103S10","260327033102S12","260327033102S8","260327033101S6","260327031068S3","260327031066S5","260327023107S10","260327023107S8","260327023106S10","260327023106S2","260327023105S8","260327023104S8","260327023104S6","260327023104S4","260327023101S12","260327023100S4","260327021070S9","260327021068S11","260327021068S9","260327021067S3","260327013106S4","260327013106S2","260327013103S10","260327013103S2","260327013101S6","260327013100S12","260327011069S3","260327011066S3","260327011064S7","260327033105S8","260327033101S2","260327033100S4","260327031070S7","260327031069S7","260327031068S9","260327031066S9","260327031064S7","260327023107S2","260327023103S10","260327023103S6","260327023102S10","260327023101S4","260327023100S12","260327021070S7","260327021069S9","260327021067S11","260327021066S5","260327021064S7","260327021064S3","260327013107S8","260327013107S2","260327013105S4","260327013102S12","260327013102S2","260327013100S10","260327013100S8","260327013100S4","260327011070S7","260327011070S5","260327011069S11","260327011064S9","260327011064S3","260327033103S8","260327033102S10","260327031070S11","260327031068S7","260327031065S7","260327031065S3","260327031064S11","260327023102S6","260327021068S5","260327021065S7","260327021065S5","260327013107S4","260327013104S10","260327013102S6","260327013101S12","260327013101S4","260327013100S6","260327013100S2","260327011068S9","260327011068S3","260327011067S5","260327011067S3","260327011066S11","260327011065S11"],"firstDeparture":"05:30","lastDeparture":"22:35","tripCount":228}