{"routeId":"30000014","shortName":"304","directionId":1,"headsign":"BKT.GEDUNG - GURNEY","stops":[{"stopId":"12000888","stopName":"Hub Pasaraya Giant","stopCode":"IDT0888","lat":5.32174,"lon":100.28442,"sequence":1},{"stopId":"12000877","stopName":"Pangsapuri Mayang","stopCode":"IDT0877","lat":5.31841,"lon":100.28499,"sequence":2},{"stopId":"12002083","stopName":"Taman Gedung Heights I","stopCode":"IKP2083","lat":5.31742,"lon":100.28243,"sequence":3},{"stopId":"12002081","stopName":"Taman Gedung Heights II","stopCode":"IKP2081","lat":5.31727,"lon":100.28004,"sequence":4},{"stopId":"12002315","stopName":"Gedung Height III","stopCode":"ICT0048","lat":5.31643,"lon":100.28105,"sequence":5},{"stopId":"12002316","stopName":"Gedung Height IV","stopCode":"ICT0049","lat":5.31618,"lon":100.28202,"sequence":6},{"stopId":"12000876","stopName":"Astaka Bukit Gedung","stopCode":"IDT0876","lat":5.31614,"lon":100.28407,"sequence":7},{"stopId":"12002317","stopName":"Pangsapuri Mayang","stopCode":"ICT0050","lat":5.31838,"lon":100.28491,"sequence":8},{"stopId":"12000879","stopName":"Pasaraya Giant","stopCode":"IDT0879","lat":5.32071,"lon":100.28571,"sequence":9},{"stopId":"12000882","stopName":"Masjid Bayan Baru","stopCode":"IDT0882","lat":5.32367,"lon":100.28688,"sequence":10},{"stopId":"12000885","stopName":"Sunshine Square","stopCode":"IDT0885","lat":5.3255,"lon":100.2875,"sequence":11},{"stopId":"12000847","stopName":"KFC Jalan Mahsuri","stopCode":"IDN0847","lat":5.32686,"lon":100.28667,"sequence":12},{"stopId":"12000848","stopName":"Mayang Mall","stopCode":"IDN0848","lat":5.32693,"lon":100.2843,"sequence":13},{"stopId":"12000851","stopName":"(M2) Spice","stopCode":"IDN0851","lat":5.32736,"lon":100.28051,"sequence":14},{"stopId":"12001837","stopName":"Setia Welcome Center","stopCode":"IID1837","lat":5.32963,"lon":100.27883,"sequence":15},{"stopId":"12001840","stopName":"SRJK Min Sin","stopCode":"IID1840","lat":5.33117,"lon":100.28143,"sequence":16},{"stopId":"12001842","stopName":"Bukit Jambul Golf Club","stopCode":"IID1842","lat":5.33199,"lon":100.28419,"sequence":17},{"stopId":"12001845","stopName":"Masjid Sungai Nibong Kecil","stopCode":"IID1845","lat":5.3326,"lon":100.28684,"sequence":18},{"stopId":"12001847","stopName":"Kompleks Bukit Jambul","stopCode":"IID1847","lat":5.3327,"lon":100.29074,"sequence":19},{"stopId":"12001955","stopName":"Krystal Point Corporate Park","stopCode":"IJE1955","lat":5.3307,"lon":100.299,"sequence":20},{"stopId":"12002059","stopName":"Queensbay Mall","stopCode":"IKJ2059","lat":5.33195,"lon":100.30791,"sequence":21},{"stopId":"12002062","stopName":"Bay Garden","stopCode":"IKJ2062","lat":5.33694,"lon":100.30833,"sequence":22},{"stopId":"12000079","stopName":"Taman Pantai Jerejak","stopCode":"I0R0079","lat":5.34052,"lon":100.3029,"sequence":23},{"stopId":"12001492","stopName":"Terminal Ekspress Sg Nibong","stopCode":"IGX1492","lat":5.34244,"lon":100.29952,"sequence":24},{"stopId":"12001494","stopName":"SJKC Phor Tay","stopCode":"IGX1494","lat":5.34373,"lon":100.29739,"sequence":25},{"stopId":"12001497","stopName":"SRJK Keong Hoe","stopCode":"IGX1497","lat":5.34654,"lon":100.29564,"sequence":26},{"stopId":"12001500","stopName":"Tesco Sungai Dua","stopCode":"IGX1500","lat":5.35118,"lon":100.29788,"sequence":27},{"stopId":"12001502","stopName":"Apartmen Desa Universiti","stopCode":"IGX1502","lat":5.35216,"lon":100.29911,"sequence":28},{"stopId":"12001504","stopName":"USM","stopCode":"IGX1504","lat":5.35288,"lon":100.30185,"sequence":29},{"stopId":"12001448","stopName":"Jejantas Batu Uban","stopCode":"IGR1448","lat":5.35418,"lon":100.30793,"sequence":30},{"stopId":"12001450","stopName":"Padang Bola USM","stopCode":"IGR1450","lat":5.35994,"lon":100.31049,"sequence":31},{"stopId":"12001452","stopName":"SK Sg. Gelugor","stopCode":"IGR1452","lat":5.36497,"lon":100.31097,"sequence":32},{"stopId":"12001455","stopName":"Maybank Gelugor","stopCode":"IGR1455","lat":5.36971,"lon":100.31005,"sequence":33},{"stopId":"12001457","stopName":"KTM Motor","stopCode":"IGR1457","lat":5.37278,"lon":100.30903,"sequence":34},{"stopId":"12001459","stopName":"Recsam","stopCode":"IGR1459","lat":5.37671,"lon":100.30803,"sequence":35},{"stopId":"12000860","stopName":"Shell Green Lane","stopCode":"IDS0860","lat":5.38559,"lon":100.30514,"sequence":36},{"stopId":"12000865","stopName":"Gembira Parade","stopCode":"IDS0865","lat":5.38913,"lon":100.30334,"sequence":37},{"stopId":"12000866","stopName":"Hospital Lam Wah Ee","stopCode":"IDS0866","lat":5.39285,"lon":100.3026,"sequence":38},{"stopId":"12000868","stopName":"SMK Convent Green Lane","stopCode":"IDS0868","lat":5.39678,"lon":100.30341,"sequence":39},{"stopId":"12000871","stopName":"McDonald Green Lane","stopCode":"IDS0871","lat":5.40146,"lon":100.30395,"sequence":40},{"stopId":"12000873","stopName":"SMK Penang Free","stopCode":"IDS0873","lat":5.40349,"lon":100.3037,"sequence":41},{"stopId":"12001367","stopName":"Pejabat Agama Islam","stopCode":"IGA1367","lat":5.41321,"lon":100.30213,"sequence":42},{"stopId":"12001368","stopName":"Heritage Club","stopCode":"IGA1368","lat":5.41869,"lon":100.30466,"sequence":43},{"stopId":"12000839","stopName":"St. Christoper School","stopCode":"IDJ0839","lat":5.42288,"lon":100.30614,"sequence":44},{"stopId":"12000838","stopName":"Kolej Disted-Stamford","stopCode":"IDJ0838","lat":5.42287,"lon":100.3085,"sequence":45},{"stopId":"12000835","stopName":"Buddhist Society","stopCode":"IDJ0835","lat":5.4223,"lon":100.31149,"sequence":46},{"stopId":"12001355","stopName":"(M2) SK Jalan Residensi","stopCode":"IFV1355","lat":5.42026,"lon":100.31155,"sequence":47},{"stopId":"12003627","stopName":"Hospital Pulau Pinang","stopCode":"IFV1356","lat":5.41796,"lon":100.31063,"sequence":48},{"stopId":"12001894","stopName":"Hospital P.Pinang II","stopCode":"IIK1894","lat":5.41561,"lon":100.31017,"sequence":49},{"stopId":"12000460","stopName":"Penjara P.Pinang(Hospital)","stopCode":"IBF0460","lat":5.41364,"lon":100.31312,"sequence":50},{"stopId":"12000455","stopName":"Padang Brown","stopCode":"IBF0455","lat":5.41289,"lon":100.31799,"sequence":51},{"stopId":"12000445","stopName":"Kampung Makam","stopCode":"IBF0445","lat":5.41239,"lon":100.32112,"sequence":52},{"stopId":"12000453","stopName":"Pasar Jalan Kuantan","stopCode":"IBF0453","lat":5.41278,"lon":100.32437,"sequence":53},{"stopId":"12000459","stopName":"Penang Times Square","stopCode":"IBF0459","lat":5.41332,"lon":100.3262,"sequence":54},{"stopId":"12000462","stopName":"Pasaraya Gama","stopCode":"IBF0462","lat":5.41384,"lon":100.32789,"sequence":55},{"stopId":"12001060","stopName":"Komtar Utara","stopCode":"IEV1060","lat":5.41513,"lon":100.32899,"sequence":56},{"stopId":"12000356","stopName":"TM Point","stopCode":"IAX0356","lat":5.41825,"lon":100.32823,"sequence":57},{"stopId":"12000357","stopName":"Penang Plaza","stopCode":"IAX0357","lat":5.42085,"lon":100.32521,"sequence":58},{"stopId":"12000358","stopName":"SK Pykett Methodist","stopCode":"IAX0358","lat":5.42197,"lon":100.32365,"sequence":59},{"stopId":"12003016","stopName":"1926 Heritage Hotel","stopCode":"IAX0372","lat":5.42417,"lon":100.32053,"sequence":60},{"stopId":"12000360","stopName":"Chinese Recreation Club","stopCode":"IAX0360","lat":5.42517,"lon":100.3191,"sequence":61},{"stopId":"12000972","stopName":"Gleneagles II","stopCode":"IEL0972","lat":5.42728,"lon":100.31952,"sequence":62},{"stopId":"12000718","stopName":"Sri Pangkor Kondominium","stopCode":"ICR0718","lat":5.42875,"lon":100.31974,"sequence":63},{"stopId":"12000719","stopName":"Gurney Hotel","stopCode":"ICR0719","lat":5.42947,"lon":100.31879,"sequence":64},{"stopId":"12000720","stopName":"Evergreen Hotel","stopCode":"ICR0720","lat":5.4303,"lon":100.31715,"sequence":65},{"stopId":"12000721","stopName":"Masjid Jamek Al Munawer","stopCode":"ICR0721","lat":5.43073,"lon":100.31622,"sequence":66},{"stopId":"12000722","stopName":"Flat Kelawei","stopCode":"ICR0722","lat":5.4313,"lon":100.31533,"sequence":67},{"stopId":"12000723","stopName":"Sleeping Buddha","stopCode":"ICR0723","lat":5.43209,"lon":100.31404,"sequence":68},{"stopId":"12000724","stopName":"Pangsapuri Festival","stopCode":"ICR0724","lat":5.43341,"lon":100.31219,"sequence":69},{"stopId":"12000726","stopName":"Gurney Paragon","stopCode":"ICR0726","lat":5.43463,"lon":100.31057,"sequence":70},{"stopId":"12000727","stopName":"Gurney Plaza","stopCode":"ICR0727","lat":5.43594,"lon":100.30881,"sequence":71},{"stopId":"12000105","stopName":"Jalan Bagan Jermal(Gurney)","stopCode":"I0V0105","lat":5.4396,"lon":100.30738,"sequence":72},{"stopId":"12000102","stopName":"SMJK Phor Tay","stopCode":"I0V0102","lat":5.43713,"lon":100.30551,"sequence":73},{"stopId":"12000101","stopName":"Sekolah St. Nicholas","stopCode":"I0V0101","lat":5.43559,"lon":100.30415,"sequence":74},{"stopId":"12000371","stopName":"(M1) Hospital Adventist","stopCode":"IAX0371","lat":5.43375,"lon":100.30376,"sequence":75}],"shape":[[5.3218,100.28498],[5.32177,100.28485],[5.32181,100.28387],[5.32185,100.28381],[5.32183,100.28373],[5.32186,100.28336],[5.3219,100.28331],[5.32186,100.28326],[5.32186,100.28302],[5.32189,100.28296],[5.32185,100.28285],[5.32187,100.2816],[5.32191,100.28152],[5.32185,100.28156],[5.32096,100.28152],[5.32086,100.28146],[5.32066,100.28164],[5.32063,100.28205],[5.32057,100.28216],[5.32053,100.28285],[5.32027,100.28421],[5.32018,100.28456],[5.32019,100.28477],[5.3201,100.28513],[5.31993,100.28547],[5.31991,100.28557],[5.31975,100.28552],[5.31964,100.28546],[5.31961,100.28541],[5.3192,100.28528],[5.31852,100.28502],[5.31802,100.28482],[5.31732,100.28455],[5.31685,100.28436],[5.3171,100.28344],[5.31747,100.28235],[5.31776,100.28131],[5.3181,100.28023],[5.31771,100.28008],[5.31728,100.27994],[5.31686,100.27984],[5.31671,100.28034],[5.31646,100.28114],[5.31626,100.28185],[5.31609,100.28244],[5.31589,100.28307],[5.31584,100.2833],[5.31564,100.28395],[5.31624,100.28413],[5.31653,100.28421],[5.3169,100.28431],[5.31696,100.28436],[5.31796,100.28476],[5.31861,100.28501],[5.31918,100.28521],[5.31961,100.28541],[5.31972,100.2854],[5.31981,100.28541],[5.31993,100.28547],[5.32021,100.28559],[5.32059,100.2857],[5.32101,100.28585],[5.32137,100.286],[5.32195,100.28626],[5.32206,100.28629],[5.32308,100.28669],[5.32406,100.28703],[5.32488,100.28729],[5.32523,100.28744],[5.32562,100.28756],[5.3259,100.28761],[5.32659,100.28769],[5.32677,100.28759],[5.32688,100.28747],[5.32698,100.28562],[5.32699,100.28533],[5.32702,100.28438],[5.32703,100.28399],[5.32707,100.28316],[5.32712,100.28271],[5.32716,100.28247],[5.32721,100.28199],[5.32724,100.28176],[5.32727,100.28151],[5.32741,100.28049],[5.32745,100.28018],[5.32761,100.27938],[5.32782,100.27841],[5.32785,100.27826],[5.32786,100.27817],[5.32798,100.2782],[5.32874,100.27838],[5.32916,100.27855],[5.3294,100.27868],[5.32992,100.27905],[5.3302,100.27932],[5.33047,100.27964],[5.33063,100.27991],[5.33083,100.28038],[5.33087,100.28051],[5.33119,100.28162],[5.33129,100.28188],[5.33145,100.28242],[5.33157,100.28292],[5.33161,100.2831],[5.33168,100.28329],[5.33191,100.28413],[5.33226,100.28538],[5.33255,100.28663],[5.33273,100.28741],[5.33275,100.28766],[5.33281,100.2879],[5.33288,100.2884],[5.3329,100.2886],[5.33289,100.28872],[5.33288,100.28893],[5.33281,100.28972],[5.33279,100.29002],[5.33266,100.29084],[5.33253,100.29168],[5.33244,100.29216],[5.33233,100.29282],[5.33208,100.29395],[5.33202,100.29422],[5.33205,100.29444],[5.33212,100.29469],[5.33214,100.29481],[5.3323,100.29515],[5.33226,100.29539],[5.33217,100.29558],[5.3321,100.29567],[5.33179,100.29583],[5.33165,100.29603],[5.33149,100.29637],[5.33121,100.29731],[5.33081,100.29858],[5.33035,100.30004],[5.33028,100.30047],[5.33027,100.30077],[5.3303,100.30154],[5.33036,100.30176],[5.33039,100.30206],[5.33051,100.30265],[5.33068,100.30309],[5.3312,100.30386],[5.33136,100.30416],[5.33146,100.3044],[5.33152,100.30478],[5.33154,100.30526],[5.33152,100.30587],[5.33146,100.3062],[5.33133,100.30646],[5.33112,100.30672],[5.33084,100.30689],[5.33056,100.30695],[5.3305,100.30703],[5.33013,100.30701],[5.32984,100.30692],[5.32968,100.30692],[5.32931,100.30675],[5.32899,100.30656],[5.32875,100.30645],[5.32853,100.30638],[5.32836,100.30638],[5.32825,100.30645],[5.32814,100.3066],[5.32819,100.30671],[5.32818,100.30683],[5.32808,100.30693],[5.32831,100.3072],[5.32924,100.3078],[5.33007,100.30814],[5.33044,100.30826],[5.33103,100.30838],[5.33127,100.3084],[5.33141,100.3084],[5.3315,100.30833],[5.33157,100.30831],[5.33171,100.30821],[5.33194,100.30795],[5.33221,100.30767],[5.33238,100.30753],[5.33264,100.30736],[5.33319,100.30709],[5.3336,100.30695],[5.33395,100.30688],[5.33438,100.30686],[5.33485,100.30693],[5.33509,100.307],[5.33531,100.30711],[5.33558,100.30727],[5.33581,100.30745],[5.3361,100.30769],[5.33652,100.30802],[5.33701,100.30831],[5.33726,100.30842],[5.33768,100.30852],[5.33778,100.30845],[5.33793,100.30828],[5.33807,100.30783],[5.33848,100.30663],[5.33898,100.30506],[5.33909,100.30479],[5.33925,100.30447],[5.3394,100.30419],[5.33969,100.30379],[5.3398,100.30366],[5.34054,100.30291],[5.34077,100.30266],[5.3409,100.30246],[5.34127,100.3018],[5.34198,100.30052],[5.34209,100.3003],[5.34222,100.30006],[5.34231,100.29986],[5.34302,100.29857],[5.34336,100.298],[5.34349,100.29787],[5.34359,100.29767],[5.34371,100.29746],[5.34401,100.29715],[5.34447,100.29682],[5.34585,100.29589],[5.34609,100.29577],[5.34671,100.29559],[5.34766,100.29552],[5.34799,100.29561],[5.34924,100.29611],[5.3495,100.29624],[5.34969,100.29633],[5.34988,100.29648],[5.35013,100.29668],[5.35039,100.29695],[5.35078,100.29741],[5.35096,100.2976],[5.35103,100.29767],[5.35174,100.29853],[5.35193,100.29883],[5.35208,100.299],[5.35224,100.29926],[5.35236,100.29952],[5.35245,100.29981],[5.35253,100.3005],[5.35256,100.30084],[5.35267,100.30128],[5.35268,100.30146],[5.35278,100.30159],[5.35304,100.30264],[5.35307,100.30274],[5.35311,100.30297],[5.35322,100.30325],[5.35332,100.3035],[5.35334,100.3036],[5.35351,100.30378],[5.35375,100.30403],[5.35395,100.30421],[5.35407,100.3043],[5.35419,100.30446],[5.35427,100.30466],[5.35431,100.30483],[5.35435,100.30503],[5.35436,100.30522],[5.35435,100.30544],[5.3543,100.30559],[5.35424,100.30578],[5.35396,100.30632],[5.35382,100.30652],[5.35371,100.30684],[5.35368,100.30703],[5.35366,100.30723],[5.35401,100.30778],[5.35476,100.3086],[5.35566,100.30923],[5.35654,100.30971],[5.35672,100.30979],[5.35735,100.31003],[5.35883,100.31038],[5.36017,100.3106],[5.36231,100.31096],[5.36358,100.31109],[5.36494,100.31102],[5.36621,100.31076],[5.36749,100.31033],[5.36818,100.31015],[5.3687,100.31009],[5.36981,100.31004],[5.37093,100.30996],[5.37161,100.30974],[5.37248,100.30926],[5.3736,100.30876],[5.37468,100.30852],[5.37626,100.30815],[5.37724,100.30794],[5.3781,100.3079],[5.37826,100.30784],[5.3796,100.30776],[5.37983,100.30776],[5.37998,100.30765],[5.38002,100.30755],[5.38019,100.30741],[5.38098,100.30693],[5.3813,100.30672],[5.38156,100.30666],[5.38226,100.30657],[5.38279,100.30646],[5.38336,100.30625],[5.38413,100.30585],[5.38436,100.30574],[5.38518,100.3054],[5.38624,100.30488],[5.38726,100.30437],[5.38811,100.30388],[5.38909,100.30337],[5.39005,100.30288],[5.39101,100.30253],[5.39131,100.30246],[5.39164,100.30243],[5.39183,100.30246],[5.39294,100.3027],[5.39411,100.30294],[5.39475,100.30307],[5.39543,100.30322],[5.39637,100.30349],[5.39712,100.30358],[5.39817,100.30368],[5.39851,100.30372],[5.39884,100.30376],[5.39929,100.30382],[5.40028,100.30395],[5.40131,100.30402],[5.40188,100.304],[5.40233,100.30391],[5.40295,100.30385],[5.40369,100.30377],[5.40433,100.30365],[5.40497,100.30357],[5.4053,100.30349],[5.40562,100.30339],[5.40599,100.30331],[5.40684,100.303],[5.40745,100.30277],[5.40826,100.30251],[5.40876,100.30234],[5.40911,100.30225],[5.40943,100.30223],[5.4101,100.30221],[5.4103,100.30221],[5.41125,100.30214],[5.41273,100.30213],[5.41376,100.30213],[5.4143,100.30212],[5.41526,100.30211],[5.41576,100.30213],[5.4161,100.30219],[5.4163,100.30227],[5.41645,100.30236],[5.41674,100.30258],[5.41687,100.30274],[5.41726,100.30314],[5.41799,100.304],[5.41851,100.30449],[5.41884,100.30486],[5.419,100.30491],[5.41922,100.30485],[5.41932,100.30485],[5.41962,100.30464],[5.4199,100.30441],[5.41992,100.30441],[5.42062,100.30394],[5.42117,100.30358],[5.42144,100.30359],[5.42161,100.30373],[5.42167,100.30375],[5.42183,100.3042],[5.422,100.30455],[5.42261,100.30558],[5.42271,100.3058],[5.42288,100.30631],[5.42291,100.30643],[5.42301,100.30663],[5.42305,100.30677],[5.42308,100.30701],[5.42308,100.30725],[5.42274,100.30904],[5.42241,100.31077],[5.42233,100.31119],[5.42218,100.31199],[5.42215,100.31212],[5.42204,100.31213],[5.42192,100.31215],[5.42173,100.3121],[5.42147,100.31198],[5.42119,100.31188],[5.42064,100.31167],[5.42033,100.31153],[5.41993,100.31134],[5.41964,100.31125],[5.41893,100.31097],[5.41836,100.31068],[5.41775,100.31042],[5.41752,100.31019],[5.41745,100.31],[5.41686,100.30893],[5.41668,100.30863],[5.41664,100.30856],[5.41657,100.30861],[5.41647,100.30862],[5.41631,100.30891],[5.4157,100.31],[5.41539,100.31055],[5.41519,100.31081],[5.41484,100.31121],[5.4146,100.31152],[5.41444,100.31174],[5.41404,100.31226],[5.4139,100.31247],[5.41374,100.31273],[5.41363,100.31285],[5.41358,100.31372],[5.41353,100.31418],[5.4134,100.31463],[5.41302,100.31565],[5.41291,100.31613],[5.41289,100.31666],[5.41286,100.31747],[5.41288,100.31862],[5.41285,100.3191],[5.41279,100.3194],[5.4125,100.32056],[5.41231,100.32144],[5.41221,100.3221],[5.41214,100.32277],[5.41209,100.32317],[5.41215,100.32352],[5.4123,100.32371],[5.41262,100.32409],[5.41284,100.32459],[5.41314,100.32538],[5.41333,100.32624],[5.41361,100.3273],[5.41391,100.32795],[5.41409,100.32849],[5.41414,100.32854],[5.41431,100.32877],[5.41446,100.32886],[5.41545,100.32919],[5.41564,100.32928],[5.4162,100.32945],[5.41667,100.32989],[5.41683,100.32992],[5.41696,100.32986],[5.41698,100.32976],[5.41745,100.32922],[5.41766,100.32902],[5.41782,100.32879],[5.418,100.32856],[5.4186,100.32789],[5.41913,100.32726],[5.41965,100.32665],[5.42008,100.32606],[5.4201,100.32606],[5.42054,100.32556],[5.4206,100.32553],[5.42089,100.32522],[5.4212,100.32492],[5.42135,100.32475],[5.42146,100.32457],[5.42162,100.32436],[5.42175,100.3241],[5.42226,100.32328],[5.42261,100.32282],[5.42313,100.32209],[5.42341,100.32167],[5.42371,100.32123],[5.42399,100.32084],[5.42429,100.32042],[5.42487,100.31962],[5.4257,100.31847],[5.42589,100.31835],[5.426,100.31836],[5.42604,100.3184],[5.42678,100.3191],[5.42742,100.31968],[5.42765,100.31987],[5.4281,100.32026],[5.42828,100.32026],[5.42842,100.32012],[5.42905,100.3194],[5.42934,100.31902],[5.42974,100.31842],[5.43018,100.31745],[5.43041,100.31695],[5.43054,100.31665],[5.43095,100.3159],[5.43112,100.31561],[5.43151,100.31501],[5.43199,100.31423],[5.43239,100.31375],[5.43278,100.31332],[5.4328,100.31332],[5.43298,100.31299],[5.43319,100.31264],[5.43331,100.31248],[5.43379,100.31176],[5.43421,100.31114],[5.43433,100.31099],[5.43468,100.31044],[5.43496,100.31005],[5.43527,100.30956],[5.43556,100.30919],[5.43575,100.30899],[5.43629,100.30866],[5.43669,100.30853],[5.43709,100.30845],[5.4385,100.3081],[5.43978,100.30779],[5.43982,100.30763],[5.43978,100.30749],[5.43917,100.30708],[5.43863,100.30677],[5.4385,100.30668],[5.43831,100.30649],[5.43783,100.30613],[5.43712,100.3055],[5.43665,100.30507],[5.43633,100.30468],[5.43609,100.30443],[5.43596,100.30433],[5.43575,100.30422],[5.43533,100.30404],[5.43511,100.30392],[5.43469,100.30361],[5.43436,100.30337],[5.43433,100.30334],[5.43389,100.30357],[5.43345,100.30414],[5.43329,100.30437]]}