{"routeId":"30000013","shortName":"303","directionId":1,"headsign":"BKT.GEDUNG - JETI","stops":[{"stopId":"12000888","stopName":"Hub Pasaraya Giant","stopCode":"IDT0888","lat":5.32174,"lon":100.28442,"sequence":1},{"stopId":"12000877","stopName":"Pangsapuri Mayang","stopCode":"IDT0877","lat":5.31841,"lon":100.28499,"sequence":2},{"stopId":"12002083","stopName":"Taman Gedung Heights I","stopCode":"IKP2083","lat":5.31742,"lon":100.28243,"sequence":3},{"stopId":"12002081","stopName":"Taman Gedung Heights II","stopCode":"IKP2081","lat":5.31727,"lon":100.28004,"sequence":4},{"stopId":"12002315","stopName":"Gedung Height III","stopCode":"ICT0048","lat":5.31643,"lon":100.28105,"sequence":5},{"stopId":"12002316","stopName":"Gedung Height IV","stopCode":"ICT0049","lat":5.31618,"lon":100.28202,"sequence":6},{"stopId":"12000876","stopName":"Astaka Bukit Gedung","stopCode":"IDT0876","lat":5.31614,"lon":100.28407,"sequence":7},{"stopId":"12002317","stopName":"Pangsapuri Mayang","stopCode":"ICT0050","lat":5.31838,"lon":100.28491,"sequence":8},{"stopId":"12000879","stopName":"Pasaraya Giant","stopCode":"IDT0879","lat":5.32071,"lon":100.28571,"sequence":9},{"stopId":"12000882","stopName":"Masjid Bayan Baru","stopCode":"IDT0882","lat":5.32367,"lon":100.28688,"sequence":10},{"stopId":"12000885","stopName":"Sunshine Square","stopCode":"IDT0885","lat":5.3255,"lon":100.2875,"sequence":11},{"stopId":"12000847","stopName":"KFC Jalan Mahsuri","stopCode":"IDN0847","lat":5.32686,"lon":100.28667,"sequence":12},{"stopId":"12000848","stopName":"Mayang Mall","stopCode":"IDN0848","lat":5.32693,"lon":100.2843,"sequence":13},{"stopId":"12000851","stopName":"(M2) Spice","stopCode":"IDN0851","lat":5.32736,"lon":100.28051,"sequence":14},{"stopId":"12001837","stopName":"Setia Welcome Center","stopCode":"IID1837","lat":5.32963,"lon":100.27883,"sequence":15},{"stopId":"12001840","stopName":"SRJK Min Sin","stopCode":"IID1840","lat":5.33117,"lon":100.28143,"sequence":16},{"stopId":"12001842","stopName":"Bukit Jambul Golf Club","stopCode":"IID1842","lat":5.33199,"lon":100.28419,"sequence":17},{"stopId":"12001845","stopName":"Masjid Sungai Nibong Kecil","stopCode":"IID1845","lat":5.3326,"lon":100.28684,"sequence":18},{"stopId":"12001847","stopName":"Kompleks Bukit Jambul","stopCode":"IID1847","lat":5.3327,"lon":100.29074,"sequence":19},{"stopId":"12001435","stopName":"SRJK Kwang Hwa","stopCode":"IGR1435","lat":5.33615,"lon":100.29726,"sequence":20},{"stopId":"12001437","stopName":"Ayamas Sg. Nibong","stopCode":"IGR1437","lat":5.33806,"lon":100.29855,"sequence":21},{"stopId":"12001439","stopName":"Masjid Jamek Sg Nibong","stopCode":"IGR1439","lat":5.34011,"lon":100.29935,"sequence":22},{"stopId":"12001492","stopName":"Terminal Ekspress Sg Nibong","stopCode":"IGX1492","lat":5.34244,"lon":100.29952,"sequence":23},{"stopId":"12001494","stopName":"SJKC Phor Tay","stopCode":"IGX1494","lat":5.34373,"lon":100.29739,"sequence":24},{"stopId":"12001497","stopName":"SRJK Keong Hoe","stopCode":"IGX1497","lat":5.34654,"lon":100.29564,"sequence":25},{"stopId":"12001500","stopName":"Tesco Sungai Dua","stopCode":"IGX1500","lat":5.35118,"lon":100.29788,"sequence":26},{"stopId":"12001502","stopName":"Apartmen Desa Universiti","stopCode":"IGX1502","lat":5.35216,"lon":100.29911,"sequence":27},{"stopId":"12001503","stopName":"USM","stopCode":"IGX1503","lat":5.35284,"lon":100.30186,"sequence":28},{"stopId":"12001448","stopName":"Jejantas Batu Uban","stopCode":"IGR1448","lat":5.35418,"lon":100.30793,"sequence":29},{"stopId":"12001450","stopName":"Padang Bola USM","stopCode":"IGR1450","lat":5.35994,"lon":100.31049,"sequence":30},{"stopId":"12001452","stopName":"SK Sg. Gelugor","stopCode":"IGR1452","lat":5.36497,"lon":100.31097,"sequence":31},{"stopId":"12001455","stopName":"Maybank Gelugor","stopCode":"IGR1455","lat":5.36971,"lon":100.31005,"sequence":32},{"stopId":"12001457","stopName":"KTM Motor","stopCode":"IGR1457","lat":5.37278,"lon":100.30903,"sequence":33},{"stopId":"12001459","stopName":"Recsam","stopCode":"IGR1459","lat":5.37671,"lon":100.30803,"sequence":34},{"stopId":"12000565","stopName":"Bukit Dumbar","stopCode":"ICA0565","lat":5.38595,"lon":100.31157,"sequence":35},{"stopId":"12000566","stopName":"Pekan Jelutong","stopCode":"ICA0566","lat":5.3879,"lon":100.3127,"sequence":36},{"stopId":"12001069","stopName":"Asrama Munshi","stopCode":"IEX1069","lat":5.39236,"lon":100.31354,"sequence":37},{"stopId":"12001070","stopName":"Sunshine Jelutong","stopCode":"IEX1070","lat":5.3939,"lon":100.31424,"sequence":38},{"stopId":"12001071","stopName":"Old Town Café","stopCode":"IEX1071","lat":5.39527,"lon":100.31467,"sequence":39},{"stopId":"12000570","stopName":"(M2) Hong Leong Bank Jelutong","stopCode":"ICA0570","lat":5.39582,"lon":100.31751,"sequence":40},{"stopId":"12000572","stopName":"Taman Cemerlang","stopCode":"ICA0572","lat":5.39701,"lon":100.31896,"sequence":41},{"stopId":"12000575","stopName":"Maybank Jelutong","stopCode":"ICA0575","lat":5.3979,"lon":100.31989,"sequence":42},{"stopId":"12000576","stopName":"SJK(C) MOH GHEE Cawangan","stopCode":"ICA0576","lat":5.40042,"lon":100.3222,"sequence":43},{"stopId":"12001583","stopName":"Jejantas Jalan Sungai Pinang","stopCode":"IHA1583","lat":5.39985,"lon":100.32578,"sequence":44},{"stopId":"12000006","stopName":"Pejabat Pos Macallum","stopCode":"I0C0006","lat":5.40606,"lon":100.3319,"sequence":45},{"stopId":"12002017","stopName":"SJK Li Tek","stopCode":"IJU2017","lat":5.40604,"lon":100.33349,"sequence":46},{"stopId":"12000009","stopName":"Apartment Sri Saujana","stopCode":"I0E0009","lat":5.40706,"lon":100.3333,"sequence":47},{"stopId":"12000003","stopName":"Flat Lebuh Noordin","stopCode":"I0B0003","lat":5.41115,"lon":100.33395,"sequence":48},{"stopId":"12000842","stopName":"Jalan Magazine","stopCode":"IDL0842","lat":5.41194,"lon":100.333,"sequence":49},{"stopId":"12001937","stopName":"Komtar","stopCode":"IIV1937","lat":5.41378,"lon":100.33094,"sequence":50},{"stopId":"12001910","stopName":"Lebuh Carnavon","stopCode":"IIO1910","lat":5.41424,"lon":100.33328,"sequence":51},{"stopId":"12001915","stopName":"Hotel Armenian","stopCode":"IIO1915","lat":5.41549,"lon":100.335,"sequence":52},{"stopId":"12000611","stopName":"Kampung Kolam","stopCode":"ICF0611","lat":5.41614,"lon":100.33647,"sequence":53},{"stopId":"12001917","stopName":"Little India","stopCode":"IIP1917","lat":5.41647,"lon":100.33854,"sequence":54},{"stopId":"12002318","stopName":"Container Hotel","stopCode":"ICT0052","lat":5.4142,"lon":100.34045,"sequence":55},{"stopId":"12002056","stopName":"Jejantas Terminal Feri","stopCode":"IKI2056","lat":5.41452,"lon":100.34187,"sequence":56},{"stopId":"12002058","stopName":"Pejabat Pos Besar P.Pinang","stopCode":"IKI2058","lat":5.41721,"lon":100.34428,"sequence":57},{"stopId":"12002971","stopName":"Pejabat Pos Besar P.Pinang 1","stopCode":"IIR1926","lat":5.41802,"lon":100.34369,"sequence":58},{"stopId":"12001943","stopName":"Balai Polis","stopCode":"IIZ1943","lat":5.41865,"lon":100.34356,"sequence":59},{"stopId":"12002972","stopName":"Swettenham Pier Cruise Terminal","stopCode":"IIR1927","lat":5.4185,"lon":100.34508,"sequence":60},{"stopId":"12002057","stopName":"Church Street Pier","stopCode":"IKI2057","lat":5.41664,"lon":100.34413,"sequence":61},{"stopId":"12002113","stopName":"(M1) JETTY A","stopCode":"IKI2054","lat":5.41417,"lon":100.34223,"sequence":62}],"shape":[[5.3218,100.28498],[5.32177,100.28485],[5.32181,100.28387],[5.32185,100.28381],[5.32183,100.28373],[5.32186,100.28336],[5.3219,100.28331],[5.32186,100.28326],[5.32186,100.28302],[5.32189,100.28296],[5.32185,100.28285],[5.32187,100.2816],[5.32191,100.28152],[5.32185,100.28156],[5.32096,100.28152],[5.32086,100.28146],[5.32066,100.28164],[5.32063,100.28205],[5.32057,100.28216],[5.32053,100.28285],[5.32027,100.28421],[5.32018,100.28456],[5.32019,100.28477],[5.3201,100.28513],[5.31993,100.28547],[5.31991,100.28557],[5.31975,100.28552],[5.31964,100.28546],[5.31961,100.28541],[5.3192,100.28528],[5.31852,100.28502],[5.31802,100.28482],[5.31732,100.28455],[5.31685,100.28436],[5.3171,100.28344],[5.31747,100.28235],[5.31776,100.28131],[5.3181,100.28023],[5.31771,100.28008],[5.31728,100.27994],[5.31686,100.27984],[5.31671,100.28034],[5.31646,100.28114],[5.31626,100.28185],[5.31609,100.28244],[5.31589,100.28307],[5.31584,100.2833],[5.31564,100.28395],[5.31624,100.28413],[5.31653,100.28421],[5.3169,100.28431],[5.31696,100.28436],[5.31796,100.28476],[5.31861,100.28501],[5.31918,100.28521],[5.31961,100.28541],[5.31972,100.2854],[5.31981,100.28541],[5.31993,100.28547],[5.32021,100.28559],[5.32059,100.2857],[5.32101,100.28585],[5.32137,100.286],[5.32195,100.28626],[5.32206,100.28629],[5.32308,100.28669],[5.32406,100.28703],[5.32488,100.28729],[5.32523,100.28744],[5.32562,100.28756],[5.3259,100.28761],[5.32659,100.28769],[5.32677,100.28759],[5.32688,100.28747],[5.32698,100.28562],[5.32699,100.28533],[5.32702,100.28438],[5.32703,100.28399],[5.32707,100.28316],[5.32712,100.28271],[5.32716,100.28247],[5.32721,100.28199],[5.32724,100.28176],[5.32727,100.28151],[5.32741,100.28049],[5.32745,100.28018],[5.32761,100.27938],[5.32782,100.27841],[5.32785,100.27826],[5.32786,100.27817],[5.32798,100.2782],[5.32874,100.27838],[5.32916,100.27855],[5.3294,100.27868],[5.32992,100.27905],[5.3302,100.27932],[5.33047,100.27964],[5.33063,100.27991],[5.33083,100.28038],[5.33087,100.28051],[5.33119,100.28162],[5.33129,100.28188],[5.33145,100.28242],[5.33157,100.28292],[5.33161,100.2831],[5.33168,100.28329],[5.33191,100.28413],[5.33226,100.28538],[5.33255,100.28663],[5.33273,100.28741],[5.33275,100.28766],[5.33281,100.2879],[5.33288,100.2884],[5.3329,100.2886],[5.33289,100.28872],[5.33288,100.28893],[5.33281,100.28972],[5.33279,100.29002],[5.33266,100.29084],[5.33253,100.29168],[5.33244,100.29216],[5.33233,100.29282],[5.33208,100.29395],[5.33202,100.29422],[5.33205,100.29444],[5.33212,100.29469],[5.33214,100.29481],[5.3323,100.29515],[5.33252,100.29536],[5.33267,100.29547],[5.33282,100.29551],[5.33319,100.29565],[5.33389,100.29587],[5.33401,100.29587],[5.33425,100.29593],[5.33462,100.29612],[5.33482,100.29621],[5.335,100.29633],[5.33528,100.29652],[5.33555,100.29674],[5.33572,100.29688],[5.33586,100.29701],[5.33593,100.29711],[5.33597,100.29716],[5.33623,100.29737],[5.33654,100.29763],[5.33707,100.29805],[5.3374,100.29825],[5.33774,100.29847],[5.3385,100.2988],[5.33866,100.2988],[5.3395,100.29916],[5.3408,100.29968],[5.34134,100.29994],[5.34171,100.30012],[5.34194,100.30024],[5.34196,100.3002],[5.34202,100.30018],[5.34212,100.30015],[5.34222,100.30006],[5.34231,100.29986],[5.34302,100.29857],[5.34336,100.298],[5.34349,100.29787],[5.34359,100.29767],[5.34371,100.29746],[5.34401,100.29715],[5.34447,100.29682],[5.34585,100.29589],[5.34609,100.29577],[5.34671,100.29559],[5.34766,100.29552],[5.34799,100.29561],[5.34924,100.29611],[5.3495,100.29624],[5.34969,100.29633],[5.34988,100.29648],[5.35013,100.29668],[5.35039,100.29695],[5.35078,100.29741],[5.35096,100.2976],[5.35103,100.29767],[5.35174,100.29853],[5.35193,100.29883],[5.35208,100.299],[5.35224,100.29926],[5.35236,100.29952],[5.35245,100.29981],[5.35253,100.3005],[5.35256,100.30084],[5.35267,100.30128],[5.35268,100.30146],[5.35278,100.30159],[5.35304,100.30264],[5.35307,100.30274],[5.35311,100.30297],[5.35322,100.30325],[5.35332,100.3035],[5.35334,100.3036],[5.35351,100.30378],[5.35375,100.30403],[5.35395,100.30421],[5.35407,100.3043],[5.35419,100.30446],[5.35427,100.30466],[5.35431,100.30483],[5.35435,100.30503],[5.35436,100.30522],[5.35435,100.30544],[5.3543,100.30559],[5.35424,100.30578],[5.35396,100.30632],[5.35382,100.30652],[5.35371,100.30684],[5.35368,100.30703],[5.35366,100.30723],[5.35401,100.30778],[5.35476,100.3086],[5.35566,100.30923],[5.35654,100.30971],[5.35672,100.30979],[5.35735,100.31003],[5.35883,100.31038],[5.36017,100.3106],[5.36231,100.31096],[5.36358,100.31109],[5.36494,100.31102],[5.36621,100.31076],[5.36749,100.31033],[5.36818,100.31015],[5.3687,100.31009],[5.36981,100.31004],[5.37093,100.30996],[5.37161,100.30974],[5.37248,100.30926],[5.3736,100.30876],[5.37468,100.30852],[5.37626,100.30815],[5.37724,100.30794],[5.3781,100.3079],[5.37921,100.30787],[5.3802,100.30789],[5.38138,100.3079],[5.38207,100.30787],[5.3823,100.30793],[5.38242,100.30799],[5.38293,100.3081],[5.38317,100.30819],[5.38395,100.30871],[5.38465,100.30925],[5.38486,100.30948],[5.38501,100.30971],[5.38529,100.31023],[5.38561,100.31083],[5.38594,100.31158],[5.38599,100.31176],[5.38609,100.31188],[5.38628,100.31214],[5.38659,100.31237],[5.38682,100.31249],[5.38693,100.31258],[5.38743,100.31265],[5.38884,100.31286],[5.38954,100.31294],[5.3902,100.31304],[5.39084,100.31318],[5.39101,100.31322],[5.39112,100.3133],[5.39126,100.31327],[5.39132,100.31327],[5.39192,100.31343],[5.39265,100.31367],[5.39304,100.31384],[5.3942,100.31436],[5.39477,100.31458],[5.39509,100.31466],[5.39558,100.31472],[5.39614,100.31474],[5.39643,100.31475],[5.39619,100.31546],[5.39596,100.31612],[5.39576,100.31666],[5.39561,100.31706],[5.39563,100.31726],[5.39568,100.31745],[5.39625,100.31809],[5.39686,100.31879],[5.39715,100.3191],[5.39772,100.31972],[5.39808,100.32005],[5.39859,100.32043],[5.39906,100.32075],[5.3994,100.32102],[5.39996,100.32162],[5.40025,100.32203],[5.4003,100.32211],[5.40117,100.32316],[5.40156,100.32361],[5.40162,100.32373],[5.40175,100.32378],[5.4018,100.32387],[5.40172,100.32395],[5.40139,100.32427],[5.40068,100.32495],[5.39991,100.32565],[5.3995,100.32604],[5.3995,100.32618],[5.3995,100.32627],[5.39954,100.32638],[5.40049,100.32725],[5.4012,100.3278],[5.4013,100.32801],[5.40233,100.32877],[5.40282,100.32911],[5.40381,100.32968],[5.40485,100.33024],[5.40567,100.33071],[5.40624,100.33112],[5.40647,100.33127],[5.40638,100.33141],[5.40621,100.33173],[5.406,100.33204],[5.40576,100.33238],[5.40554,100.33267],[5.4053,100.33301],[5.40589,100.33346],[5.40657,100.33398],[5.40667,100.33388],[5.40698,100.33345],[5.40734,100.33293],[5.40765,100.33253],[5.40775,100.33238],[5.40782,100.33226],[5.40791,100.33231],[5.40811,100.33245],[5.40885,100.33294],[5.40906,100.33314],[5.40936,100.3334],[5.40964,100.33368],[5.40975,100.33383],[5.41003,100.33417],[5.41016,100.33436],[5.41044,100.33448],[5.41135,100.33392],[5.4116,100.33372],[5.41169,100.33357],[5.41201,100.33292],[5.41241,100.33212],[5.41258,100.33176],[5.41286,100.33122],[5.41315,100.33067],[5.41357,100.33088],[5.41382,100.331],[5.41396,100.33116],[5.41467,100.33194],[5.41459,100.33223],[5.41409,100.33263],[5.41397,100.33271],[5.41394,100.33283],[5.41445,100.33358],[5.41479,100.33413],[5.41523,100.33471],[5.41567,100.33522],[5.41638,100.33555],[5.41625,100.33594],[5.4162,100.3361],[5.41617,100.3362],[5.41616,100.33641],[5.41601,100.33717],[5.41602,100.33726],[5.41604,100.33732],[5.41611,100.33739],[5.41643,100.33753],[5.41666,100.33767],[5.41709,100.33794],[5.41685,100.33817],[5.41666,100.33837],[5.4163,100.33872],[5.4158,100.3392],[5.41547,100.33953],[5.41543,100.33962],[5.41537,100.33961],[5.41489,100.33998],[5.41444,100.3403],[5.41382,100.34073],[5.41372,100.34077],[5.41386,100.34108],[5.41435,100.3417],[5.41512,100.34262],[5.41584,100.34353],[5.41618,100.34377],[5.41719,100.34428],[5.41745,100.34441],[5.4178,100.34401],[5.41794,100.34387],[5.41818,100.34363],[5.41832,100.34349],[5.41842,100.34338],[5.41845,100.34338],[5.41869,100.34363],[5.41876,100.34371],[5.41886,100.34375],[5.41897,100.34385],[5.41912,100.34393],[5.41929,100.34391],[5.41937,100.344],[5.41937,100.34414],[5.41924,100.34422],[5.41918,100.34424],[5.41877,100.34486],[5.41856,100.34502],[5.41835,100.345],[5.41753,100.34456],[5.41666,100.34413],[5.41604,100.34382],[5.41578,100.34359],[5.41541,100.34312],[5.41484,100.34243],[5.41472,100.34232],[5.41433,100.34233],[5.41419,100.34216],[5.41423,100.34205],[5.41429,100.34185],[5.41429,100.34182],[5.41428,100.34176]],"tripIds":["260327030128S4","260327030124S10","260327020130S7","260327020129S7","260327020126S4","260327010130S3","260327010127S8","260327030127S8","260327030127S4","260327030124S4","260327020126S6","260327020124S6","260327010130S5","260327010129S5","260327010126S6","260327010126S4","260327010124S6","260327030129S3","260327030128S8","260327030127S6","260327030126S7","260327030126S3","260327030125S4","260327020130S3","260327020128S2","260327020124S4","260327010127S4","260327010124S8","260327030129S5","260327030128S6","260327030124S8","260327020127S2","260327020126S8","260327010129S7","260327010124S4","260327030126S5","260327030124S2","260327020124S8","260327020124S2","260327010129S9","260327010128S6","260327010128S4","260327010127S6","260327030125S8","260327030124S6","260327020130S9","260327020130S5","260327020128S4","260327020127S8","260327020127S6","260327020127S4","260327010130S9","260327010130S7","260327010129S3","260327010128S8","260327010128S2","260327010126S8","260327010126S2","260327010124S2","260327030129S9","260327030129S7","260327030128S2","260327020129S3","260327020128S8","260327020128S6","260327020126S2","260327030127S2","260327030126S9","260327030125S10","260327030125S6","260327030125S2","260327020129S9","260327020129S5","260327010127S2"],"oppositeTripIds":["260327030129S8","260327030126S2","260327020130S6","260327020129S6","260327030127S7","260327030126S6","260327020130S4","260327020129S4","260327020128S3","260327020127S9","260327020126S9","260327020124S7","260327020124S3","260327010130S4","260327010129S2","260327010126S9","260327010124S3","260327030129S2","260327030128S7","260327030127S5","260327030125S7","260327030125S3","260327030124S5","260327020128S9","260327020126S5","260327020126S3","260327020124S5","260327010130S8","260327010129S4","260327010124S7","260327030128S5","260327030127S3","260327030125S9","260327020128S7","260327020127S5","260327010124S9","260327030129S4","260327030128S3","260327030127S9","260327030125S5","260327030124S7","260327020124S9","260327010130S2","260327010128S7","260327010128S5","260327010126S7","260327030126S10","260327030126S8","260327030126S4","260327010127S9","260327010126S5","260327010126S3","260327030124S3","260327020130S2","260327020129S2","260327020127S7","260327010129S6","260327010127S7","260327010127S3","260327030129S6","260327030128S9","260327030124S9","260327020130S8","260327020129S8","260327020128S5","260327020127S3","260327020126S7","260327010130S6","260327010129S8","260327010128S9","260327010128S3","260327010127S5","260327010124S5"],"firstDeparture":"05:30","lastDeparture":"22:35","tripCount":74}