{"routeId":"30000034","shortName":"610","directionId":0,"headsign":"KEPALA BATAS - TASEK GELUGOR - KEPALA BATAS","stops":[{"stopId":"12001284","stopName":"Kompleks Dato Kailan","stopCode":"MFL1284","lat":5.5154,"lon":100.43176,"sequence":1},{"stopId":"12002118","stopName":"Taman Bertam Ria","stopCode":"MBI0476","lat":5.51006,"lon":100.43453,"sequence":2},{"stopId":"12000252","stopName":"Hospital Kepala Batas","stopCode":"MAI0252","lat":5.51283,"lon":100.43711,"sequence":3},{"stopId":"12002119","stopName":"IPD Seberang Prai Utara","stopCode":"MAI0254","lat":5.51404,"lon":100.43959,"sequence":4},{"stopId":"12000255","stopName":"Pejabat Tanah Kepala Batas","stopCode":"MAI0255","lat":5.51499,"lon":100.43655,"sequence":5},{"stopId":"12001924","stopName":"Tesco Kepala Batas","stopCode":"MIQ1924","lat":5.51602,"lon":100.44413,"sequence":6},{"stopId":"12002073","stopName":"MPC","stopCode":"MKM2073","lat":5.51543,"lon":100.4457,"sequence":7},{"stopId":"12000402","stopName":"Sunshine Bertam","stopCode":"MBC0402","lat":5.51591,"lon":100.44924,"sequence":8},{"stopId":"12002576","stopName":"Sunshine Bertam II","stopCode":"ICT8311","lat":5.51668,"lon":100.45016,"sequence":9},{"stopId":"12002075","stopName":"Sunshine Bertam","stopCode":"MKM2075","lat":5.51561,"lon":100.44977,"sequence":10},{"stopId":"12002074","stopName":"Bertam Walk","stopCode":"MKM2074","lat":5.51553,"lon":100.44817,"sequence":11},{"stopId":"12001855","stopName":"Kiosk Bertam","stopCode":"MIE1855","lat":5.5181,"lon":100.44867,"sequence":12},{"stopId":"12001857","stopName":"Kayangan","stopCode":"MIE1857","lat":5.51841,"lon":100.45284,"sequence":13},{"stopId":"12001860","stopName":"Masjid Abdullah Fahim","stopCode":"MIE1860","lat":5.51905,"lon":100.46468,"sequence":14},{"stopId":"12001862","stopName":"(M1) SMK Sains Kepala Batas","stopCode":"MIE1862","lat":5.51931,"lon":100.46866,"sequence":15},{"stopId":"12001864","stopName":"MRSM Kepala Batas","stopCode":"MIE1864","lat":5.51963,"lon":100.47281,"sequence":16},{"stopId":"12002951","stopName":"Pusat Penjaja Bandar Putra Bertam","stopCode":"MFH1304","lat":5.51804,"lon":100.47716,"sequence":17},{"stopId":"12002950","stopName":"Pusat Penjaja Bandar Putra Bertam","stopCode":"MFH1303","lat":5.51849,"lon":100.48112,"sequence":18},{"stopId":"12002089","stopName":"Bertam Putra 1","stopCode":"MKR2089","lat":5.51761,"lon":100.48602,"sequence":19},{"stopId":"12002088","stopName":"Bertam Putra 2","stopCode":"MKR2088","lat":5.5171,"lon":100.49075,"sequence":20},{"stopId":"12002572","stopName":"Bertam Putra 3","stopCode":"ICT8307","lat":5.51991,"lon":100.49345,"sequence":21},{"stopId":"12001869","stopName":"Kampung Pokok Jenerih","stopCode":"MIE1869","lat":5.52158,"lon":100.5006,"sequence":22},{"stopId":"12002573","stopName":"Kampung Pokok Jenerih I","stopCode":"ICT8308","lat":5.52162,"lon":100.50289,"sequence":23},{"stopId":"12001858","stopName":"Masjid Kubang Menerong","stopCode":"MIE1858","lat":5.51857,"lon":100.50645,"sequence":24},{"stopId":"12001853","stopName":"Taman Seri Menerong","stopCode":"MIE1853","lat":5.5138,"lon":100.50583,"sequence":25},{"stopId":"12001851","stopName":"Taman Perda Indah","stopCode":"MIE1851","lat":5.51084,"lon":100.50481,"sequence":26},{"stopId":"12002574","stopName":"Midtown PERDA","stopCode":"ICT8309","lat":5.50224,"lon":100.50166,"sequence":27},{"stopId":"12002995","stopName":"Taman Sepadu Jaya","stopCode":"MIE1880","lat":5.49094,"lon":100.49801,"sequence":28},{"stopId":"12001849","stopName":"(M2) Taman Sepadu","stopCode":"MIE1849","lat":5.48751,"lon":100.49526,"sequence":29},{"stopId":"12003000","stopName":"Klinik Kesihatan Tasek Gelugor","stopCode":"MIE1885","lat":5.48455,"lon":100.49111,"sequence":30},{"stopId":"12000487","stopName":"SK Tasek Gelugor","stopCode":"MBM0487","lat":5.48298,"lon":100.49216,"sequence":31},{"stopId":"12000486","stopName":"Kompleks Tasek Gelugor","stopCode":"MBM0486","lat":5.48172,"lon":100.49468,"sequence":32},{"stopId":"12000508","stopName":"Pejabat Pos Tasek Gelugor","stopCode":"MBM0508","lat":5.48184,"lon":100.49437,"sequence":33},{"stopId":"12000488","stopName":"SK Tasek Gelugor","stopCode":"MBM0488","lat":5.48305,"lon":100.49185,"sequence":34},{"stopId":"12002566","stopName":"Klinik Kesihatan Tasek Gelugor","stopCode":"ICT8300","lat":5.48469,"lon":100.49112,"sequence":35},{"stopId":"12001871","stopName":"Taman Sepadu","stopCode":"MIE1871","lat":5.48751,"lon":100.49512,"sequence":36},{"stopId":"12002996","stopName":"Taman Tasek Gelugor Utama","stopCode":"MIE1881","lat":5.48934,"lon":100.49723,"sequence":37},{"stopId":"12002997","stopName":"Taman Tasek Gelugor Utama II","stopCode":"MIE1882","lat":5.49111,"lon":100.49778,"sequence":38},{"stopId":"12002998","stopName":"Taman Tasek Gelugor Utama III","stopCode":"MIE1883","lat":5.49403,"lon":100.49867,"sequence":39},{"stopId":"12002999","stopName":"Taman Tasek Gelugor Utama IV","stopCode":"MIE1884","lat":5.4966,"lon":100.49957,"sequence":40},{"stopId":"12002569","stopName":"MIdtown PERDA","stopCode":"ICT8304","lat":5.50264,"lon":100.50161,"sequence":41},{"stopId":"12001852","stopName":"Taman Perda Indah","stopCode":"MIE1852","lat":5.5109,"lon":100.50464,"sequence":42},{"stopId":"12001872","stopName":"Taman Sri Menderung","stopCode":"MIE1872","lat":5.51461,"lon":100.50602,"sequence":43},{"stopId":"12001873","stopName":"Masjid Kubang Menderung","stopCode":"MIE1873","lat":5.51867,"lon":100.5064,"sequence":44},{"stopId":"12002567","stopName":"Kampung Pokok Jenerih I","stopCode":"ICT8301","lat":5.52162,"lon":100.50278,"sequence":45},{"stopId":"12001875","stopName":"Kampung Pokok Jenerih","stopCode":"MIE1875","lat":5.52133,"lon":100.50013,"sequence":46},{"stopId":"12002090","stopName":"Bertam Putra 4","stopCode":"MKR2090","lat":5.51994,"lon":100.49356,"sequence":47},{"stopId":"12002087","stopName":"Bertam Putra 3","stopCode":"MKR2087","lat":5.51699,"lon":100.49075,"sequence":48},{"stopId":"12002568","stopName":"(M3) Taman Bertam Putra","stopCode":"ICT8302","lat":5.51756,"lon":100.48595,"sequence":49},{"stopId":"12002949","stopName":"Bertam Putra 3","stopCode":"MFH1302","lat":5.51812,"lon":100.48114,"sequence":50},{"stopId":"12002952","stopName":"Pasaraya Mydin Bertam","stopCode":"MFH1305","lat":5.51781,"lon":100.47724,"sequence":51},{"stopId":"12001863","stopName":"MRSM Kepala Batas","stopCode":"MIE1863","lat":5.51943,"lon":100.47277,"sequence":52},{"stopId":"12002966","stopName":"SMK Sains Kepala Batas","stopCode":"MIE1861","lat":5.51893,"lon":100.46867,"sequence":53},{"stopId":"12002967","stopName":"Kolej Jururawat","stopCode":"MIE1859","lat":5.5182,"lon":100.46219,"sequence":54},{"stopId":"12001856","stopName":"Kayangan","stopCode":"MIE1856","lat":5.51812,"lon":100.45221,"sequence":55},{"stopId":"12002576","stopName":"Sunshine Bertam II","stopCode":"ICT8311","lat":5.51668,"lon":100.45016,"sequence":56},{"stopId":"12002075","stopName":"Sunshine Bertam","stopCode":"MKM2075","lat":5.51561,"lon":100.44977,"sequence":57},{"stopId":"12002074","stopName":"Bertam Walk","stopCode":"MKM2074","lat":5.51553,"lon":100.44817,"sequence":58},{"stopId":"12002072","stopName":"MPC","stopCode":"MKM2072","lat":5.51533,"lon":100.4457,"sequence":59},{"stopId":"12001923","stopName":"Tesco Kepala Batas","stopCode":"MIQ1923","lat":5.51601,"lon":100.4439,"sequence":60},{"stopId":"12000253","stopName":"IPD Seberang Prai Utara","stopCode":"MAI0253","lat":5.51394,"lon":100.43967,"sequence":61},{"stopId":"12000251","stopName":"Hospital Kepala Batas","stopCode":"MAI0251","lat":5.51273,"lon":100.43768,"sequence":62},{"stopId":"12000250","stopName":"Pejabat Tanah","stopCode":"MAI0250","lat":5.51392,"lon":100.43542,"sequence":63},{"stopId":"12001284","stopName":"Kompleks Dato Kailan","stopCode":"MFL1284","lat":5.5154,"lon":100.43176,"sequence":64}],"shape":[[5.51582,100.43174],[5.51524,100.43174],[5.51522,100.4307],[5.51523,100.43025],[5.51524,100.43002],[5.51482,100.43001],[5.51406,100.42999],[5.51306,100.42996],[5.51248,100.42996],[5.51139,100.42991],[5.51008,100.42989],[5.51008,100.42996],[5.51007,100.4312],[5.51004,100.43128],[5.51007,100.43135],[5.51005,100.43282],[5.51001,100.43289],[5.51005,100.43295],[5.51006,100.43363],[5.51002,100.43369],[5.51006,100.43375],[5.51003,100.4353],[5.51002,100.43534],[5.51001,100.43535],[5.51011,100.43533],[5.51148,100.43536],[5.51279,100.43543],[5.51286,100.43547],[5.51288,100.43577],[5.51284,100.43666],[5.51279,100.43821],[5.51274,100.43931],[5.51274,100.43949],[5.51279,100.43956],[5.51295,100.4396],[5.51339,100.4396],[5.51382,100.43962],[5.51493,100.43967],[5.51499,100.43962],[5.515,100.43874],[5.51498,100.43712],[5.51503,100.4355],[5.51539,100.43546],[5.51647,100.43545],[5.51696,100.43545],[5.51712,100.43548],[5.51726,100.43548],[5.51731,100.43686],[5.51733,100.43709],[5.51733,100.43731],[5.51746,100.43971],[5.51751,100.44111],[5.51768,100.44299],[5.51771,100.44346],[5.51774,100.44361],[5.51762,100.44364],[5.51743,100.4437],[5.51713,100.4438],[5.51655,100.44396],[5.51583,100.4441],[5.51547,100.44415],[5.51536,100.44428],[5.5153,100.44444],[5.51539,100.44564],[5.51551,100.44679],[5.51552,100.44708],[5.51553,100.44714],[5.51553,100.44719],[5.51561,100.4483],[5.51561,100.44891],[5.51564,100.44926],[5.51619,100.44923],[5.51666,100.44921],[5.51671,100.45002],[5.51675,100.4509],[5.51676,100.45148],[5.51629,100.45152],[5.51592,100.45155],[5.51565,100.45156],[5.51567,100.45103],[5.51561,100.44931],[5.51557,100.44886],[5.51556,100.44835],[5.51553,100.44719],[5.51552,100.44714],[5.51552,100.44708],[5.51669,100.44701],[5.51739,100.44699],[5.51763,100.44696],[5.51783,100.44694],[5.51795,100.44693],[5.51795,100.44705],[5.51796,100.44725],[5.51813,100.44982],[5.51822,100.45131],[5.51823,100.45145],[5.51831,100.45292],[5.51834,100.4537],[5.51843,100.45511],[5.51841,100.45533],[5.51847,100.45598],[5.5187,100.45966],[5.51875,100.46045],[5.5188,100.46144],[5.51886,100.46169],[5.51905,100.46445],[5.51907,100.46459],[5.51924,100.46801],[5.51939,100.47021],[5.5194,100.47035],[5.5194,100.47044],[5.51942,100.47067],[5.51977,100.47543],[5.51976,100.47553],[5.51976,100.47584],[5.51977,100.47592],[5.51968,100.47593],[5.51907,100.476],[5.51851,100.47607],[5.5183,100.47617],[5.51813,100.4763],[5.51797,100.47655],[5.51796,100.47679],[5.51797,100.4771],[5.51803,100.47788],[5.51809,100.4787],[5.51813,100.47921],[5.51819,100.48018],[5.51823,100.48078],[5.5183,100.48147],[5.51839,100.48249],[5.51844,100.48292],[5.51849,100.4831],[5.51858,100.48314],[5.51862,100.4832],[5.51864,100.48327],[5.51862,100.48333],[5.5186,100.48337],[5.51856,100.48341],[5.5185,100.48346],[5.51846,100.48366],[5.51844,100.48411],[5.5184,100.48428],[5.51815,100.48493],[5.51791,100.48541],[5.51762,100.48592],[5.51736,100.48655],[5.51718,100.48711],[5.51708,100.48754],[5.51706,100.48787],[5.51706,100.4894],[5.5171,100.49139],[5.51732,100.49185],[5.51753,100.49218],[5.518,100.4927],[5.51831,100.49297],[5.51875,100.49322],[5.51903,100.49337],[5.51934,100.49349],[5.52059,100.49344],[5.52078,100.49365],[5.52098,100.49362],[5.52104,100.49495],[5.52095,100.49522],[5.521,100.49624],[5.52108,100.49909],[5.52116,100.4995],[5.52151,100.50051],[5.52174,100.5011],[5.5218,100.50143],[5.52181,100.50173],[5.52166,100.5028],[5.52145,100.50403],[5.52128,100.50476],[5.52119,100.50508],[5.52091,100.50557],[5.5206,100.50591],[5.52018,100.50618],[5.51982,100.50635],[5.51949,100.50642],[5.51884,100.50643],[5.51815,100.50644],[5.51694,100.50646],[5.51614,100.50644],[5.51545,100.50635],[5.51441,100.50601],[5.51375,100.50579],[5.51357,100.5057],[5.51337,100.50567],[5.51273,100.50545],[5.51103,100.50482],[5.51064,100.50471],[5.50978,100.50422],[5.50888,100.50391],[5.50873,100.5038],[5.50842,100.50371],[5.50558,100.50273],[5.50417,100.50223],[5.50292,100.50182],[5.50284,100.5018],[5.50274,100.50175],[5.50268,100.50174],[5.50265,100.50171],[5.50258,100.50169],[5.50248,100.50165],[5.50173,100.50142],[5.4999,100.50082],[5.49789,100.50015],[5.49463,100.4991],[5.49228,100.49835],[5.48999,100.49763],[5.48935,100.49743],[5.48883,100.49715],[5.48841,100.49672],[5.48803,100.4962],[5.48691,100.49418],[5.48665,100.49377],[5.48612,100.49313],[5.4855,100.49245],[5.48512,100.49177],[5.48482,100.49132],[5.48417,100.49068],[5.48385,100.49029],[5.48332,100.4914],[5.48265,100.49281],[5.48227,100.49365],[5.48192,100.49436],[5.48157,100.49489],[5.48158,100.49501],[5.4808,100.49621],[5.4805,100.4967],[5.4804,100.497],[5.48031,100.49711],[5.48021,100.49716],[5.48009,100.49712],[5.48001,100.49706],[5.48001,100.497],[5.48031,100.49655],[5.48039,100.49639],[5.48083,100.49573],[5.48097,100.49544],[5.4812,100.49491],[5.48123,100.49487],[5.48127,100.49486],[5.48143,100.49497],[5.48188,100.49425],[5.48219,100.49367],[5.48271,100.49257],[5.48329,100.49132],[5.48376,100.4903],[5.4848,100.49126],[5.48513,100.49172],[5.48553,100.49245],[5.48621,100.49319],[5.48663,100.4937],[5.48696,100.49412],[5.48812,100.4962],[5.48849,100.49675],[5.48893,100.49716],[5.48953,100.49744],[5.49194,100.4982],[5.49323,100.4986],[5.49621,100.49954],[5.50175,100.50137],[5.50248,100.50165],[5.50259,100.50168],[5.50265,100.50171],[5.5027,100.50172],[5.50274,100.50175],[5.50287,100.50179],[5.50292,100.50182],[5.50412,100.50217],[5.50712,100.50321],[5.50846,100.50367],[5.50873,100.5038],[5.5089,100.50379],[5.50992,100.50418],[5.51068,100.50461],[5.51173,100.50495],[5.51289,100.5054],[5.51344,100.50558],[5.51357,100.5057],[5.51382,100.50576],[5.51545,100.50629],[5.51618,100.5064],[5.51691,100.50638],[5.51838,100.5064],[5.51955,100.50637],[5.51987,100.50628],[5.52027,100.50608],[5.52053,100.50589],[5.5209,100.50552],[5.52117,100.505],[5.52138,100.50413],[5.52161,100.5026],[5.52176,100.50171],[5.52176,100.50145],[5.52171,100.50118],[5.52162,100.50094],[5.52137,100.5003],[5.52112,100.49944],[5.52105,100.49908],[5.52102,100.49811],[5.52096,100.49608],[5.52095,100.49522],[5.52089,100.49506],[5.52078,100.49365],[5.5206,100.49355],[5.52043,100.49352],[5.51999,100.49355],[5.51932,100.49357],[5.51895,100.49344],[5.51839,100.49315],[5.51797,100.49284],[5.51751,100.49234],[5.51726,100.49197],[5.5171,100.49166],[5.51699,100.4914],[5.51697,100.49048],[5.51698,100.48925],[5.51698,100.48769],[5.51703,100.48742],[5.51708,100.4871],[5.51729,100.48649],[5.5176,100.48578],[5.51783,100.48533],[5.51813,100.48478],[5.51834,100.48412],[5.51838,100.4837],[5.51833,100.48346],[5.51823,100.48339],[5.51821,100.48331],[5.51821,100.48323],[5.51826,100.48315],[5.51833,100.4831],[5.51836,100.48286],[5.51832,100.48238],[5.5182,100.48098],[5.51811,100.47993],[5.51807,100.47943],[5.51799,100.47847],[5.51791,100.47765],[5.51788,100.47722],[5.51785,100.47674],[5.51785,100.47653],[5.51802,100.47626],[5.5182,100.4761],[5.51839,100.476],[5.51865,100.47595],[5.51904,100.47591],[5.51934,100.47588],[5.51967,100.47584],[5.51968,100.47554],[5.51966,100.47545],[5.51963,100.47536],[5.51954,100.47386],[5.51932,100.47089],[5.51928,100.47043],[5.51927,100.47033],[5.51919,100.469],[5.51902,100.46616],[5.51895,100.46461],[5.51894,100.46446],[5.5188,100.46224],[5.51876,100.46158],[5.5188,100.46144],[5.5187,100.46043],[5.51858,100.45838],[5.51842,100.4559],[5.51841,100.45533],[5.51834,100.45501],[5.51821,100.4537],[5.51814,100.45232],[5.5181,100.45145],[5.51798,100.44916],[5.51777,100.44916],[5.51771,100.44919],[5.51673,100.44925],[5.51666,100.44921],[5.51671,100.45002],[5.51675,100.4509],[5.51676,100.45148],[5.51629,100.45152],[5.51592,100.45155],[5.51565,100.45156],[5.51567,100.45103],[5.51561,100.44931],[5.51557,100.44886],[5.51556,100.44835],[5.51553,100.44719],[5.51552,100.44714],[5.51552,100.44708],[5.51546,100.44662],[5.51535,100.44555],[5.51528,100.44456],[5.5153,100.44444],[5.51526,100.44432],[5.51526,100.44417],[5.51524,100.44404],[5.51542,100.44403],[5.51614,100.4439],[5.51664,100.4438],[5.51712,100.44366],[5.51742,100.44357],[5.51759,100.44332],[5.51749,100.44232],[5.51739,100.44128],[5.51735,100.44],[5.51725,100.4381],[5.5172,100.43709],[5.51714,100.43604],[5.51714,100.43571],[5.51701,100.43559],[5.51687,100.4355],[5.51654,100.43549],[5.5159,100.4355],[5.51503,100.4355],[5.51503,100.43705],[5.51503,100.4388],[5.51501,100.4396],[5.515,100.43966],[5.51492,100.4397],[5.51378,100.43966],[5.51295,100.43963],[5.51279,100.43959],[5.51274,100.43953],[5.5127,100.43943],[5.51275,100.43817],[5.5128,100.43659],[5.51286,100.43547],[5.51381,100.43547],[5.51456,100.43549],[5.51503,100.4355],[5.51539,100.43546],[5.51647,100.43545],[5.51696,100.43545],[5.51708,100.43536],[5.51711,100.43529],[5.51706,100.43444],[5.51699,100.43334],[5.51689,100.43213],[5.51688,100.43189],[5.51657,100.43189],[5.51606,100.43187],[5.51583,100.43187],[5.51582,100.43174],[5.51524,100.43174]]}